__time,filtered_pose/dx,filtered_pose/dy,filtered_pose/dz,filtered_pose/p,filtered_pose/pitch,filtered_pose/q,filtered_pose/r,filtered_pose/roll,filtered_pose/timestamp,filtered_pose/vxb,filtered_pose/vyb,filtered_pose/x,filtered_pose/xb,filtered_pose/y,filtered_pose/yaw,filtered_pose/yb,filtered_pose/z,u_control/timestamp,u_control/ux,u_control/uy,u_control/uyaw,u_control/uz
1749762414.811322,-0.008918650,0.023974100,-0.007167560,-0.017333800,-0.009724640,0.005492320,-0.004936370,-0.017396900,1749762414.811321974,-0.023367287,-0.010405271,0.189957000,0.760623532,-0.774067000,-1.633580000,0.238149586,1.313920000,,,,,
1749762414.821062,-0.008701300,0.024117900,-0.006379090,-0.014910700,-0.009628040,0.005779200,-0.005841380,-0.017218200,1749762414.821062088,-0.023522605,-0.010201606,0.189900000,0.760323756,-0.773806000,-1.633760000,0.238213185,1.313960000,,,,,
1749762414.831430,-0.008383110,0.024314300,-0.005625750,-0.012950300,-0.009690870,0.004948940,-0.005930230,-0.017082500,1749762414.831429958,-0.023737845,-0.009898304,0.189859000,0.760038814,-0.773537000,-1.633840000,0.238216144,1.314010000,,,,,
1749762414.841360,-0.008097540,0.024516300,-0.004872960,-0.011642300,-0.009852770,0.003493890,-0.004245750,-0.017022000,1749762414.841360092,-0.023959264,-0.009621475,0.189817000,0.759814239,-0.773264000,-1.633650000,0.238012667,1.314060000,,,,,
1749762414.851434,-0.007879380,0.024681400,-0.004124250,-0.011324800,-0.009980870,0.002371720,-0.001971190,-0.017092300,1749762414.851433992,-0.024140470,-0.009407116,0.189767000,0.759617883,-0.772995000,-1.633360000,0.237725590,1.314120000,,,,,
1749762414.861391,-0.007639600,0.024831200,-0.003337170,-0.010670300,-0.009941780,0.002477500,-0.001717060,-0.017110400,1749762414.861391068,-0.024305152,-0.009176685,0.189723000,0.759356913,-0.772726000,-1.633340000,0.237649670,1.314200000,,,,,
1749762414.871396,-0.007381460,0.025013700,-0.002556970,-0.010543000,-0.009943240,0.002296890,-0.002628610,-0.017198600,1749762414.871396065,-0.024502090,-0.008934132,0.189685000,0.759050177,-0.772452000,-1.633490000,0.237708479,1.314280000,,,,,
1749762414.881369,-0.007123080,0.025191300,-0.001813660,-0.009244280,-0.009945340,0.002124350,-0.004532030,-0.017115400,1749762414.881369114,-0.024692835,-0.008695042,0.189648000,0.758703328,-0.772176000,-1.633800000,0.237889469,1.314360000,,,,,
1749762414.891596,-0.006557280,0.025343800,-0.001066420,-0.006904260,-0.009923480,0.002128640,-0.006121910,-0.016867900,1749762414.891596079,-0.024878458,-0.008146684,0.189659000,0.758364923,-0.771902000,-1.634070000,0.238087963,1.314450000,,,,,
1749762414.901599,-0.006061760,0.025596200,-0.000390344,-0.005821080,-0.009764640,0.003075430,-0.004161500,-0.016779600,1749762414.901598930,-0.025163372,-0.007662579,0.189666000,0.758126421,-0.771611000,-1.633850000,0.237909767,1.314540000,,,,,
1749762414.911165,-0.005649970,0.025980100,0.000163671,-0.005659560,-0.009733960,0.003074910,-0.003530400,-0.016814300,1749762414.911164999,-0.025572820,-0.007274519,0.189665000,0.757827995,-0.771300000,-1.633800000,0.237851281,1.314610000,,,,,
1749762414.921416,-0.005269580,0.026356200,0.000685392,-0.005496230,-0.009559210,0.004066080,-0.004655250,-0.016847200,1749762414.921416044,-0.025970740,-0.006923758,0.189664000,0.757466102,-0.770985000,-1.634000000,0.237981948,1.314690000,,,,,
1749762414.931336,-0.004906020,0.026684300,0.001198000,-0.004588380,-0.009308290,0.005513330,-0.006014550,-0.016770200,1749762414.931335926,-0.026319567,-0.006587964,0.189664000,0.757098590,-0.770674000,-1.634240000,0.238144015,1.314770000,,,,,
1749762414.941404,-0.004676660,0.027020500,0.001706150,-0.001529440,-0.009049740,0.006913490,-0.006722510,-0.016371700,1749762414.941404104,-0.026668548,-0.006384915,0.189648000,0.756743751,-0.770358000,-1.634410000,0.238236662,1.314860000,,,,,
1749762414.951194,-0.004726070,0.027311000,0.002233370,0.001531680,-0.008825970,0.007977860,-0.007326880,-0.015942300,1749762414.951194048,-0.026954351,-0.006456735,0.189594000,0.756400082,-0.770046000,-1.634560000,0.238276400,1.314950000,,,,,
1749762414.961146,-0.004588350,0.027540300,0.002764290,0.003442370,-0.008591650,0.009041620,-0.008535210,-0.015649400,1749762414.961146116,-0.027190376,-0.006340704,0.189567000,0.756036843,-0.769740000,-1.634810000,0.238418973,1.315050000,,,,,
1749762414.971448,-0.004221990,0.027666300,0.003348850,0.004638830,-0.008322510,0.010271800,-0.008284420,-0.015441100,1749762414.971447945,-0.027339255,-0.005984522,0.189574000,0.755731076,-0.769446000,-1.634860000,0.238444939,1.315160000,,,,,
1749762414.981347,-0.003973090,0.027695000,0.003959030,0.006163720,-0.007981570,0.011911500,-0.007697270,-0.015173200,1749762414.981347084,-0.027383830,-0.005737970,0.189568000,0.755451037,-0.769165000,-1.634860000,0.238420961,1.315290000,,,,,
1749762414.991029,-0.003688510,0.027736000,0.004513600,0.008180810,-0.007608380,0.013660300,-0.007283870,-0.014818500,1749762414.991029024,-0.027442911,-0.005456873,0.189570000,0.755166105,-0.768882000,-1.634870000,0.238412391,1.315410000,,,,,
1749762415.001189,-0.003460640,0.027768900,0.004984820,0.009353430,-0.007206320,0.015487600,-0.006942480,-0.014566300,1749762415.001188993,-0.027490177,-0.005232402,0.189566000,0.754877788,-0.768600000,-1.634900000,0.238412989,1.315520000,,,,,
1749762415.011437,-0.003232370,0.027881900,0.005493580,0.009309400,-0.006733400,0.017676700,-0.006451940,-0.014479200,1749762415.011436939,-0.027617618,-0.005011563,0.189564000,0.754586904,-0.768306000,-1.634890000,0.238384614,1.315640000,,,,,
1749762415.021309,-0.003094180,0.027956500,0.005982510,0.011150000,-0.006464940,0.018307800,-0.004843170,-0.014118700,1749762415.021308899,-0.027701696,-0.004874003,0.189552000,0.754336395,-0.768016000,-1.634730000,0.238233374,1.315770000,,,,,
1749762415.031335,-0.002820770,0.027941300,0.006521190,0.013656800,-0.006220930,0.018727200,-0.004175130,-0.013643000,1749762415.031335115,-0.027704225,-0.004598795,0.189561000,0.754071296,-0.767739000,-1.634680000,0.238186954,1.315910000,,,,,
1749762415.041294,-0.002397460,0.027922500,0.007124530,0.014567900,-0.006060110,0.018545200,-0.002287830,-0.013374100,1749762415.041294098,-0.027713489,-0.004168497,0.189594000,0.753849901,-0.767462000,-1.634440000,0.238021286,1.316060000,,,,,
1749762415.051305,-0.002180660,0.027835800,0.007686810,0.015523200,-0.005969340,0.017893400,0.000529890,-0.013089600,1749762415.051305056,-0.027642251,-0.003936118,0.189602000,0.753673323,-0.767195000,-1.634060000,0.237725910,1.316210000,,,,,
1749762415.061333,-0.002086980,0.027829600,0.008279480,0.015507900,-0.005833220,0.017598700,0.001284980,-0.012936600,1749762415.061332941,-0.027642446,-0.003838917,0.189594000,0.753425902,-0.766918000,-1.633940000,0.237610004,1.316380000,,,,,
1749762415.071403,-0.002140900,0.027852700,0.008881460,0.013889900,-0.005760620,0.016887100,0.004138290,-0.013016600,1749762415.071403027,-0.027663731,-0.003882568,0.189565000,0.753246004,-0.766636000,-1.633520000,0.237246925,1.316550000,,,,,
1749762415.081388,-0.002015940,0.027920700,0.009533510,0.014005400,-0.005748180,0.015810400,0.005204960,-0.012860900,1749762415.081387997,-0.027740182,-0.003756568,0.189562000,0.753006188,-0.766348000,-1.633320000,0.237075282,1.316730000,,,,,
1749762415.091472,-0.001756970,0.028099200,0.010231700,0.015331700,-0.005816410,0.014252500,0.005788540,-0.012528200,1749762415.091471910,-0.027935005,-0.003505347,0.189579000,0.752733905,-0.766043000,-1.633180000,0.236967811,1.316930000,,,,,
1749762415.101408,-0.001491600,0.028180100,0.010913700,0.016928300,-0.005952950,0.012331600,0.003950170,-0.012142900,1749762415.101408005,-0.028031610,-0.003251423,0.189600000,0.752390385,-0.765750000,-1.633390000,0.237128511,1.317130000,,,,,
1749762415.111537,-0.001209910,0.028116200,0.011526300,0.017668600,-0.006109150,0.010407600,0.000647736,-0.011866100,1749762415.111536980,-0.027984148,-0.002978601,0.189626000,0.752012878,-0.765478000,-1.633830000,0.237468354,1.317330000,,,,,
1749762415.121058,-0.001135850,0.028092200,0.012107100,0.018602500,-0.006229630,0.008862000,-0.001242370,-0.011553700,1749762415.121057987,-0.027964076,-0.002910727,0.189625000,0.751671355,-0.765200000,-1.634100000,0.237652804,1.317530000,,,,,
1749762415.131227,-0.001117430,0.028115000,0.012685200,0.020317800,-0.006287140,0.007856200,-0.001248460,-0.011118500,1749762415.131227016,-0.027987966,-0.002894066,0.189616000,0.751386117,-0.764916000,-1.634110000,0.237633370,1.317730000,,,,,
1749762415.141330,-0.001202760,0.028178500,0.013285400,0.019889100,-0.006199120,0.007921270,-0.001426500,-0.010977600,1749762415.141330004,-0.028045821,-0.002984365,0.189593000,0.751087651,-0.764625000,-1.634150000,0.237622048,1.317950000,,,,,
1749762415.151375,-0.001402220,0.028150200,0.013849700,0.018854500,-0.005887650,0.009519950,-0.001899280,-0.010929000,1749762415.151375055,-0.028004695,-0.003183873,0.189552000,0.750794795,-0.764348000,-1.634230000,0.237623657,1.318160000,,,,,
1749762415.161394,-0.001593590,0.027984800,0.014300900,0.017286800,-0.005511710,0.011452300,-0.002680380,-0.010968200,1749762415.161393881,-0.027827025,-0.003368269,0.189510000,0.750506709,-0.764090000,-1.634370000,0.237670460,1.318360000,,,,,
1749762415.171051,-0.001989310,0.027717300,0.014655000,0.016020800,-0.005275710,0.012288500,-0.003076890,-0.010979300,1749762415.171051025,-0.027534625,-0.003748398,0.189436000,0.750251889,-0.763849000,-1.634450000,0.237641319,1.318560000,,,,,
1749762415.181402,-0.002406000,0.027432600,0.014905600,0.013902500,-0.005045560,0.013026800,-0.003686990,-0.011126800,1749762415.181401968,-0.027223498,-0.004149401,0.189356000,0.749992944,-0.763613000,-1.634570000,0.237636470,1.318740000,,,,,
1749762415.191305,-0.002781160,0.027176000,0.015261600,0.011927200,-0.004653410,0.014829400,-0.004382730,-0.011274800,1749762415.191304922,-0.026942879,-0.004511217,0.189277000,0.749728198,-0.763376000,-1.634710000,0.237647491,1.318940000,,,,,
1749762415.201712,-0.003006770,0.026835800,0.015657600,0.009755230,-0.004434350,0.015316500,-0.004566050,-0.011471000,1749762415.201711893,-0.026588634,-0.004716499,0.189217000,0.749493851,-0.763154000,-1.634780000,0.237625899,1.319150000,,,,,
1749762415.211599,-0.003110810,0.026435600,0.016068900,0.006004450,-0.004305620,0.015148200,-0.003449680,-0.011918400,1749762415.211599112,-0.026183176,-0.004791595,0.189171000,0.749315725,-0.762944000,-1.634660000,0.237476650,1.319370000,,,,,
1749762415.221394,-0.003191370,0.025995200,0.016475500,0.002347330,-0.003960010,0.016484500,-0.002272590,-0.012389700,1749762415.221394062,-0.025739162,-0.004840539,0.189129000,0.749148673,-0.762743000,-1.634530000,0.237324520,1.319590000,,,,,
1749762415.231333,-0.003222090,0.025688400,0.016767900,-0.000712348,-0.003701880,0.017126600,-0.001294210,-0.012810700,1749762415.231333017,-0.025431610,-0.004848604,0.189092000,0.748964934,-0.762528000,-1.634410000,0.237184028,1.319800000,,,,,
1749762415.241350,-0.003074530,0.025480200,0.017096700,-0.003409060,-0.003492630,0.017388100,-0.001209590,-0.013209600,1749762415.241349936,-0.025233212,-0.004688107,0.189082000,0.748739029,-0.762301000,-1.634410000,0.237159617,1.320010000,,,,,
1749762415.251368,-0.002829000,0.025307500,0.017466800,-0.004786360,-0.003508760,0.016080100,-0.001627990,-0.013443800,1749762415.251368046,-0.025076159,-0.004433851,0.189086000,0.748493635,-0.762072000,-1.634480000,0.237201447,1.320240000,,,,,
1749762415.261053,-0.002541860,0.025044800,0.017805300,-0.005381630,-0.003429250,0.015520600,-0.002390350,-0.013578200,1749762415.261053085,-0.024831728,-0.004133803,0.189100000,0.748247338,-0.761857000,-1.634610000,0.237299010,1.320460000,,,,,
1749762415.271446,-0.002465880,0.024737800,0.018079300,-0.007816110,-0.003234250,0.015794500,-0.001776110,-0.013985700,1749762415.271445990,-0.024530481,-0.004036683,0.189085000,0.748059321,-0.761651000,-1.634540000,0.237218540,1.320680000,,,,,
1749762415.281323,-0.002237690,0.024393500,0.018434800,-0.011184200,-0.003114320,0.015532900,0.000397860,-0.014553100,1749762415.281322956,-0.024202551,-0.003779763,0.189094000,0.747933278,-0.761454000,-1.634240000,0.236990603,1.320910000,,,,,
1749762415.291418,-0.002233200,0.024070700,0.018857400,-0.015669500,-0.003025780,0.015073100,0.001557000,-0.015316600,1749762415.291418076,-0.023881323,-0.003750757,0.189072000,0.747778341,-0.761257000,-1.634070000,0.236829039,1.321160000,,,,,
1749762415.301367,-0.002229840,0.023796400,0.019244300,-0.020684000,-0.002961270,0.014479600,0.001582220,-0.016201800,1749762415.301367044,-0.023607859,-0.003729587,0.189050000,0.747583870,-0.761056000,-1.634050000,0.236779422,1.321400000,,,,,
1749762415.311104,-0.001850310,0.023475800,0.019587600,-0.024607300,-0.002910040,0.013835700,0.000174271,-0.016978600,1749762415.311104059,-0.023311258,-0.003334979,0.189083000,0.747345163,-0.760864000,-1.634240000,0.236942219,1.321640000,,,,,
1749762415.321426,-0.001385660,0.023068300,0.019936700,-0.027740600,-0.003010020,0.012195200,-0.000786996,-0.017679900,1749762415.321425915,-0.022933638,-0.002848639,0.189132000,0.747134224,-0.760689000,-1.634380000,0.237084626,1.321890000,,,,,
1749762415.331424,-0.000943819,0.022683700,0.020221500,-0.028745500,-0.003323930,0.009194980,-0.001120130,-0.018103300,1749762415.331423998,-0.022577771,-0.002384382,0.189183000,0.746944480,-0.760514000,-1.634430000,0.237161751,1.322130000,,,,,
1749762415.341269,-0.000485540,0.022344100,0.020511200,-0.029943600,-0.003466180,0.007583010,-0.000431413,-0.018564900,1749762415.341269016,-0.022268153,-0.001903654,0.189240000,0.746782189,-0.760336000,-1.634350000,0.237147575,1.322370000,,,,,
1749762415.351425,-0.000067736,0.022036500,0.020806000,-0.029589000,-0.003552210,0.006468900,0.001057660,-0.018812800,1749762415.351424932,-0.021988032,-0.001462320,0.189296000,0.746653156,-0.760158000,-1.634130000,0.237027899,1.322620000,,,,,
1749762415.361302,0.000396160,0.021661600,0.021048000,-0.027682800,-0.003637770,0.005434680,0.002863730,-0.018831700,1749762415.361301899,-0.021643507,-0.000969782,0.189362000,0.746547297,-0.759992000,-1.633860000,0.236881701,1.322870000,,,,,
1749762415.371285,0.000967435,0.021260700,0.021164500,-0.024861600,-0.003849910,0.003600420,0.004470110,-0.018698700,1749762415.371284962,-0.021279503,-0.000368845,0.189449000,0.746444714,-0.759833000,-1.633600000,0.236764440,1.323090000,,,,,
1749762415.381264,0.001479870,0.020759600,0.021161800,-0.021363900,-0.003882070,0.003131200,0.006348700,-0.018439100,1749762415.381263971,-0.020811496,0.000180690,0.189533000,0.746376467,-0.759694000,-1.633280000,0.236600722,1.323300000,,,,,
1749762415.391281,0.001768670,0.020276600,0.021111600,-0.018425100,-0.003837720,0.003220990,0.007668830,-0.018225800,1749762415.391280890,-0.020347347,0.000504173,0.189590000,0.746294316,-0.759556000,-1.633030000,0.236462427,1.323510000,,,,,
1749762415.401630,0.001993370,0.019834100,0.021002300,-0.015170400,-0.003753860,0.003576470,0.007447680,-0.017937200,1749762415.401629925,-0.019919640,0.000756955,0.189640000,0.746165297,-0.759418000,-1.632980000,0.236466440,1.323700000,,,,,
1749762415.411351,0.002425490,0.019379900,0.020826000,-0.010833700,-0.003772500,0.003202020,0.006666680,-0.017458900,1749762415.411350965,-0.019493220,0.001215685,0.189723000,0.746017934,-0.759285000,-1.633020000,0.236570855,1.323890000,,,,,
1749762415.421319,0.002812960,0.018845500,0.020691600,-0.006120750,-0.003741790,0.003193000,0.006402870,-0.016882500,1749762415.421319008,-0.018983900,0.001636206,0.189804000,0.745904221,-0.759169000,-1.632990000,0.236622108,1.324080000,,,,,
1749762415.431108,0.003314280,0.018263100,0.020512300,-0.000282279,-0.003487960,0.004720390,0.006072860,-0.016095500,1749762415.431107998,-0.018433763,0.002172939,0.189905000,0.745796512,-0.759065000,-1.632980000,0.236708991,1.324260000,,,,,
1749762415.441288,0.003569200,0.017611800,0.020294500,0.005717300,-0.003130750,0.006854150,0.006212370,-0.015226700,1749762415.441287994,-0.017799366,0.002469265,0.189975000,0.745723271,-0.758977000,-1.632900000,0.236713730,1.324430000,,,,,
1749762415.451290,0.003746050,0.016890200,0.020042300,0.010738900,-0.002822450,0.008504480,0.006275710,-0.014440000,1749762415.451289892,-0.017089917,0.002691926,0.190036000,0.745667561,-0.758906000,-1.632820000,0.236710553,1.324600000,,,,,
1749762415.461307,0.004001420,0.016173000,0.019803200,0.014385600,-0.002656440,0.009061790,0.004924780,-0.013802800,1749762415.461307049,-0.016390344,0.002988965,0.190111000,0.745564881,-0.758841000,-1.632960000,0.236885761,1.324760000,,,,,
1749762415.471474,0.004156500,0.015560000,0.019451500,0.016804700,-0.002589850,0.008896420,0.002273710,-0.013307500,1749762415.471473932,-0.015789211,0.003176617,0.190173000,0.745410936,-0.758769000,-1.633290000,0.237189167,1.324910000,,,,,
1749762415.481329,0.004450630,0.015030600,0.019134400,0.018464500,-0.002550050,0.008557960,-0.000000970,-0.012898300,1749762415.481328964,-0.015280299,0.003498499,0.190258000,0.745253193,-0.758690000,-1.633600000,0.237500108,1.325060000,,,,,
1749762415.491323,0.004793030,0.014431200,0.018761600,0.019689200,-0.002582630,0.007744650,-0.002462250,-0.012535700,1749762415.491322994,-0.014704966,0.003872550,0.190352000,0.745098837,-0.758627000,-1.633960000,0.237858219,1.325200000,,,,,
1749762415.501273,0.005317980,0.013800800,0.018369600,0.021315000,-0.002648800,0.006756170,-0.004437790,-0.012102600,1749762415.501272917,-0.014110333,0.004431871,0.190476000,0.744964306,-0.758574000,-1.634270000,0.238209577,1.325330000,,,,,
1749762415.511310,0.005725780,0.013154500,0.017978200,0.022909100,-0.002875020,0.004733990,-0.006090410,-0.011657900,1749762415.511310101,-0.013492568,0.004876068,0.190589000,0.744846468,-0.758530000,-1.634550000,0.238528125,1.325450000,,,,,
1749762415.521277,0.006027980,0.012530800,0.017611600,0.024102100,-0.003120960,0.002715260,-0.008084890,-0.011255500,1749762415.521276951,-0.012891266,0.005212750,0.190690000,0.744713163,-0.758489000,-1.634910000,0.238894420,1.325580000,,,,,
1749762415.531247,0.006326270,0.011956700,0.017183600,0.024359600,-0.003360050,0.000882712,-0.009789300,-0.010977000,1749762415.531246901,-0.012339231,0.005543261,0.190793000,0.744588134,-0.758447000,-1.635230000,0.239232797,1.325690000,,,,,
1749762415.541165,0.006611860,0.011361200,0.016712100,0.024764900,-0.003606000,-0.000870981,-0.012019700,-0.010674600,1749762415.541165113,-0.011765877,0.005861543,0.190898000,0.744445459,-0.758414000,-1.635660000,0.239655588,1.325800000,,,,,
1749762415.551391,0.006968180,0.010700100,0.016275200,0.024885200,-0.003924500,-0.003003340,-0.013854200,-0.010409400,1749762415.551390886,-0.011131642,0.006255736,0.191016000,0.744328681,-0.758396000,-1.636040000,0.240055036,1.325900000,,,,,
1749762415.561285,0.007385520,0.010014200,0.015864600,0.024540100,-0.004198270,-0.004680980,-0.015457700,-0.010210700,1749762415.561285019,-0.010476895,0.006713031,0.191146000,0.744224301,-0.758389000,-1.636410000,0.240459682,1.326000000,,,,,
1749762415.571507,0.007849220,0.009288680,0.015440600,0.023446200,-0.004428040,-0.005940360,-0.016451700,-0.010124200,1749762415.571506977,-0.009785506,0.007220367,0.191287000,0.744147831,-0.758394000,-1.636710000,0.240823962,1.326100000,,,,,
1749762415.581054,0.008395430,0.008474090,0.015018100,0.022288600,-0.004676560,-0.007242070,-0.015395100,-0.010058000,1749762415.581053972,-0.009008740,0.007818955,0.191445000,0.744160958,-0.758420000,-1.636720000,0.240990773,1.326190000,,,,,
1749762415.591154,0.008817850,0.007652680,0.014575200,0.021597900,-0.004869800,-0.008073680,-0.013072300,-0.009935420,1749762415.591154099,-0.008215448,0.008296048,0.191591000,0.744228659,-0.758454000,-1.636540000,0.241004738,1.326280000,,,,,
1749762415.601454,0.009240560,0.006882160,0.014129800,0.020780400,-0.005144030,-0.009405490,-0.009464700,-0.009838210,1749762415.601454020,-0.007470943,0.008771379,0.191740000,0.744348787,-0.758490000,-1.636150000,0.240865504,1.326360000,,,,,
1749762415.611572,0.009743790,0.006104960,0.013735900,0.019820200,-0.005426100,-0.010699700,-0.005641870,-0.009769910,1749762415.611572027,-0.006723977,0.009327385,0.191906000,0.744492649,-0.758534000,-1.635690000,0.240691582,1.326440000,,,,,
1749762415.621463,0.010192300,0.005305230,0.013286200,0.018513700,-0.005671140,-0.011649900,-0.001804550,-0.009761520,1749762415.621463060,-0.005950101,0.009829789,0.192068000,0.744657363,-0.758589000,-1.635190000,0.240484509,1.326520000,,,,,
1749762415.631299,0.010654100,0.004550800,0.012736200,0.017494400,-0.005807810,-0.011788700,0.001479390,-0.009724460,1749762415.631299019,-0.005222194,0.010341582,0.192237000,0.744813993,-0.758646000,-1.634730000,0.240314237,1.326570000,,,,,
1749762415.641302,0.011012100,0.003877050,0.012162600,0.016512600,-0.005974400,-0.012123900,0.004919810,-0.009692160,1749762415.641302109,-0.004567107,0.010744273,0.192396000,0.744980676,-0.758698000,-1.634210000,0.240088877,1.326610000,,,,,
1749762415.651295,0.011306400,0.003256060,0.011578100,0.015490200,-0.006035880,-0.011712600,0.007031240,-0.009675570,1749762415.651294947,-0.003962138,0.011078721,0.192549000,0.745105917,-0.758749000,-1.633860000,0.239984029,1.326650000,,,,,
1749762415.661288,0.011536800,0.002660060,0.010977600,0.014794700,-0.006090050,-0.011279200,0.009741780,-0.009621720,1749762415.661288023,-0.003376510,0.011347813,0.192695000,0.745263389,-0.758803000,-1.633390000,0.239782895,1.326680000,,,,,
1749762415.671444,0.011635200,0.002067720,0.010372700,0.014497700,-0.006184580,-0.011153500,0.013060000,-0.009516920,1749762415.671443939,-0.002784824,0.011484690,0.192825000,0.745454166,-0.758863000,-1.632810000,0.239484071,1.326700000,,,,,
1749762415.681520,0.011795400,0.001539770,0.009749890,0.015430800,-0.006436350,-0.012118800,0.015095000,-0.009236370,1749762415.681519985,-0.002262913,0.011678252,0.192965000,0.745601960,-0.758919000,-1.632390000,0.239314140,1.326710000,,,,,
1749762415.691341,0.011946800,0.001007310,0.009092400,0.015861800,-0.006668780,-0.012884500,0.015996100,-0.009019440,1749762415.691340923,-0.001737342,0.011862645,0.193105000,0.745724636,-0.758981000,-1.632100000,0.239241441,1.326720000,,,,,
1749762415.701312,0.012033100,0.000537600,0.008470010,0.015474800,-0.006971510,-0.014081400,0.017212900,-0.008917060,1749762415.701312065,-0.001269849,0.011977980,0.193237000,0.745853393,-0.759039000,-1.631770000,0.239130628,1.326720000,,,,,
1749762415.711427,0.012082700,0.000139130,0.007869270,0.015202900,-0.007360610,-0.015790400,0.019608600,-0.008801810,1749762415.711426973,-0.000868875,0.012052222,0.193364000,0.746022871,-0.759092000,-1.631250000,0.238872722,1.326710000,,,,,
1749762415.721348,0.012261000,-0.000266998,0.007259970,0.015976800,-0.007907900,-0.018470600,0.020260000,-0.008537350,1749762415.721348047,-0.000470707,0.012254870,0.193511000,0.746140171,-0.759149000,-1.630960000,0.238806527,1.326700000,,,,,
1749762415.731401,0.012523200,-0.000644112,0.006611460,0.016789800,-0.008553530,-0.021643200,0.020537500,-0.008259470,1749762415.731400967,-0.000106906,0.012539298,0.193672000,0.746248105,-0.759207000,-1.630710000,0.238784168,1.326680000,,,,,
1749762415.741328,0.012741500,-0.001038310,0.005957330,0.017229400,-0.009229940,-0.024809300,0.021742100,-0.008027700,1749762415.741328001,0.000278370,0.012780705,0.193829000,0.746392336,-0.759270000,-1.630330000,0.238661047,1.326650000,,,,,
1749762415.751318,0.012935700,-0.001423540,0.005377360,0.016803000,-0.009890100,-0.027645700,0.021361200,-0.007917360,1749762415.751317978,0.000653443,0.012997377,0.193984000,0.746488196,-0.759337000,-1.630170000,0.238700324,1.326630000,,,,,
1749762415.761056,0.013147700,-0.001904000,0.004781840,0.016380400,-0.010514800,-0.030042700,0.020545500,-0.007810720,1749762415.761055946,0.001121668,0.013237413,0.194144000,0.746584049,-0.759421000,-1.630080000,0.238797835,1.326600000,,,,,
1749762415.771288,0.013389600,-0.002354500,0.004261230,0.015276200,-0.011162800,-0.032434900,0.019635300,-0.007807340,1749762415.771287918,0.001558124,0.013505455,0.194311000,0.746677122,-0.759505000,-1.630000000,0.238909785,1.326570000,,,,,
1749762415.781322,0.013523600,-0.002734900,0.003724790,0.013952100,-0.011758900,-0.034305900,0.018076300,-0.007846940,1749762415.781322002,0.001929519,0.013661786,0.194464000,0.746739758,-0.759584000,-1.630030000,0.239089593,1.326530000,,,,,
1749762415.791325,0.013677700,-0.003119790,0.003181310,0.011635400,-0.012416900,-0.036473500,0.016510200,-0.008043990,1749762415.791325092,0.002303920,0.013838516,0.194622000,0.746801296,-0.759667000,-1.630080000,0.239289570,1.326490000,,,,,
1749762415.801338,0.013820500,-0.003515680,0.002588470,0.010389700,-0.013158400,-0.039066800,0.015708400,-0.008108620,1749762415.801337957,0.002691354,0.014004386,0.194779000,0.746892809,-0.759756000,-1.630030000,0.239414223,1.326440000,,,,,
1749762415.811764,0.013967400,-0.003861380,0.001927900,0.009120060,-0.013884800,-0.041377300,0.015395600,-0.008189180,1749762415.811764002,0.003029310,0.014171161,0.194939000,0.746994537,-0.759841000,-1.629920000,0.239496806,1.326370000,,,,,
1749762415.821436,0.014172300,-0.004196240,0.001256700,0.006607880,-0.014556400,-0.043152000,0.014054400,-0.008462950,1749762415.821435928,0.003350902,0.014395623,0.195108000,0.747062810,-0.759929000,-1.629960000,0.239700594,1.326290000,,,,,
1749762415.831368,0.014439600,-0.004474190,0.000553051,0.003875360,-0.015239700,-0.044885500,0.012466900,-0.008793860,1749762415.831367970,0.003611239,0.014679216,0.195289000,0.747112371,-0.760011000,-1.630050000,0.239953367,1.326200000,,,,,
1749762415.841307,0.014561500,-0.004684360,-0.000179616,0.001484850,-0.015765700,-0.045416300,0.010426500,-0.009102400,1749762415.841306925,0.003811303,0.014813996,0.195451000,0.747136815,-0.760086000,-1.630220000,0.240246541,1.326100000,,,,,
1749762415.851362,0.014712000,-0.004834240,-0.000920625,-0.000217035,-0.016113800,-0.044686200,0.008581790,-0.009334810,1749762415.851361990,0.003949435,0.014973803,0.195619000,0.747154834,-0.760155000,-1.630390000,0.240545362,1.325990000,,,,,
1749762415.861729,0.014860900,-0.004951210,-0.001606920,-0.001588050,-0.016385500,-0.043480800,0.006167710,-0.009536160,1749762415.861728907,0.004053395,0.015130460,0.195787000,0.747147101,-0.760220000,-1.630650000,0.240911201,1.325880000,,,,,
1749762415.871454,0.015042100,-0.005080550,-0.002329080,-0.001620010,-0.016573900,-0.041784400,0.003147470,-0.009556690,1749762415.871454000,0.004165843,0.015320656,0.195962000,0.747113841,-0.760289000,-1.631030000,0.241373936,1.325760000,,,,,
1749762415.881349,0.015248700,-0.005188010,-0.003050140,-0.001045250,-0.016596700,-0.039065100,0.000908332,-0.009489380,1749762415.881349087,0.004256167,0.015534585,0.196143000,0.747098743,-0.760355000,-1.631320000,0.241775249,1.325630000,,,,,
1749762415.891382,0.015522300,-0.005216480,-0.003744850,-0.000874958,-0.016538200,-0.035973600,-0.000453760,-0.009475100,1749762415.891381979,0.004265032,0.015810217,0.196335000,0.747097039,-0.760411000,-1.631510000,0.242112238,1.325500000,,,,,
1749762415.901109,0.015789100,-0.005216050,-0.004434610,-0.001301970,-0.016386300,-0.032452400,-0.002131240,-0.009545880,1749762415.901108980,0.004244395,0.016077561,0.196529000,0.747076571,-0.760463000,-1.631760000,0.242495812,1.325360000,,,,,
1749762415.911160,0.015923200,-0.005191120,-0.005128960,-0.001958250,-0.016077300,-0.028091600,-0.004291150,-0.009654250,1749762415.911159992,0.004205991,0.016211282,0.196706000,0.747034573,-0.760512000,-1.632090000,0.242922004,1.325220000,,,,,
1749762415.921272,0.015966400,-0.005115090,-0.005799710,-0.003065960,-0.015584900,-0.022768500,-0.005847760,-0.009834760,1749762415.921272039,0.004123070,0.016250857,0.196872000,0.746998668,-0.760552000,-1.632360000,0.243291841,1.325070000,,,,,
1749762415.931388,0.016000300,-0.005032110,-0.006501930,-0.004845620,-0.015048300,-0.017507600,-0.008439280,-0.010124000,1749762415.931387901,0.004030998,0.016281363,0.197036000,0.746921308,-0.760592000,-1.632800000,0.243786660,1.324910000,,,,,
1749762415.937650,,,,,,,,,,,,,,,,,,1749762415.937649965,0.000000000,0.000000000,0.000000000,0.250000000
1749762415.941290,0.016067700,-0.004939300,-0.007217210,-0.006457820,-0.014438700,-0.012106800,-0.009483460,-0.010406700,1749762415.941289902,0.003930431,0.016343787,0.197206000,0.746890575,-0.760628000,-1.633030000,0.244130355,1.324740000,,,,,
1749762415.951109,0.015992600,-0.004852440,-0.007883600,-0.008040740,-0.013821000,-0.007021820,-0.010088800,-0.010701200,1749762415.951108932,0.003845320,0.016264161,0.197356000,0.746871747,-0.760665000,-1.633220000,0.244424276,1.324570000,,,,,
1749762415.961345,0.016052900,-0.004810260,-0.008441950,-0.008929610,-0.013134300,-0.001811800,-0.010114900,-0.010910700,1749762415.961344957,0.003797828,0.016322092,0.197525000,0.746879657,-0.760708000,-1.633320000,0.244670318,1.324410000,,,,,
1749762415.971385,0.015967400,-0.004794090,-0.008987560,-0.008403930,-0.012505800,0.002639060,-0.009946790,-0.010923700,1749762415.971385002,0.003785733,0.016236052,0.197673000,0.746895734,-0.760753000,-1.633400000,0.244880593,1.324250000,,,,,
1749762415.981285,0.015749100,-0.004825750,-0.009525380,-0.008952330,-0.011840800,0.007034700,-0.010027000,-0.011087400,1749762415.981285095,0.003829227,0.016020582,0.197801000,0.746913666,-0.760806000,-1.633510000,0.245093820,1.324080000,,,,,
1749762415.985838,,,,,,,,,,,,,,,,,,1749762415.985837936,0.000000000,0.000000000,0.000000000,0.250000000
1749762415.991325,0.015497700,-0.004860010,-0.010052500,-0.009019700,-0.011185700,0.011059300,-0.009984940,-0.011186700,1749762415.991324902,0.003877756,0.015772172,0.197922000,0.746936906,-0.760859000,-1.633600000,0.245285130,1.323910000,,,,,
1749762416.001194,0.015115700,-0.004898970,-0.010543900,-0.009397180,-0.010517000,0.014901400,-0.010348300,-0.011331700,1749762416.001194000,0.003938151,0.015394001,0.198021000,0.746945314,-0.760913000,-1.633760000,0.245506838,1.323730000,,,,,
1749762416.011304,0.014662400,-0.004886260,-0.011050000,-0.009452380,-0.009824450,0.018642400,-0.011354400,-0.011433700,1749762416.011303902,0.003950254,0.014941787,0.198106000,0.746926449,-0.760961000,-1.634010000,0.245781429,1.323560000,,,,,
1749762416.021309,0.014267900,-0.004860950,-0.011607900,-0.009623860,-0.009257690,0.021260300,-0.012667600,-0.011553200,1749762416.021308899,0.003945551,0.014547661,0.198196000,0.746891878,-0.761006000,-1.634310000,0.246098171,1.323360000,,,,,
1749762416.031330,0.013889100,-0.004897030,-0.012164300,-0.009071780,-0.008824130,0.022781200,-0.012763300,-0.011569200,1749762416.031330109,0.004003617,0.014172475,0.198283000,0.746905773,-0.761060000,-1.634450000,0.246292992,1.323170000,,,,,
1749762416.033998,,,,,,,,,,,,,,,,,,1749762416.033998013,0.000000000,0.000000000,0.000000000,0.250000000
1749762416.041352,0.013595700,-0.005023770,-0.012604900,-0.007772830,-0.008432210,0.023910800,-0.011783000,-0.011471200,1749762416.041352034,0.004148903,0.013887690,0.198380000,0.746968931,-0.761127000,-1.634440000,0.246386588,1.322980000,,,,,
1749762416.051191,0.013470000,-0.005192480,-0.012898100,-0.007217940,-0.008084050,0.024661400,-0.010393500,-0.011468300,1749762416.051191092,0.004326505,0.013772585,0.198497000,0.747058521,-0.761202000,-1.634350000,0.246440887,1.322810000,,,,,
1749762416.061406,0.013350300,-0.005317310,-0.013082100,-0.006230220,-0.007763750,0.025168600,-0.009424460,-0.011397000,1749762416.061405897,0.004459232,0.013660876,0.198615000,0.747130747,-0.761272000,-1.634310000,0.246533209,1.322660000,,,,,
1749762416.071341,0.013237500,-0.005375300,-0.013124800,-0.004525370,-0.007573930,0.024742800,-0.009123260,-0.011211600,1749762416.071341038,0.004523451,0.013552256,0.198732000,0.747169397,-0.761333000,-1.634370000,0.246698676,1.322520000,,,,,
1749762416.081148,,,,,,,,,,,,,,,,,,1749762416.081147909,0.000000000,0.000000000,0.000000000,0.250000000
1749762416.081320,0.013085000,-0.005417340,-0.012975700,-0.002854880,-0.007441380,0.023952100,-0.008113480,-0.011014200,1749762416.081320047,0.004575899,0.013402460,0.198842000,0.747237095,-0.761393000,-1.634310000,0.246767431,1.322410000,,,,,
1749762416.091334,0.013056100,-0.005455660,-0.012660600,-0.001544070,-0.007504180,0.021871100,-0.006840360,-0.010852300,1749762416.091334105,0.004617314,0.013375589,0.198969000,0.747313599,-0.761453000,-1.634210000,0.246823253,1.322330000,,,,,
1749762416.101314,0.013089100,-0.005482390,-0.012194600,0.001498200,-0.007722720,0.018861500,-0.004822910,-0.010425700,1749762416.101314068,0.004644983,0.013409149,0.199104000,0.747419709,-0.761511000,-1.633980000,0.246789758,1.322270000,,,,,
1749762416.111377,0.013198400,-0.005465100,-0.011515500,0.006698450,-0.007852120,0.016672500,-0.002782220,-0.009655250,1749762416.111377001,0.004624205,0.013515983,0.199251000,0.747525033,-0.761564000,-1.633730000,0.246752937,1.322240000,,,,,
1749762416.121355,0.013407000,-0.005459800,-0.010590600,0.012347300,-0.008037370,0.014249800,-0.001577480,-0.008767590,1749762416.121355057,0.004607718,0.013723192,0.199413000,0.747603299,-0.761618000,-1.633590000,0.246813351,1.322260000,,,,,
1749762416.129304,,,,,,,,,,,,,,,,,,1749762416.129303932,0.000000000,0.000000000,0.000000000,0.250000000
1749762416.131352,0.013602200,-0.005413490,-0.009502440,0.016943800,-0.008369790,0.010980800,0.000481719,-0.007976320,1749762416.131351948,0.004553285,0.013913781,0.199575000,0.747711632,-0.761665000,-1.633300000,0.246761155,1.322320000,,,,,
1749762416.141269,0.013658400,-0.005377030,-0.008274220,0.019606200,-0.008650210,0.008294850,0.002187540,-0.007420090,1749762416.141268969,0.004516878,0.013966466,0.199720000,0.747813184,-0.761714000,-1.633050000,0.246721987,1.322400000,,,,,
1749762416.151177,0.013695200,-0.005340770,-0.006950860,0.021066200,-0.009040890,0.005034820,0.002507590,-0.007011920,1749762416.151176929,0.004479378,0.014000625,0.199862000,0.747870533,-0.761763000,-1.632980000,0.246814410,1.322510000,,,,,
1749762416.161512,0.013703400,-0.005251790,-0.005509440,0.021448200,-0.009583680,0.000952111,0.003533330,-0.006745760,1749762416.161511898,0.004392441,0.014002533,0.200000000,0.747943851,-0.761803000,-1.632810000,0.246827482,1.322650000,,,,,
1749762416.171295,0.013583600,-0.005126750,-0.003997460,0.021534700,-0.010001400,-0.001988570,0.005503580,-0.006518710,1749762416.171294928,0.004279506,0.013873845,0.200119000,0.748050395,-0.761838000,-1.632490000,0.246709059,1.322810000,,,,,
1749762416.177470,,,,,,,,,,,,,,,,,,1749762416.177469969,0.000000000,0.000000000,0.000000000,0.250000000
1749762416.181271,0.013344200,-0.005045290,-0.002402530,0.020516400,-0.010481100,-0.005153920,0.007313050,-0.006451310,1749762416.181271076,0.004217322,0.013628530,0.200220000,0.748162035,-0.761877000,-1.632170000,0.246572872,1.323000000,,,,,
1749762416.191427,0.012831700,-0.004936820,-0.000613283,0.016944500,-0.010821800,-0.007144120,0.009478560,-0.006765070,1749762416.191426992,0.004145604,0.013108726,0.200279000,0.748289480,-0.761912000,-1.631780000,0.246342093,1.323240000,,,,,
1749762416.201272,0.012313500,-0.004840170,0.001222930,0.012762200,-0.011081400,-0.008439040,0.010601900,-0.007203240,1749762416.201272011,0.004083987,0.012584537,0.200332000,0.748385223,-0.761947000,-1.631520000,0.246202556,1.323500000,,,,,
1749762416.211309,0.011997000,-0.004787680,0.003259890,0.009565560,-0.011449200,-0.010389700,0.010117800,-0.007540030,1749762416.211308956,0.004051169,0.012265313,0.200410000,0.748428802,-0.761988000,-1.631490000,0.246260448,1.323810000,,,,,
1749762416.221289,0.011878200,-0.004674260,0.005441790,0.007231850,-0.011825400,-0.012264400,0.008448990,-0.007783420,1749762416.221288919,0.003943465,0.012140405,0.200512000,0.748419060,-0.762019000,-1.631630000,0.246468921,1.324160000,,,,,
1749762416.225642,,,,,,,,,,,,,,,,,,1749762416.225641966,0.000000000,0.000000000,0.000000000,0.250000000
1749762416.231300,0.011870400,-0.004581330,0.007726780,0.004244970,-0.012067000,-0.013082900,0.005864320,-0.008145040,1749762416.231300116,0.003847664,0.012128086,0.200630000,0.748373283,-0.762052000,-1.631920000,0.246805748,1.324550000,,,,,
1749762416.241420,0.011939300,-0.004379720,0.010229700,0.002579170,-0.012483800,-0.015051200,0.004766360,-0.008344600,1749762416.241420031,0.003641003,0.012184906,0.200759000,0.748357674,-0.762069000,-1.632020000,0.247010383,1.324990000,,,,,
1749762416.251145,0.012082600,-0.004215660,0.012861300,0.003152780,-0.012948800,-0.017215700,0.003289250,-0.008235480,1749762416.251144886,0.003466388,0.012318489,0.200899000,0.748327044,-0.762089000,-1.632190000,0.247278563,1.325470000,,,,,
1749762416.261278,0.012279100,-0.003939900,0.015584700,0.006046830,-0.013218700,-0.017888900,0.000444952,-0.007783500,1749762416.261277914,0.003174342,0.012498906,0.201048000,0.748225822,-0.762091000,-1.632570000,0.247711749,1.326000000,,,,,
1749762416.271302,0.012375400,-0.003633900,0.018259000,0.008725660,-0.013533600,-0.018825200,-0.000043667,-0.007333840,1749762416.271301985,0.002862226,0.012576304,0.201185000,0.748197501,-0.762086000,-1.632630000,0.247893071,1.326540000,,,,,
1749762416.273801,,,,,,,,,,,,,,,,,,1749762416.273801088,0.000000000,0.000000000,0.000000000,0.250000000
1749762416.281295,0.012090500,-0.003299040,0.020906700,0.010450600,-0.013821100,-0.019508300,-0.000106137,-0.006995980,1749762416.281295061,0.002545489,0.012271281,0.201267000,0.748177977,-0.762074000,-1.632640000,0.247981655,1.327110000,,,,,
1749762416.291334,0.011801100,-0.002909850,0.023595000,0.007796570,-0.013866400,-0.018476800,0.000444258,-0.007277060,1749762416.291333914,0.002175886,0.011958207,0.201346000,0.748168983,-0.762050000,-1.632560000,0.247999168,1.327710000,,,,,
1749762416.301114,0.011597000,-0.002618120,0.026369300,0.003701140,-0.013724000,-0.016225300,0.001689490,-0.007794090,1749762416.301114082,0.001899422,0.011736147,0.201435000,0.748195158,-0.762037000,-1.632380000,0.247952524,1.328350000,,,,,
1749762416.311313,0.011296200,-0.002216060,0.029393300,0.000066591,-0.013731700,-0.015161600,0.002150550,-0.008285110,1749762416.311312914,0.001517664,0.011411036,0.201507000,0.748181106,-0.762005000,-1.632290000,0.247955083,1.329050000,,,,,
1749762416.321282,0.011220300,-0.001675720,0.032451300,-0.003222910,-0.013916700,-0.015391500,0.003649200,-0.008762350,1749762416.321281910,0.000985609,0.011301847,0.201609000,0.748174978,-0.761948000,-1.632060000,0.247881314,1.329790000,,,,,
1749762416.321967,,,,,,,,,,,,,,,,,,1749762416.321966887,0.000000000,0.000000000,0.000000000,0.250000000
1749762416.331342,0.011277600,-0.001168840,0.035590500,-0.003084940,-0.014157800,-0.015991300,0.004065790,-0.008774530,1749762416.331341982,0.000477305,0.011327958,0.201729000,0.748135534,-0.761891000,-1.631960000,0.247922787,1.330570000,,,,,
1749762416.341034,0.011400600,-0.000639283,0.038666500,-0.000634060,-0.014245600,-0.015495100,0.002538600,-0.008449310,1749762416.341033936,-0.000060836,0.011418348,0.201860000,0.748017987,-0.761826000,-1.632140000,0.248184216,1.331370000,,,,,
1749762416.351140,0.011097600,-0.000076553,0.041601200,0.001020840,-0.014393400,-0.015445600,0.001919900,-0.008215230,1749762416.351140022,-0.000604597,0.011081383,0.201930000,0.747923940,-0.761751000,-1.632200000,0.248294362,1.332180000,,,,,
1749762416.361268,0.010766300,0.000455787,0.044352400,0.002257160,-0.014674100,-0.016314800,0.001532080,-0.008025400,1749762416.361268044,-0.001116032,0.010717996,0.201993000,0.747833285,-0.761674000,-1.632240000,0.248382432,1.333000000,,,,,
1749762416.369133,,,,,,,,,,,,,,,,,,1749762416.369132996,0.000000000,0.000000000,0.000000000,0.250000000
1749762416.371410,0.010417800,0.001029510,0.047188000,0.000610075,-0.014960400,-0.017162400,0.001573450,-0.008242120,1749762416.371409893,-0.001667066,0.010334957,0.202050000,0.747746919,-0.761586000,-1.632220000,0.248418966,1.333850000,,,,,
1749762416.381494,0.010302900,0.001678810,0.050135100,-0.002692280,-0.015565800,-0.020148200,0.001328440,-0.008715800,1749762416.381494045,-0.002308292,0.010180370,0.202137000,0.747632805,-0.761482000,-1.632240000,0.248514370,1.334750000,,,,,
1749762416.391347,0.010364200,0.002296050,0.053234800,-0.006727600,-0.016095600,-0.022407800,0.001033450,-0.009328980,1749762416.391346931,-0.002928437,0.010203565,0.202249000,0.747511670,-0.761375000,-1.632270000,0.248642014,1.335710000,,,,,
1749762416.401204,0.010245600,0.002877420,0.056291000,-0.007236640,-0.016315400,-0.022378400,0.002072310,-0.009470210,1749762416.401204109,-0.003499815,0.010050033,0.202336000,0.747439314,-0.761268000,-1.632110000,0.248602689,1.336680000,,,,,
1749762416.411467,0.009871200,0.003618050,0.058999100,-0.006974740,-0.016163000,-0.019789200,0.002699780,-0.009504530,1749762416.411467075,-0.004215052,0.009631418,0.202384000,0.747326976,-0.761131000,-1.632000000,0.248560000,1.337640000,,,,,
1749762416.417312,,,,,,,,,,,,,,,,,,1749762416.417311907,0.000000000,0.000000000,0.000000000,0.250000000
1749762416.421337,0.009237330,0.004377460,0.061536900,-0.004761170,-0.016137100,-0.018248600,0.002839680,-0.009252680,1749762416.421336889,-0.004933822,0.008952532,0.202390000,0.747193309,-0.760985000,-1.631950000,0.248519699,1.338600000,,,,,
1749762416.431494,0.008657620,0.005130980,0.064022400,-0.005667380,-0.016194900,-0.017390200,0.001261090,-0.009431950,1749762416.431493998,-0.005652169,0.008326723,0.202399000,0.746990327,-0.760832000,-1.632150000,0.248668734,1.339570000,,,,,
1749762416.438174,,,,,,,,,,,,,,,,,,1749762416.438174009,0.000000000,0.000000000,0.000000000,0.250000000
1749762416.441193,0.008364890,0.005804720,0.066664900,-0.009171170,-0.016474000,-0.018114500,0.001407530,-0.009997660,1749762416.441193104,-0.006306453,0.007993423,0.202443000,0.746845372,-0.760682000,-1.632120000,0.248681049,1.340600000,,,,,
1749762416.451339,0.008207440,0.006504750,0.069431800,-0.010619700,-0.016590200,-0.017667400,0.004463090,-0.010299800,1749762416.451339006,-0.006991932,0.007796584,0.202503000,0.746797331,-0.760523000,-1.631660000,0.248387691,1.341670000,,,,,
1749762416.461334,0.008047610,0.007272780,0.071997700,-0.010239000,-0.016270200,-0.014248800,0.003583770,-0.010350700,1749762416.461333990,-0.007749426,0.007589714,0.202562000,0.746597193,-0.760346000,-1.631740000,0.248495545,1.342730000,,,,,
1749762416.465374,,,,,,,,,,,,,,,,,,1749762416.465373993,0.000000000,0.000000000,0.000000000,0.250000000
1749762416.468295,,,,,,,,,,,,,,,,,,1749762416.468295097,0.000000000,0.000000000,0.000000000,0.250000000
1749762416.471313,0.007569790,0.008132860,0.074275000,-0.007576060,-0.015735700,-0.009589410,0.000917868,-0.010066200,1749762416.471313000,-0.008581277,0.007057394,0.202573000,0.746311871,-0.760148000,-1.632090000,0.248755689,1.343780000,,,,,
1749762416.481309,0.007098990,0.009001550,0.076415200,-0.006339750,-0.015240500,-0.005520810,-0.002335260,-0.009962360,1749762416.481308937,-0.009422567,0.006529838,0.202581000,0.745987775,-0.759941000,-1.632560000,0.249101636,1.344840000,,,,,
1749762416.491065,0.006724110,0.009759520,0.078396900,-0.004976550,-0.015069300,-0.003962380,-0.004952490,-0.009827710,1749762416.491065025,-0.010158395,0.006104825,0.202597000,0.745687467,-0.759741000,-1.632960000,0.249403556,1.345890000,,,,,
1749762416.499611,,,,,,,,,,,,,,,,,,1749762416.499610901,0.000000000,0.000000000,0.000000000,0.250000000
1749762416.501310,0.006397140,0.010584200,0.080602300,-0.002369400,-0.015062800,-0.003644320,-0.002018230,-0.009498710,1749762416.501310110,-0.010958993,0.005731419,0.202617000,0.745563367,-0.759523000,-1.632580000,0.249126678,1.346990000,,,,,
1749762416.511316,0.005979960,0.011423200,0.082677900,-0.000849777,-0.014850800,-0.001934550,0.000701716,-0.009301630,1749762416.511316061,-0.011768685,0.005267587,0.202620000,0.745428737,-0.759296000,-1.632210000,0.248839865,1.348100000,,,,,
1749762416.515787,,,,,,,,,,,,,,,,,,1749762416.515786886,0.000000000,0.000000000,0.000000000,0.250000000
1749762416.521291,0.005382020,0.012386200,0.084670200,-0.000792013,-0.014346200,0.001672140,0.001803700,-0.009301730,1749762416.521291018,-0.012692387,0.004613827,0.202593000,0.745218160,-0.759041000,-1.632040000,0.248670581,1.349220000,,,,,
1749762416.529767,,,,,,,,,,,,,,,,,,1749762416.529767036,0.000000000,0.000000000,0.000000000,0.250000000
1749762416.531358,0.004824590,0.013358400,0.086491100,-0.001179100,-0.013763600,0.005566640,0.000187678,-0.009365890,1749762416.531358004,-0.013629526,0.003994940,0.202566000,0.744900593,-0.758776000,-1.632260000,0.248791297,1.350330000,,,,,
1749762416.541078,0.004436960,0.014390400,0.088233400,-0.000501918,-0.013030800,0.010227400,-0.000689905,-0.009279300,1749762416.541078091,-0.014636192,0.003542895,0.202558000,0.744588761,-0.758493000,-1.632380000,0.248855281,1.351450000,,,,,
1749762416.551161,0.004412970,0.015404200,0.089894800,0.001270460,-0.013000000,0.009735830,-0.001212190,-0.009026820,1749762416.551161051,-0.015646905,0.003455149,0.202599000,0.744273388,-0.758202000,-1.632470000,0.248945279,1.352570000,,,,,
1749762416.560255,,,,,,,,,,,,,,,,,,1749762416.560255051,0.000000000,0.000000000,0.000000000,0.250000000
1749762416.561282,0.004112850,0.016369000,0.091543200,0.003135120,-0.012998500,0.009076260,0.000651466,-0.008743220,1749762416.561281919,-0.016590567,0.003100448,0.202599000,0.744043644,-0.757907000,-1.632210000,0.248733654,1.353710000,,,,,
1749762416.565427,,,,,,,,,,,,,,,,,,1749762416.565427065,0.000000000,0.000000000,0.000000000,0.250000000
1749762416.571311,0.003771030,0.017323100,0.092997200,0.003025590,-0.012969500,0.008650910,0.000848830,-0.008727780,1749762416.571310997,-0.017521781,0.002701415,0.202591000,0.743752652,-0.757605000,-1.632170000,0.248677384,1.354840000,,,,,
1749762416.581321,0.003538930,0.018355500,0.094607500,-0.000339566,-0.012639000,0.010330500,0.001181840,-0.009186420,1749762416.581321001,-0.018537881,0.002407357,0.202595000,0.743442447,-0.757282000,-1.632120000,0.248624394,1.356000000,,,,,
1749762416.591375,0.003438200,0.019309200,0.096092400,-0.002430260,-0.011993100,0.014064800,0.000066693,-0.009493560,1749762416.591375113,-0.019483952,0.002245446,0.202616000,0.743082463,-0.756960000,-1.632270000,0.248737085,1.357160000,,,,,
1749762416.591471,,,,,,,,,,,,,,,,,,1749762416.591470957,0.000000000,0.000000000,0.000000000,0.250000000
1749762416.601328,0.003351450,0.020263100,0.097414300,-0.000782845,-0.011539800,0.016216800,-0.001682590,-0.009278520,1749762416.601327896,-0.020431245,0.002095149,0.202637000,0.742687593,-0.756628000,-1.632520000,0.248923329,1.358320000,,,,,
1749762416.611343,0.003248300,0.021184400,0.098528700,0.002470030,-0.011568400,0.014903800,-0.001597340,-0.008813760,1749762416.611342907,-0.021344428,0.001935365,0.202656000,0.742351061,-0.756292000,-1.632520000,0.248921567,1.359450000,,,,,
1749762416.615649,,,,,,,,,,,,,,,,,,1749762416.615648985,0.000000000,0.000000000,0.000000000,0.250000000
1749762416.621314,0.002804700,0.022009800,0.099677100,0.001063760,-0.011656100,0.013274600,-0.000411669,-0.008993370,1749762416.621314049,-0.022140677,0.001445017,0.202624000,0.742058989,-0.755960000,-1.632370000,0.248757842,1.360600000,,,,,
1749762416.622258,,,,,,,,,,,,,,,,,,1749762416.622257948,0.000000000,0.000000000,0.000000000,0.250000000
1749762416.631431,0.002057930,0.022767200,0.100936000,-0.003235920,-0.011281400,0.014940100,0.002466800,-0.009607400,1749762416.631431103,-0.022850413,0.000662653,0.202543000,0.741838969,-0.755630000,-1.631950000,0.248345139,1.361780000,,,,,
1749762416.641150,0.001688590,0.023697400,0.102013000,-0.005530980,-0.010549300,0.018950800,0.001017270,-0.009973190,1749762416.641149998,-0.023756346,0.000232640,0.202510000,0.741431476,-0.755267000,-1.632140000,0.248430892,1.362950000,,,,,
1749762416.651370,0.001800540,0.024749400,0.103063000,-0.005075910,-0.009963020,0.021681700,-0.002884550,-0.009962380,1749762416.651370049,-0.024813383,0.000265991,0.202543000,0.740900944,-0.754877000,-1.632700000,0.248854865,1.364120000,,,,,
1749762416.653085,,,,,,,,,,,,,,,,,,1749762416.653084993,0.000000000,0.000000000,0.000000000,0.250000000
1749762416.661289,0.001615740,0.025686600,0.103964000,-0.001360860,-0.009748810,0.021663800,-0.005688980,-0.009473410,1749762416.661288977,-0.025737363,0.000012499,0.202535000,0.740411112,-0.754493000,-1.633130000,0.249141524,1.365280000,,,,,
1749762416.665255,,,,,,,,,,,,,,,,,,1749762416.665255070,0.000000000,0.000000000,0.000000000,0.250000000
1749762416.671399,0.000991870,0.026610100,0.105029000,-0.001105770,-0.009287080,0.023350800,-0.005525670,-0.009449960,1749762416.671399117,-0.026620180,-0.000668752,0.202460000,0.740015581,-0.754102000,-1.633170000,0.249071914,1.366480000,,,,,
1749762416.681345,0.000460057,0.027415900,0.105982000,-0.003753000,-0.008469460,0.027371400,-0.007156910,-0.009845610,1749762416.681344986,-0.027390900,-0.001257703,0.202393000,0.739565266,-0.753719000,-1.633460000,0.249195655,1.367670000,,,,,
1749762416.683244,,,,,,,,,,,,,,,,,,1749762416.683243990,0.000000000,0.000000000,0.000000000,0.250000000
1749762416.691319,0.000290579,0.028211900,0.106984000,-0.008231750,-0.007867210,0.029632700,-0.007487270,-0.010533800,1749762416.691318989,-0.028174547,-0.001480077,0.202373000,0.739147381,-0.753329000,-1.633580000,0.249239971,1.368870000,,,,,
1749762416.701348,0.000230987,0.029006300,0.107957000,-0.008702730,-0.007544280,0.029815800,-0.010056200,-0.010684600,1749762416.701348066,-0.028962925,-0.001602427,0.202367000,0.738639320,-0.752932000,-1.634030000,0.249541487,1.370080000,,,,,
1749762416.711334,-0.000324913,0.029862400,0.108713000,-0.004595980,-0.007368220,0.028975400,-0.009510340,-0.010175000,1749762416.711333990,-0.029782142,-0.002211910,0.202289000,0.738226088,-0.752518000,-1.634050000,0.249452246,1.371270000,,,,,
1749762416.713746,,,,,,,,,,,,,,,,,,1749762416.713746071,0.000000000,0.000000000,0.000000000,0.250000000
1749762416.715913,,,,,,,,,,,,,,,,,,1749762416.715913057,0.000000000,0.000000000,0.000000000,0.250000000
1749762416.721317,-0.001078940,0.030650200,0.109395000,-0.003024630,-0.007034010,0.029281400,-0.009376750,-0.009992630,1749762416.721317053,-0.030520492,-0.003016364,0.202176000,0.737802605,-0.752104000,-1.634120000,0.249364949,1.372460000,,,,,
1749762416.731318,-0.001709190,0.031373500,0.110005000,-0.006616960,-0.006680890,0.029696500,-0.009294630,-0.010544800,1749762416.731317997,-0.031202164,-0.003693618,0.202073000,0.737379006,-0.751693000,-1.634200000,0.249295138,1.373640000,,,,,
1749762416.741151,-0.002404350,0.032038000,0.110747000,-0.012676200,-0.006309890,0.030206100,-0.009615850,-0.011491200,1749762416.741151094,-0.031820662,-0.004433940,0.201955000,0.736942418,-0.751283000,-1.634340000,0.249254571,1.374850000,,,,,
1749762416.744473,,,,,,,,,,,,,,,,,,1749762416.744472980,0.000000000,0.000000000,0.000000000,0.250000000
1749762416.751345,-0.003015950,0.032666100,0.111473000,-0.015063700,-0.006084160,0.029680700,-0.007454510,-0.011964900,1749762416.751344919,-0.032409724,-0.005077385,0.201842000,0.736590723,-0.750871000,-1.634130000,0.248960958,1.376060000,,,,,
1749762416.761318,-0.003623580,0.033328100,0.112162000,-0.013420100,-0.005746850,0.029959500,-0.005819570,-0.011876700,1749762416.761317968,-0.033032912,-0.005720080,0.201724000,0.736218327,-0.750448000,-1.633960000,0.248691269,1.377280000,,,,,
1749762416.765639,,,,,,,,,,,,,,,,,,1749762416.765639067,0.000000000,0.000000000,0.000000000,0.250000000
1749762416.771344,-0.004029300,0.034064800,0.112599000,-0.013754700,-0.005351160,0.030620900,-0.006159880,-0.012059500,1749762416.771343946,-0.033741854,-0.006175204,0.201629000,0.735757854,-0.750008000,-1.634070000,0.248649620,1.378460000,,,,,
1749762416.775514,,,,,,,,,,,,,,,,,,1749762416.775513887,0.000000000,0.000000000,0.000000000,0.250000000
1749762416.781245,-0.004600190,0.034712500,0.113201000,-0.015467200,-0.005162200,0.029813900,-0.004202130,-0.012445900,1749762416.781244993,-0.034353652,-0.006778349,0.201506000,0.735386154,-0.749573000,-1.633850000,0.248337582,1.379680000,,,,,
1749762416.791245,-0.005138860,0.035431500,0.113818000,-0.019982100,-0.004913190,0.029475700,-0.003117780,-0.013256500,1749762416.791244984,-0.035038163,-0.007357050,0.201381000,0.734972706,-0.749121000,-1.633730000,0.248096154,1.380900000,,,,,
1749762416.801315,-0.005641410,0.036049900,0.114424000,-0.020679700,-0.004554240,0.029917600,-0.002824780,-0.013557600,1749762416.801315069,-0.035623812,-0.007897141,0.201257000,0.734539863,-0.748677000,-1.633720000,0.247937130,1.382120000,,,,,
1749762416.806174,,,,,,,,,,,,,,,,,,1749762416.806174040,0.000000000,0.000000000,0.000000000,0.250000000
1749762416.811321,-0.006143150,0.036748400,0.114959000,-0.020847900,-0.004507920,0.028177200,-0.002616560,-0.013788900,1749762416.811321020,-0.036289379,-0.008441811,0.201128000,0.734086889,-0.748215000,-1.633720000,0.247779333,1.383350000,,,,,
1749762416.815356,,,,,,,,,,,,,,,,,,1749762416.815356016,0.000000000,0.000000000,0.000000000,0.250000000
1749762416.821303,-0.006533520,0.037396900,0.115586000,-0.021424300,-0.003887760,0.030506300,-0.001282700,-0.014081100,1749762416.821302891,-0.036913556,-0.008865913,0.201009000,0.733676371,-0.747754000,-1.633550000,0.247506859,1.384590000,,,,,
1749762416.831163,-0.007171280,0.037907100,0.116253000,-0.027143700,-0.003299550,0.032455300,0.000781750,-0.015126300,1749762416.831162930,-0.037385520,-0.009523572,0.200851000,0.733310854,-0.747306000,-1.633260000,0.247108425,1.385840000,,,,,
1749762416.836158,,,,,,,,,,,,,,,,,,1749762416.836158037,0.000000000,0.000000000,0.000000000,0.250000000
1749762416.841336,-0.007580320,0.038422900,0.116782000,-0.030116300,-0.002939990,0.032696200,0.002811930,-0.015829600,1749762416.841336012,-0.037877768,-0.009952649,0.200720000,0.732939968,-0.746852000,-1.632960000,0.246729469,1.387080000,,,,,
1749762416.851502,-0.007797360,0.038995200,0.117297000,-0.030288900,-0.002693500,0.032142300,0.003903440,-0.016155800,1749762416.851501942,-0.038437417,-0.010197520,0.200613000,0.732526359,-0.746384000,-1.632770000,0.246454427,1.388320000,,,,,
1749762416.861378,-0.008133730,0.039440200,0.117799000,-0.028422700,-0.002219950,0.033189400,0.003841230,-0.016187600,1749762416.861377954,-0.038861047,-0.010559639,0.200486000,0.732088485,-0.745930000,-1.632740000,0.246277590,1.389570000,,,,,
1749762416.865341,,,,,,,,,,,,,,,,,,1749762416.865340948,0.000000000,0.000000000,0.000000000,0.250000000
1749762416.866284,,,,,,,,,,,,,,,,,,1749762416.866283894,0.000000000,0.000000000,0.000000000,0.250000000
1749762416.871324,-0.008616390,0.039897800,0.118296000,-0.029853100,-0.001506910,0.035812900,0.002517570,-0.016679600,1749762416.871324062,-0.039286119,-0.011075987,0.200335000,0.731598332,-0.745469000,-1.632900000,0.246215401,1.390820000,,,,,
1749762416.881393,-0.008931230,0.040312800,0.118690000,-0.031228800,-0.000795273,0.038246200,0.000428690,-0.017178000,1749762416.881392956,-0.039677581,-0.011427086,0.200203000,0.731078487,-0.745009000,-1.633180000,0.246259817,1.392060000,,,,,
1749762416.891357,-0.009087050,0.040760900,0.118994000,-0.031843700,-0.000366600,0.038564300,-0.000321011,-0.017579600,1749762416.891356945,-0.040113933,-0.011614551,0.200091000,0.730593764,-0.744541000,-1.633280000,0.246191919,1.393290000,,,,,
1749762416.896951,,,,,,,,,,,,,,,,,,1749762416.896950960,0.000000000,0.000000000,0.000000000,0.250000000
1749762416.901288,-0.009234580,0.041269500,0.119234000,-0.029927300,-0.000116361,0.037632200,0.000045608,-0.017619700,1749762416.901288033,-0.040612918,-0.011791521,0.199979000,0.730132998,-0.744060000,-1.633230000,0.246013596,1.394510000,,,,,
1749762416.911350,-0.009472900,0.041531900,0.119520000,-0.027082500,0.000086499,0.036438300,-0.000028608,-0.017505600,1749762416.911350012,-0.040859817,-0.012046157,0.199852000,0.729688342,-0.743609000,-1.633240000,0.245866001,1.395750000,,,,,
1749762416.915083,,,,,,,,,,,,,,,,,,1749762416.915082932,0.000000000,0.000000000,0.000000000,0.250000000
1749762416.921091,-0.009638500,0.041715900,0.119775000,-0.025860600,0.000156203,0.034410000,-0.000321500,-0.017598900,1749762416.921091080,-0.041032636,-0.012224558,0.199733000,0.729244800,-0.743167000,-1.633280000,0.245748821,1.396980000,,,,,
1749762416.926756,,,,,,,,,,,,,,,,,,1749762416.926755905,0.000000000,0.000000000,0.000000000,0.250000000
1749762416.931178,-0.009926580,0.041841500,0.120193000,-0.023255100,0.000653598,0.035465100,-0.000107307,-0.017479000,1749762416.931178093,-0.041140252,-0.012519096,0.199595000,0.728823179,-0.742731000,-1.633260000,0.245569289,1.398240000,,,,,
1749762416.941305,-0.009987650,0.041965400,0.120524000,-0.022371800,0.000662179,0.033083100,0.000607630,-0.017583200,1749762416.941304922,-0.041261483,-0.012583242,0.199486000,0.728421827,-0.742295000,-1.633150000,0.245353160,1.399490000,,,,,
1749762416.951321,-0.009880470,0.042027400,0.120795000,-0.023007500,0.000636669,0.030630300,0.000517902,-0.017899300,1749762416.951320887,-0.041329916,-0.012480547,0.199402000,0.727996443,-0.741866000,-1.633160000,0.245249871,1.400730000,,,,,
1749762416.956947,,,,,,,,,,,,,,,,,,1749762416.956947088,0.000000000,0.000000000,0.000000000,0.250000000
1749762416.961369,-0.009666460,0.042033300,0.121161000,-0.024453900,0.000764149,0.029399400,-0.001905670,-0.018339500,1749762416.961369038,-0.041344847,-0.012281792,0.199334000,0.727494650,-0.741445000,-1.633510000,0.245410403,1.401990000,,,,,
1749762416.965135,,,,,,,,,,,,,,,,,,1749762416.965135098,0.000000000,0.000000000,0.000000000,0.250000000
1749762416.971322,-0.009881860,0.042095700,0.121739000,-0.025753800,0.001145290,0.029999300,-0.002366370,-0.018772900,1749762416.971322060,-0.041392624,-0.012503991,0.199206000,0.727054893,-0.741016000,-1.633590000,0.245313933,1.403290000,,,,,
1749762416.981137,-0.009884500,0.042269200,0.122127000,-0.025737900,0.001327970,0.029191800,-0.004269650,-0.019028100,1749762416.981137037,-0.041561859,-0.012529982,0.199107000,0.726542395,-0.740570000,-1.633890000,0.245405115,1.404560000,,,,,
1749762416.987536,,,,,,,,,,,,,,,,,,1749762416.987535954,0.000000000,0.000000000,0.000000000,0.250000000
1749762416.991369,-0.009664180,0.042341100,0.122395000,-0.025606500,0.001118130,0.025738100,-0.005008110,-0.019266400,1749762416.991369009,-0.041645660,-0.012320881,0.199040000,0.726076678,-0.740136000,-1.634040000,0.245419798,1.405820000,,,,,
1749762417.001398,-0.009525270,0.042410000,0.122759000,-0.026647600,0.001106030,0.023883200,-0.006140410,-0.019673700,1749762417.001398087,-0.041720520,-0.012195782,0.198964000,0.725595360,-0.739703000,-1.634260000,0.245476220,1.407100000,,,,,
1749762417.011399,-0.009614980,0.042395200,0.123219000,-0.029596100,0.001467900,0.024730100,-0.004963730,-0.020368600,1749762417.011399031,-0.041701411,-0.012279786,0.198856000,0.725208042,-0.739281000,-1.634150000,0.245261903,1.408390000,,,,,
1749762417.015714,,,,,,,,,,,,,,,,,,1749762417.015713930,0.000000000,0.000000000,0.000000000,0.250000000
1749762417.018287,,,,,,,,,,,,,,,,,,1749762417.018286943,0.000000000,0.000000000,0.000000000,0.250000000
1749762417.021139,-0.009777770,0.042464200,0.123603000,-0.028124900,0.001706620,0.024671000,-0.002151950,-0.020450800,1749762417.021138906,-0.041764444,-0.012431583,0.198736000,0.724870705,-0.738847000,-1.633790000,0.244853729,1.409680000,,,,,
1749762417.031209,-0.009669380,0.042460700,0.123733000,-0.024752700,0.001758240,0.023328200,-0.002036050,-0.020242100,1749762417.031208992,-0.041767775,-0.012323188,0.198654000,0.724452708,-0.738423000,-1.633790000,0.244745200,1.410940000,,,,,
1749762417.041449,-0.009386080,0.042511600,0.124009000,-0.022720800,0.001682490,0.021201100,-0.003110470,-0.020194400,1749762417.041449070,-0.041834239,-0.012051185,0.198598000,0.723981039,-0.737991000,-1.633970000,0.244792436,1.412210000,,,,,
1749762417.049469,,,,,,,,,,,,,,,,,,1749762417.049468994,0.000000000,0.000000000,0.000000000,0.250000000
1749762417.051349,-0.009643000,0.042449600,0.124442000,-0.025422200,0.001710960,0.019937800,-0.003682650,-0.020814100,1749762417.051348925,-0.041754666,-0.012308689,0.198467000,0.723544778,-0.737575000,-1.634090000,0.244722262,1.413520000,,,,,
1749762417.061303,-0.009844950,0.042269000,0.124735000,-0.026608700,0.001753530,0.018858400,-0.004076250,-0.021240700,1749762417.061302900,-0.041560529,-0.012502552,0.198341000,0.723133530,-0.737177000,-1.634180000,0.244636423,1.414800000,,,,,
