time,filtered_pose/dx,filtered_pose/dy,filtered_pose/dz,filtered_pose/p,filtered_pose/pitch,filtered_pose/q,filtered_pose/r,filtered_pose/roll,filtered_pose/timestamp,filtered_pose/vxb,filtered_pose/vyb,filtered_pose/x,filtered_pose/xb,filtered_pose/y,filtered_pose/yaw,filtered_pose/yb,filtered_pose/z,u_control/timestamp,u_control/ux,u_control/uy,u_control/uyaw,u_control/uz
1749762456.421702,-0.007895120,0.009280770,-0.112956000,-0.012031800,-0.029338600,0.012795700,-0.000790793,-0.009976210,1749762456.421701908,0.005929071,-0.010644798,0.240139000,-0.084068688,-0.774878000,-2.944890000,0.806867467,1.481680000,,,,,
1749762456.431680,-0.007707720,0.009712310,-0.111502000,-0.014316000,-0.029249100,0.012531100,0.002620360,-0.010428400,1749762456.431679964,0.005655540,-0.011034164,0.240087000,-0.083652688,-0.774723000,-2.944400000,0.806746380,1.480770000,,,,,
1749762456.441746,-0.007735900,0.010055600,-0.110191000,-0.015877000,-0.029348100,0.010987000,0.002376660,-0.010798300,1749762456.441745996,0.005616031,-0.011376266,0.240006000,-0.083610123,-0.774576000,-2.944410000,0.806585524,1.479840000,,,,,
1749762456.451726,-0.007769950,0.010457700,-0.108820000,-0.015384700,-0.029579800,0.008635950,0.000976369,-0.010885600,1749762456.451725960,0.005572767,-0.011776242,0.239924000,-0.083706014,-0.774417000,-2.944590000,0.806398486,1.478940000,,,,,
1749762456.461738,-0.007495550,0.010931700,-0.107205000,-0.012962500,-0.030137200,0.004205310,-0.000677477,-0.010687500,1749762456.461738110,0.005213701,-0.012186167,0.239886000,-0.083888040,-0.774244000,-2.944820000,0.806202122,1.478090000,,,,,
1749762456.471706,-0.006760400,0.011411900,-0.105565000,-0.012356900,-0.030154000,0.003799980,-0.001814300,-0.010729200,1749762456.471705914,0.004400983,-0.012512626,0.239918000,-0.084091637,-0.774064000,-2.944990000,0.806017568,1.477250000,,,,,
1749762456.481870,-0.006059960,0.011729300,-0.103201000,-0.011719700,-0.030172200,0.003413150,-0.002788790,-0.010760200,1749762456.481869936,0.003654065,-0.012686505,0.239952000,-0.084285174,-0.773904000,-2.945150000,0.805853816,1.476540000,,,,,
1749762456.491420,-0.005577310,0.012199500,-0.101370000,-0.014920900,-0.029801800,0.005727850,-0.000683223,-0.011342400,1749762456.491420031,0.003085269,-0.013054321,0.239961000,-0.084104518,-0.773719000,-2.944870000,0.805697712,1.475770000,,,,,
1749762456.501928,-0.005319130,0.012606700,-0.099376000,-0.015958900,-0.029805400,0.005308890,0.002235940,-0.011642400,1749762456.501928091,0.002746983,-0.013404332,0.239943000,-0.083791973,-0.773538000,-2.944460000,0.805551107,1.475050000,,,,,
1749762456.511705,-0.005047070,0.012849900,-0.096758300,-0.016722100,-0.029812200,0.004896810,0.004759730,-0.011912900,1749762456.511704922,0.002427259,-0.013590484,0.239930000,-0.083496846,-0.773376000,-2.944070000,0.805422323,1.474440000,,,,,
1749762456.521717,-0.004893070,0.013255600,-0.095015900,-0.018523200,-0.029957400,0.003559980,0.002163020,-0.012341800,1749762456.521717072,0.002201245,-0.013957349,0.239901000,-0.083770829,-0.773189000,-2.944400000,0.805205668,1.473720000,,,,,
1749762456.531728,-0.004536150,0.013611600,-0.093176200,-0.020500300,-0.030100500,0.002329910,0.000877774,-0.012814300,1749762456.531728029,0.001783773,-0.014236238,0.239904000,-0.083938819,-0.773004000,-2.944560000,0.805011421,1.473040000,,,,,
1749762456.541784,-0.003779570,0.013981000,-0.091251000,-0.021288100,-0.030238000,0.001223090,0.002398320,-0.013133700,1749762456.541784048,0.000966194,-0.014450605,0.239969000,-0.083854445,-0.772815000,-2.944330000,0.804858110,1.472390000,,,,,
1749762456.551697,-0.003061020,0.014266100,-0.089346300,-0.021275500,-0.030303900,0.000685338,0.004294790,-0.013344800,1749762456.551697016,0.000201327,-0.014589411,0.240035000,-0.083713423,-0.772633000,-2.944030000,0.804717725,1.471750000,,,,,
1749762456.561683,-0.002425820,0.014577400,-0.087374600,-0.023144300,-0.030004000,0.002702540,0.004256100,-0.013829000,1749762456.561682940,-0.000483210,-0.014769959,0.240097000,-0.083778935,-0.772445000,-2.943990000,0.804548903,1.471140000,,,,,
1749762456.571856,-0.001875030,0.014807000,-0.085255400,-0.024646200,-0.029478000,0.006137210,0.003521350,-0.014278700,1749762456.571856022,-0.001067314,-0.014887036,0.240153000,-0.083925293,-0.772266000,-2.944060000,0.804378507,1.470580000,,,,,
1749762456.581995,-0.001185650,0.014985200,-0.083108700,-0.024818900,-0.028958800,0.009288220,0.003387080,-0.014550200,1749762456.581995010,-0.001778559,-0.014926443,0.240234000,-0.084022781,-0.772092000,-2.944040000,0.804225468,1.470040000,,,,,
1749762456.591658,-0.000696362,0.015175100,-0.080952800,-0.024516900,-0.028636600,0.010866600,0.002854190,-0.014754500,1749762456.591658115,-0.002294851,-0.015016732,0.240294000,-0.084156557,-0.771915000,-2.944090000,0.804059480,1.469520000,,,,,
1749762456.601840,-0.000392994,0.015318000,-0.078923000,-0.023852800,-0.028451900,0.011390300,0.002443670,-0.014903200,1749762456.601840019,-0.002619909,-0.015097405,0.240331000,-0.084250901,-0.771742000,-2.944120000,0.803894576,1.469000000,,,,,
1749762456.611766,0.000037238,0.015402300,-0.076915000,-0.024416500,-0.028194900,0.012374900,0.002811050,-0.015223700,1749762456.611766100,-0.003059526,-0.015095414,0.240389000,-0.084275846,-0.771577000,-2.944040000,0.803750907,1.468510000,,,,,
1749762456.621853,0.000411790,0.015339300,-0.074484200,-0.024691500,-0.027962500,0.013123100,0.003106280,-0.015507800,1749762456.621853113,-0.003415475,-0.014959887,0.240444000,-0.084301981,-0.771432000,-2.943970000,0.803625425,1.468090000,,,,,
1749762456.631775,0.001002940,0.015363100,-0.072593000,-0.026640300,-0.027843600,0.013038300,0.002571690,-0.016037800,1749762456.631774902,-0.003999048,-0.014867358,0.240534000,-0.084461229,-0.771275000,-2.944020000,0.803484929,1.467620000,,,,,
1749762456.641528,0.001245660,0.015289400,-0.070806600,-0.029654400,-0.027655700,0.013434000,0.001722160,-0.016742100,1749762456.641527891,-0.004221253,-0.014747829,0.240579000,-0.084605725,-0.771132000,-2.944110000,0.803345933,1.467150000,,,,,
1749762456.651934,0.001446130,0.015089900,-0.068623100,-0.032018100,-0.027488500,0.013659800,0.000966672,-0.017382100,1749762456.651933908,-0.004377233,-0.014513311,0.240621000,-0.084751560,-0.771008000,-2.944210000,0.803224112,1.466760000,,,,,
1749762456.661847,0.001517090,0.014997300,-0.066801800,-0.032029400,-0.027258100,0.014306000,0.000623170,-0.017703900,1749762456.661847115,-0.004428079,-0.014408771,0.240646000,-0.084835065,-0.770871000,-2.944250000,0.803091282,1.466340000,,,,,
1749762456.671849,0.001618580,0.014943600,-0.065068800,-0.031466100,-0.026942200,0.015495800,0.000452093,-0.017942300,1749762456.671849012,-0.004516928,-0.014336260,0.240676000,-0.084900353,-0.770729000,-2.944260000,0.802957071,1.465930000,,,,,
1749762456.674127,,,,,,,,,,,,,,,,,,1749762456.674127102,0.250000000,0.000000000,0.000000000,0.000000000
1749762456.681576,0.001692680,0.014764400,-0.062982400,-0.030696600,-0.026656500,0.016395300,0.000299023,-0.018145200,1749762456.681576014,-0.004554174,-0.014146101,0.240703000,-0.084967197,-0.770605000,-2.944280000,0.802839072,1.465580000,,,,,
1749762456.691801,0.002122250,0.014693700,-0.061286200,-0.027477100,-0.026240500,0.018130600,0.001044770,-0.017984400,1749762456.691801071,-0.004963088,-0.013992016,0.240782000,-0.084983221,-0.770468000,-2.944170000,0.802729570,1.465190000,,,,,
1749762456.701754,0.002517330,0.014651000,-0.059592000,-0.024151400,-0.025942200,0.018935300,0.000775561,-0.017776000,1749762456.701754093,-0.005341702,-0.013872814,0.240860000,-0.085111440,-0.770327000,-2.944200000,0.802604055,1.464830000,,,,,
1749762456.711702,0.002611890,0.014606000,-0.057866900,-0.021735200,-0.025926300,0.017741800,0.000601585,-0.017666500,1749762456.711702108,-0.005425325,-0.013810252,0.240899000,-0.085193188,-0.770187000,-2.944220000,0.802472718,1.464480000,,,,,
1749762456.721742,0.002818070,0.014632900,-0.056221500,-0.018578400,-0.025805500,0.017351900,0.000663761,-0.017425300,1749762456.721741915,-0.005633053,-0.013796086,0.240955000,-0.085261468,-0.770037000,-2.944200000,0.802338317,1.464140000,,,,,
1749762456.722323,,,,,,,,,,,,,,,,,,1749762456.722322941,0.250000000,0.000000000,0.000000000,0.000000000
1749762456.731749,0.003136830,0.014673200,-0.054651300,-0.016727600,-0.025717900,0.016760700,0.001035040,-0.017342100,1749762456.731749058,-0.005954353,-0.013772733,0.241030000,-0.085316689,-0.769885000,-2.944140000,0.802209098,1.463810000,,,,,
1749762456.741858,0.003679160,0.014723500,-0.053174500,-0.016232800,-0.025599900,0.016419400,0.001063510,-0.017437500,1749762456.741858006,-0.006496149,-0.013715601,0.241140000,-0.085446741,-0.769731000,-2.944130000,0.802080524,1.463480000,,,,,
1749762456.751774,0.004160270,0.014724400,-0.051750300,-0.017323300,-0.025434300,0.016428800,0.000627523,-0.017758300,1749762456.751774073,-0.006967406,-0.013622447,0.241247000,-0.085620598,-0.769584000,-2.944180000,0.801953092,1.463150000,,,,,
1749762456.761747,0.004426960,0.014630300,-0.050411000,-0.018225700,-0.025146600,0.017278000,0.001176300,-0.018062600,1749762456.761746883,-0.007211673,-0.013477219,0.241327000,-0.085653160,-0.769450000,-2.944090000,0.801845097,1.462830000,,,,,
1749762456.770521,,,,,,,,,,,,,,,,,,1749762456.770520926,0.250000000,0.000000000,0.000000000,0.000000000
1749762456.771565,0.004362620,0.014511700,-0.049215900,-0.017515800,-0.025011300,0.017020300,0.001854830,-0.018141700,1749762456.771564960,-0.007126783,-0.013372766,0.241362000,-0.085624602,-0.769321000,-2.943980000,0.801734896,1.462500000,,,,,
1749762456.781616,0.004095620,0.014363400,-0.047970400,-0.017777400,-0.025028400,0.015731300,0.000896402,-0.018354900,1749762456.781615973,-0.006834270,-0.013280592,0.241367000,-0.085749847,-0.769198000,-2.944100000,0.801604987,1.462190000,,,,,
1749762456.791761,0.003826710,0.014107000,-0.046460300,-0.017847900,-0.025054500,0.014468800,0.000053341,-0.018542900,1749762456.791760921,-0.006518709,-0.013082721,0.241369000,-0.085868982,-0.769091000,-2.944220000,0.801490161,1.461930000,,,,,
1749762456.801884,0.003747760,0.013998700,-0.045294500,-0.017706200,-0.024461600,0.017553400,-0.002782620,-0.018700800,1749762456.801883936,-0.006414727,-0.012994637,0.241396000,-0.086248525,-0.768966000,-2.944630000,0.801337588,1.461630000,,,,,
1749762456.811759,0.003629900,0.013959800,-0.044210800,-0.016369900,-0.023835900,0.020651900,-0.005653680,-0.018683700,1749762456.811758995,-0.006285822,-0.012982320,0.241416000,-0.086646885,-0.768832000,-2.945070000,0.801172046,1.461340000,,,,,
1749762456.818706,,,,,,,,,,,,,,,,,,1749762456.818706036,0.250000000,0.000000000,0.000000000,0.000000000
1749762456.821464,0.003387030,0.013943700,-0.043212500,-0.014383700,-0.023268800,0.023134200,-0.007931970,-0.018558900,1749762456.821464062,-0.006039407,-0.013016309,0.241417000,-0.086987209,-0.768694000,-2.945460000,0.801003033,1.461040000,,,,,
1749762456.831792,0.003007050,0.013873400,-0.042116400,-0.011635900,-0.022695700,0.025486500,-0.009302850,-0.018303500,1749762456.831792116,-0.005649366,-0.013022989,0.241396000,-0.087215992,-0.768565000,-2.945740000,0.800848025,1.460770000,,,,,
1749762456.841698,0.002621920,0.013847100,-0.040929700,-0.008121490,-0.022081400,0.027960300,-0.010607700,-0.017909300,1749762456.841697931,-0.005262821,-0.013073613,0.241370000,-0.087440956,-0.768430000,-2.946020000,0.800686094,1.460520000,,,,,
1749762456.851679,0.002370640,0.013753000,-0.039746700,-0.004949120,-0.021342400,0.031123000,-0.011271600,-0.017529600,1749762456.851679087,-0.004995308,-0.013031187,0.241359000,-0.087622573,-0.768305000,-2.946230000,0.800542956,1.460280000,,,,,
1749762456.861755,0.002046640,0.013607500,-0.038708100,-0.002305150,-0.020197900,0.036858400,-0.010884800,-0.017195000,1749762456.861754894,-0.004648579,-0.012951583,0.241336000,-0.087662550,-0.768189000,-2.946280000,0.800420316,1.460030000,,,,,
1749762456.866847,,,,,,,,,,,,,,,,,,1749762456.866847038,0.250000000,0.000000000,0.000000000,0.000000000
1749762456.871590,0.001746200,0.013360200,-0.037460300,0.000019067,-0.019150700,0.041529600,-0.010451400,-0.016880400,1749762456.871589899,-0.004305219,-0.012767508,0.241313000,-0.087699410,-0.768089000,-2.946330000,0.800313369,1.459830000,,,,,
1749762456.881793,0.001388910,0.013214100,-0.036418900,0.000422366,-0.017743500,0.048357000,-0.008970510,-0.016821600,1749762456.881793022,-0.003927768,-0.012693075,0.241278000,-0.087598978,-0.767976000,-2.946220000,0.800205367,1.459600000,,,,,
1749762456.891700,0.000994165,0.013017600,-0.035356800,-0.000451847,-0.016280500,0.055098000,-0.006794030,-0.016944400,1749762456.891700029,-0.003505278,-0.012576140,0.241235000,-0.087392767,-0.767873000,-2.945990000,0.800116100,1.459400000,,,,,
1749762456.901768,0.000641406,0.012731100,-0.034118200,-0.001209590,-0.014947100,0.060483700,-0.004837410,-0.017059000,1749762456.901767969,-0.003106282,-0.012362982,0.241194000,-0.087193840,-0.767784000,-2.945770000,0.800040031,1.459220000,,,,,
1749762456.911688,0.000141063,0.012465000,-0.033182100,-0.002039630,-0.013096600,0.069057800,-0.004858820,-0.017191700,1749762456.911688089,-0.002562994,-0.012199475,0.241127000,-0.087193239,-0.767696000,-2.945830000,0.799935446,1.459020000,,,,,
1749762456.915994,,,,,,,,,,,,,,,,,,1749762456.915993929,0.250000000,0.000000000,0.000000000,0.000000000
1749762456.921539,-0.000434950,0.012098400,-0.032334900,-0.001912010,-0.011157400,0.077652500,-0.004938380,-0.017193500,1749762456.921539068,-0.001925957,-0.011952036,0.241045000,-0.087174801,-0.767624000,-2.945890000,0.799843642,1.458810000,,,,,
1749762456.931692,-0.000933005,0.011671700,-0.031310400,-0.001783890,-0.009392740,0.084453900,-0.004963970,-0.017194000,1749762456.931691885,-0.001353853,-0.011630398,0.240968000,-0.087150733,-0.767565000,-2.945940000,0.799766438,1.458630000,,,,,
1749762456.941707,-0.002107490,0.011474100,-0.030527800,-0.000722402,-0.007407210,0.092307600,-0.004944050,-0.017057700,1749762456.941706896,-0.000162778,-0.011664904,0.240788000,-0.087031257,-0.767477000,-2.945990000,0.799640774,1.458430000,,,,,
1749762456.951679,-0.003248510,0.011221400,-0.029752700,0.000086058,-0.005444450,0.099463900,-0.005134020,-0.016947400,1749762456.951678991,0.001006412,-0.011638719,0.240602000,-0.086919930,-0.767399000,-2.946060000,0.799522028,1.458240000,,,,,
1749762456.961707,-0.004213960,0.010901800,-0.028813900,0.000789743,-0.003671860,0.104819000,-0.005254090,-0.016844300,1749762456.961707115,0.002016365,-0.011512644,0.240429000,-0.086819009,-0.767333000,-2.946130000,0.799417598,1.458080000,,,,,
1749762456.965169,,,,,,,,,,,,,,,,,,1749762456.965168953,0.250000000,0.000000000,0.000000000,0.000000000
1749762456.971542,-0.005562230,0.010478400,-0.027972800,0.002690360,-0.001973640,0.109293000,-0.005375360,-0.016560300,1749762456.971541882,0.003421990,-0.011358928,0.240191000,-0.086650622,-0.767286000,-2.946200000,0.799319205,1.457910000,,,,,
1749762456.981745,-0.006922120,0.010060400,-0.027101600,0.003917780,-0.000304418,0.113260000,-0.004728680,-0.016355100,1749762456.981745005,0.004836710,-0.011213101,0.239938000,-0.086379010,-0.767242000,-2.946160000,0.799230378,1.457760000,,,,,
1749762456.991679,-0.008045750,0.009607160,-0.026102500,0.004952590,0.001184620,0.115713000,-0.004123320,-0.016165600,1749762456.991678953,0.006026526,-0.010986929,0.239705000,-0.086125276,-0.767207000,-2.946120000,0.799154243,1.457630000,,,,,
1749762457.001749,-0.009408690,0.009257710,-0.025273700,0.006314470,0.002952910,0.119920000,-0.005653990,-0.015918200,1749762457.001749039,0.007434220,-0.010906925,0.239427000,-0.086069062,-0.767162000,-2.946380000,0.799033753,1.457490000,,,,,
1749762457.011705,-0.010865300,0.008985520,-0.024433900,0.007667820,0.004683670,0.123579000,-0.007004780,-0.015658400,1749762457.011704922,0.008918801,-0.010920133,0.239121000,-0.085986872,-0.767109000,-2.946640000,0.798900074,1.457360000,,,,,
1749762457.015357,,,,,,,,,,,,,,,,,,1749762457.015357018,0.250000000,0.000000000,0.000000000,0.000000000
1749762457.021432,-0.012436600,0.008687990,-0.023602200,0.008479110,0.006413560,0.126980000,-0.007058370,-0.015463900,1749762457.021431923,0.010518848,-0.010931790,0.238784000,-0.085729264,-0.767062000,-2.946720000,0.798781825,1.457240000,,,,,
1749762457.031680,-0.014187100,0.008282230,-0.022811000,0.008988510,0.008130390,0.130057000,-0.006861790,-0.015305100,1749762457.031680107,0.012315222,-0.010872187,0.238405000,-0.085394806,-0.767034000,-2.946760000,0.798677550,1.457120000,,,,,
1749762457.041694,-0.015921700,0.007793150,-0.021918300,0.009586800,0.009642170,0.131510000,-0.005971210,-0.015128300,1749762457.041693926,0.014111047,-0.010729030,0.238012000,-0.084963650,-0.767022000,-2.946700000,0.798594790,1.457020000,,,,,
1749762457.051698,-0.017292100,0.007297980,-0.020946400,0.010023200,0.010972100,0.131613000,-0.005142320,-0.014969000,1749762457.051697969,0.015550768,-0.010509560,0.237653000,-0.084564697,-0.767016000,-2.946640000,0.798524455,1.456940000,,,,,
1749762457.061720,-0.019360000,0.006836940,-0.020193200,0.010733400,0.012348100,0.132024000,-0.004451020,-0.014765600,1749762457.061719894,0.017668285,-0.010458731,0.237180000,-0.084061898,-0.767010000,-2.946590000,0.798431143,1.456840000,,,,,
1749762457.065530,,,,,,,,,,,,,,,,,,1749762457.065530062,0.250000000,0.000000000,0.000000000,0.000000000
1749762457.071552,-0.021643300,0.006434530,-0.019465100,0.009693090,0.013713700,0.132337000,-0.003959690,-0.014809400,1749762457.071552038,0.019985969,-0.010506981,0.236655000,-0.083524642,-0.767001000,-2.946560000,0.798323091,1.456750000,,,,,
1749762457.081794,-0.023975200,0.006019670,-0.018745200,0.008419810,0.015097300,0.132752000,-0.004947050,-0.014897400,1749762457.081794024,0.022355958,-0.010547881,0.236099000,-0.083123829,-0.766996000,-2.946740000,0.798195484,1.456660000,,,,,
1749762457.091723,-0.026373300,0.005469600,-0.018040500,0.008755430,0.016334900,0.132133000,-0.005033060,-0.014764500,1749762457.091722965,0.024815811,-0.010471056,0.235511000,-0.082590969,-0.767016000,-2.946800000,0.798096302,1.456570000,,,,,
1749762457.101706,-0.028977300,0.004926870,-0.017252800,0.009561600,0.017413300,0.130460000,-0.004062890,-0.014559800,1749762457.101706028,0.027474676,-0.010445101,0.234869000,-0.081884645,-0.767040000,-2.946710000,0.798002953,1.456510000,,,,,
1749762457.111703,-0.031793800,0.004392970,-0.016471300,0.009735520,0.018293300,0.127538000,-0.003785310,-0.014438900,1749762457.111702919,0.030341251,-0.010466727,0.234170000,-0.081193261,-0.767069000,-2.946710000,0.797896042,1.456450000,,,,,
1749762457.115699,,,,,,,,,,,,,,,,,,1749762457.115699053,0.250000000,0.000000000,0.000000000,0.000000000
1749762457.121551,-0.034969700,0.003788570,-0.015759900,0.012304300,0.018935800,0.123181000,-0.002763980,-0.013968400,1749762457.121551037,0.033572922,-0.010492479,0.233391000,-0.080332730,-0.767113000,-2.946600000,0.797797196,1.456380000,,,,,
1749762457.131760,-0.038011000,0.003227690,-0.015107300,0.016290600,0.019521400,0.118734000,-0.000614811,-0.013266200,1749762457.131759882,0.036662312,-0.010541774,0.232599000,-0.079324052,-0.767156000,-2.946320000,0.797708166,1.456320000,,,,,
1749762457.141695,-0.041257800,0.002589570,-0.014435100,0.020230900,0.019926700,0.113351000,0.000692088,-0.012530800,1749762457.141695023,0.039969324,-0.010552966,0.231748000,-0.078333820,-0.767217000,-2.946140000,0.797616997,1.456270000,,,,,
1749762457.151700,-0.044456400,0.001915550,-0.013758200,0.022502700,0.020320700,0.108260000,0.001209940,-0.011998500,1749762457.151700020,0.043236977,-0.010516873,0.230870000,-0.077386777,-0.767289000,-2.946050000,0.797524077,1.456220000,,,,,
1749762457.161712,-0.048013000,0.001240450,-0.013072800,0.024102600,0.020243100,0.100274000,-0.000491866,-0.011541000,1749762457.161711931,0.046859498,-0.010534436,0.229909000,-0.076620119,-0.767368000,-2.946290000,0.797396484,1.456180000,,,,,
1749762457.165868,,,,,,,,,,,,,,,,,,1749762457.165868044,0.250000000,0.000000000,0.000000000,0.000000000
1749762457.171535,-0.051542700,0.000733639,-0.012234600,0.022901300,0.020250500,0.093423400,-0.002834690,-0.011474500,1749762457.171535015,0.050424091,-0.010705102,0.228916000,-0.075905224,-0.767429000,-2.946630000,0.797237858,1.456180000,,,,,
1749762457.173410,,,,,,,,,,,,,,,,,,1749762457.173409939,0.250000000,0.000000000,0.000000000,0.000000000
1749762457.181719,-0.055359000,0.000101906,-0.011369900,0.021955100,0.019894800,0.084544500,-0.003331760,-0.011383000,1749762457.181719065,0.054291558,-0.010819240,0.227846000,-0.074918933,-0.767513000,-2.946730000,0.797105488,1.456180000,,,,,
1749762457.191694,-0.059250700,-0.000529104,-0.010501500,0.021682900,0.019532700,0.076232700,-0.004503390,-0.011203000,1749762457.191694021,0.058234088,-0.010941500,0.226727000,-0.073970854,-0.767604000,-2.946940000,0.796962575,1.456190000,,,,,
1749762457.201676,-0.063083100,-0.001127930,-0.009570160,0.019702300,0.019505100,0.070795800,-0.006349940,-0.011273900,1749762457.201675892,0.062113378,-0.011076013,0.225578000,-0.073072772,-0.767696000,-2.947250000,0.796807977,1.456220000,,,,,
1749762457.203494,,,,,,,,,,,,,,,,,,1749762457.203494072,0.250000000,0.000000000,0.000000000,0.000000000
1749762457.211717,-0.066822500,-0.001727600,-0.008630470,0.016915800,0.019614900,0.066678500,-0.006943090,-0.011481700,1749762457.211716890,0.065899873,-0.011199906,0.224404000,-0.072021255,-0.767795000,-2.947400000,0.796667594,1.456260000,,,,,
1749762457.215647,,,,,,,,,,,,,,,,,,1749762457.215646982,0.250000000,0.000000000,0.000000000,0.000000000
1749762457.221554,-0.070473100,-0.002334540,-0.007775250,0.012730200,0.019810400,0.063434700,-0.007214750,-0.011920600,1749762457.221554041,0.069600223,-0.011301191,0.223205000,-0.070912148,-0.767900000,-2.947510000,0.796531449,1.456300000,,,,,
1749762457.231781,-0.073854800,-0.002940570,-0.006898610,0.009501120,0.020173400,0.061567000,-0.006489150,-0.012262400,1749762457.231781006,0.073034973,-0.011360947,0.222009000,-0.069693302,-0.768011000,-2.947480000,0.796411788,1.456350000,,,,,
1749762457.234422,,,,,,,,,,,,,,,,,,1749762457.234421968,0.250000000,0.000000000,0.000000000,0.000000000
1749762457.241740,-0.076147400,-0.003442600,-0.006073670,0.006603290,0.020473400,0.059394400,-0.005799430,-0.012588400,1749762457.241739988,0.075380904,-0.011313593,0.220938000,-0.068590696,-0.768114000,-2.947440000,0.796309006,1.456400000,,,,,
1749762457.251706,-0.079794400,-0.003931360,-0.005492780,0.006796410,0.020500200,0.055490200,-0.005106590,-0.012494300,1749762457.251705885,0.079053219,-0.011540813,0.219646000,-0.067270866,-0.768219000,-2.947400000,0.796165453,1.456420000,,,,,
1749762457.261581,-0.083572700,-0.004370720,-0.004785220,0.007933430,0.020385700,0.050882400,-0.003911830,-0.012261200,1749762457.261580944,0.082843866,-0.011848768,0.218299000,-0.065833787,-0.768322000,-2.947280000,0.796014486,1.456470000,,,,,
1749762457.265153,,,,,,,,,,,,,,,,,,1749762457.265152931,0.250000000,0.000000000,0.000000000,0.000000000
1749762457.265266,,,,,,,,,,,,,,,,,,1749762457.265265942,0.250000000,0.000000000,0.000000000,0.000000000
1749762457.271603,-0.086124700,-0.004714860,-0.004126330,0.008853920,0.020245700,0.046416800,-0.002836140,-0.012048100,1749762457.271603107,0.085412848,-0.012014126,0.217093000,-0.064536827,-0.768416000,-2.947160000,0.795881598,1.456520000,,,,,
1749762457.281741,-0.090468300,-0.005257990,-0.003367970,0.007249270,0.019823400,0.040314800,-0.002577490,-0.012192700,1749762457.281740904,0.089779419,-0.012321354,0.215601000,-0.063040638,-0.768542000,-2.947150000,0.795717585,1.456590000,,,,,
1749762457.291698,-0.095001300,-0.005825880,-0.002618450,0.005835980,0.019307500,0.033989200,-0.002801760,-0.012325500,1749762457.291697979,0.094337482,-0.012634370,0.214037000,-0.061527759,-0.768677000,-2.947210000,0.795544155,1.456660000,,,,,
1749762457.295591,,,,,,,,,,,,,,,,,,1749762457.295591116,0.250000000,0.000000000,0.000000000,0.000000000
1749762457.301699,-0.098109800,-0.006269120,-0.001942170,0.004552830,0.018802900,0.028176400,-0.002972360,-0.012453600,1749762457.301698923,0.097473697,-0.012795045,0.212636000,-0.060169155,-0.768800000,-2.947260000,0.795391213,1.456740000,,,,,
1749762457.311676,-0.102587000,-0.006874660,-0.001182530,0.001587750,0.018220000,0.022224600,-0.004473500,-0.012838900,1749762457.311676025,0.101986821,-0.013040007,0.211004000,-0.058737712,-0.768950000,-2.947510000,0.795208571,1.456830000,,,,,
1749762457.315762,,,,,,,,,,,,,,,,,,1749762457.315762043,0.250000000,0.000000000,0.000000000,0.000000000
1749762457.321702,-0.106760000,-0.007402900,-0.000502011,0.001304290,0.017700200,0.017116800,-0.005009930,-0.012864200,1749762457.321702003,0.106184952,-0.013313774,0.209372000,-0.057203598,-0.769096000,-2.947630000,0.795030213,1.456910000,,,,,
1749762457.326557,,,,,,,,,,,,,,,,,,1749762457.326556921,0.250000000,0.000000000,0.000000000,0.000000000
1749762457.331684,-0.110694000,-0.007948540,0.000143536,0.002355250,0.017351500,0.013538900,-0.004122520,-0.012698400,1749762457.331684113,0.110149270,-0.013545451,0.207733000,-0.055502252,-0.769249000,-2.947550000,0.794868872,1.457000000,,,,,
1749762457.341730,-0.114355000,-0.008427220,0.000660949,0.003155600,0.017032100,0.010408400,-0.002762230,-0.012558600,1749762457.341730118,0.113831797,-0.013798770,0.206094000,-0.053746075,-0.769398000,-2.947400000,0.794707102,1.457080000,,,,,
1749762457.351715,-0.118244000,-0.008930940,0.001152920,0.005648310,0.016792800,0.008044410,0.000332384,-0.012164900,1749762457.351715088,0.117738849,-0.014105625,0.204386000,-0.051698035,-0.769556000,-2.946970000,0.794554836,1.457160000,,,,,
1749762457.356858,,,,,,,,,,,,,,,,,,1749762457.356858015,0.250000000,0.000000000,0.000000000,0.000000000
1749762457.361447,-0.120585000,-0.009290760,0.001571380,0.007770300,0.016563600,0.005913370,0.003025910,-0.011800100,1749762457.361447096,0.120099691,-0.014252179,0.202863000,-0.049866700,-0.769697000,-2.946580000,0.794418140,1.457230000,,,,,
1749762457.365973,,,,,,,,,,,,,,,,,,1749762457.365972996,0.250000000,0.000000000,0.000000000,0.000000000
1749762457.371788,-0.124479000,-0.009671030,0.002294430,0.007455550,0.016096600,0.002291760,0.006865970,-0.011768200,1749762457.371788025,0.123984914,-0.014706846,0.201091000,-0.047631011,-0.769845000,-2.945990000,0.794248199,1.457350000,,,,,
1749762457.381747,-0.128572000,-0.010065200,0.002892730,0.006123580,0.015468900,-0.002186430,0.008441650,-0.011887100,1749762457.381747007,0.128071933,-0.015154121,0.199252000,-0.045558934,-0.769999000,-2.945690000,0.794055542,1.457460000,,,,,
1749762457.386641,,,,,,,,,,,,,,,,,,1749762457.386641026,0.250000000,0.000000000,0.000000000,0.000000000
1749762457.391742,-0.131000000,-0.010319400,0.003388440,0.004908750,0.014882900,-0.006069120,0.009739860,-0.012002400,1749762457.391741991,0.130498815,-0.015412633,0.197613000,-0.043710075,-0.770137000,-2.945420000,0.793883698,1.457560000,,,,,
1749762457.401909,-0.135471000,-0.010673000,0.003793640,0.002586910,0.014472800,-0.008474580,0.005827640,-0.012290600,1749762457.401909113,0.134960459,-0.015873859,0.195654000,-0.042131450,-0.770292000,-2.945890000,0.793634169,1.457650000,,,,,
1749762457.411541,-0.140016000,-0.011058200,0.004386110,-0.000083967,0.013944800,-0.011525600,0.002903290,-0.012652800,1749762457.411540985,0.139499656,-0.016328200,0.193639000,-0.040416967,-0.770454000,-2.946260000,0.793386348,1.457780000,,,,,
1749762457.415818,,,,,,,,,,,,,,,,,,1749762457.415817976,0.250000000,0.000000000,0.000000000,0.000000000
1749762457.418046,,,,,,,,,,,,,,,,,,1749762457.418045998,0.250000000,0.000000000,0.000000000,0.000000000
1749762457.421751,-0.142736000,-0.011295900,0.004863510,-0.002410480,0.013458100,-0.014082000,0.000329468,-0.012991600,1749762457.421751022,0.142219709,-0.016574599,0.191844000,-0.038897638,-0.770599000,-2.946600000,0.793167015,1.457890000,,,,,
1749762457.431760,-0.146925000,-0.011743800,0.005459070,-0.006420000,0.013003000,-0.016245600,0.001162670,-0.013598200,1749762457.431760073,0.146414074,-0.016964415,0.189808000,-0.036770579,-0.770777000,-2.946480000,0.792951565,1.458030000,,,,,
1749762457.441831,-0.150772000,-0.012165700,0.005977690,-0.009296000,0.012611800,-0.017819900,0.000781596,-0.014080200,1749762457.441831112,0.150270569,-0.017290354,0.187780000,-0.034778064,-0.770956000,-2.946520000,0.792732596,1.458160000,,,,,
1749762457.448400,,,,,,,,,,,,,,,,,,1749762457.448400021,0.250000000,0.000000000,0.000000000,0.000000000
1749762457.451847,-0.154658000,-0.012462400,0.006426580,-0.009084850,0.012215300,-0.019322400,0.001496560,-0.014142500,1749762457.451847076,0.154138423,-0.017769491,0.185707000,-0.032625224,-0.771121000,-2.946410000,0.792496234,1.458280000,,,,,
1749762457.461726,-0.158630000,-0.012726800,0.006949570,-0.012106600,0.011778900,-0.020996000,0.002675810,-0.014672400,1749762457.461725950,0.158082807,-0.018310499,0.183584000,-0.030360394,-0.771284000,-2.946220000,0.792250175,1.458420000,,,,,
1749762457.465627,,,,,,,,,,,,,,,,,,1749762457.465626955,0.250000000,0.000000000,0.000000000,0.000000000
1749762457.471839,-0.162864000,-0.013043100,0.007550430,-0.016124200,0.011123900,-0.024059300,0.003113760,-0.015377100,1749762457.471838951,0.162295966,-0.018836779,0.181382000,-0.028095422,-0.771457000,-2.946130000,0.791994937,1.458580000,,,,,
1749762457.478876,,,,,,,,,,,,,,,,,,1749762457.478876114,0.250000000,0.000000000,0.000000000,0.000000000
1749762457.481775,-0.167175000,-0.013419800,0.008174760,-0.019677800,0.010320700,-0.027932000,0.003431070,-0.016054600,1749762457.481775045,0.166596687,-0.019316198,0.179127000,-0.025792010,-0.771642000,-2.946060000,0.791740254,1.458750000,,,,,
1749762457.491755,-0.171226000,-0.013797100,0.008520850,-0.022350600,0.009602980,-0.030949700,0.002570640,-0.016639700,1749762457.491755009,0.170645573,-0.019717795,0.176867000,-0.023609589,-0.771831000,-2.946150000,0.791484438,1.458880000,,,,,
1749762457.501878,-0.174768000,-0.014183600,0.008811890,-0.022384000,0.009117520,-0.032160800,0.002332450,-0.016868100,1749762457.501878023,0.174195399,-0.020024770,0.174640000,-0.021395224,-0.772025000,-2.946160000,0.791242046,1.459000000,,,,,
1749762457.509578,,,,,,,,,,,,,,,,,,1749762457.509577990,0.250000000,0.000000000,0.000000000,0.000000000
1749762457.511736,-0.178095000,-0.014590200,0.009099350,-0.021769800,0.008629050,-0.033309400,0.003870020,-0.017002700,1749762457.511735916,0.177532950,-0.020316368,0.172409000,-0.018969910,-0.772226000,-2.945910000,0.791010746,1.459130000,,,,,
1749762457.515733,,,,,,,,,,,,,,,,,,1749762457.515733004,0.250000000,0.000000000,0.000000000,0.000000000
1749762457.521690,-0.181164000,-0.015040100,0.009465070,-0.022153700,0.008290180,-0.033349200,0.006216570,-0.017276200,1749762457.521689892,0.180623063,-0.020540417,0.170182000,-0.016443691,-0.772438000,-2.945530000,0.790791997,1.459280000,,,,,
1749762457.531768,-0.184265000,-0.015301200,0.009900180,-0.023106700,0.007936430,-0.033488600,0.007166250,-0.017636200,1749762457.531768084,0.183711335,-0.020925164,0.167920000,-0.014030297,-0.772626000,-2.945330000,0.790538559,1.459440000,,,,,
1749762457.540533,,,,,,,,,,,,,,,,,,1749762457.540533066,0.250000000,0.000000000,0.000000000,0.000000000
1749762457.541728,-0.187323000,-0.015628000,0.010276300,-0.023603500,0.007651370,-0.033145600,0.009256980,-0.017939400,1749762457.541728020,0.186766286,-0.021271937,0.165633000,-0.011447891,-0.772826000,-2.944950000,0.790293150,1.459590000,,,,,
1749762457.551492,-0.190648000,-0.015945000,0.010688000,-0.023768900,0.007409160,-0.032531400,0.007243120,-0.018199500,1749762457.551491976,0.190093459,-0.021572659,0.163277000,-0.009255640,-0.773029000,-2.945150000,0.790030092,1.459750000,,,,,
1749762457.561707,-0.191857000,-0.016080100,0.010952000,-0.023702500,0.007203450,-0.031708100,0.005424220,-0.018427500,1749762457.561707020,0.191309907,-0.021637870,0.161195000,-0.007336705,-0.773208000,-2.945350000,0.789797830,1.459900000,,,,,
1749762457.565706,,,,,,,,,,,,,,,,,,1749762457.565706015,0.250000000,0.000000000,0.000000000,0.000000000
1749762457.570650,,,,,,,,,,,,,,,,,,1749762457.570650101,0.250000000,0.000000000,0.000000000,0.000000000
1749762457.571804,-0.195284000,-0.016478200,0.011274600,-0.025927800,0.007153810,-0.029867300,0.003303050,-0.018987800,1749762457.571804047,0.194754226,-0.021866939,0.158778000,-0.005120780,-0.773427000,-2.945600000,0.789540091,1.460050000,,,,,
1749762457.581733,-0.198496000,-0.016925200,0.011632500,-0.025759300,0.007076150,-0.028346000,0.004303390,-0.019222600,1749762457.581732988,0.197987808,-0.022089640,0.156359000,-0.002561424,-0.773656000,-2.945420000,0.789294104,1.460220000,,,,,
1749762457.591733,-0.199537000,-0.017164900,0.011841400,-0.025384400,0.007021740,-0.026769400,0.005136920,-0.019425800,1749762457.591732979,0.199052031,-0.022089295,0.154223000,-0.000300377,-0.773860000,-2.945260000,0.789077907,1.460370000,,,,,
1749762457.600984,,,,,,,,,,,,,,,,,,1749762457.600984097,0.250000000,0.000000000,0.000000000,0.000000000
1749762457.601590,-0.203138000,-0.017810600,0.012308800,-0.023614500,0.006356360,-0.029506700,0.005178140,-0.019422500,1749762457.601589918,0.202708480,-0.022170623,0.151704000,0.002269450,-0.774126000,-2.945200000,0.788847271,1.460550000,,,,,
1749762457.611840,-0.206512000,-0.018397100,0.012803600,-0.021759100,0.005597960,-0.032696000,0.004873260,-0.019389100,1749762457.611840010,0.206131844,-0.022255836,0.149182000,0.004802175,-0.774389000,-2.945190000,0.788613043,1.460750000,,,,,
1749762457.615125,,,,,,,,,,,,,,,,,,1749762457.615124941,0.250000000,0.000000000,0.000000000,0.000000000
1749762457.621816,-0.207623000,-0.018745300,0.013121400,-0.019949700,0.004909330,-0.035185400,0.004564460,-0.019343800,1749762457.621815920,0.207289434,-0.022131133,0.146956000,0.007031239,-0.774624000,-2.945190000,0.788409138,1.460920000,,,,,
1749762457.630796,,,,,,,,,,,,,,,,,,1749762457.630795956,0.250000000,0.000000000,0.000000000,0.000000000
1749762457.631720,-0.210844000,-0.019030100,0.013618900,-0.017599200,0.004554000,-0.035209300,0.004381460,-0.019201800,1749762457.631720066,0.210503637,-0.022484572,0.144412000,0.009586585,-0.774852000,-2.945170000,0.788136121,1.461120000,,,,,
1749762457.641760,-0.214318000,-0.019404800,0.014123900,-0.016846200,0.004124880,-0.035739500,0.003028740,-0.019268400,1749762457.641760111,0.213987379,-0.022762973,0.141799000,0.012078974,-0.775097000,-2.945320000,0.787868272,1.461330000,,,,,
1749762457.651726,-0.217523000,-0.019918100,0.014558000,-0.014751800,0.003677950,-0.036355800,0.002000550,-0.019132600,1749762457.651726007,0.217233690,-0.022858483,0.139190000,0.014595826,-0.775366000,-2.945440000,0.787625071,1.461540000,,,,,
1749762457.660554,,,,,,,,,,,,,,,,,,1749762457.660553932,0.250000000,0.000000000,0.000000000,0.000000000
1749762457.661737,-0.220345000,-0.020455000,0.015043400,-0.011456800,0.003381970,-0.035890600,0.001351010,-0.018801400,1749762457.661736965,0.220108044,-0.022864270,0.136605000,0.017122251,-0.775643000,-2.945520000,0.787394322,1.461750000,,,,,
1749762457.665746,,,,,,,,,,,,,,,,,,1749762457.665745974,0.250000000,0.000000000,0.000000000,0.000000000
1749762457.671707,-0.223529000,-0.020919600,0.015578600,-0.010294000,0.002974860,-0.036222400,0.002688570,-0.018747000,1749762457.671706915,0.223316708,-0.023075772,0.133939000,0.019955458,-0.775915000,-2.945310000,0.787137550,1.461980000,,,,,
1749762457.681814,-0.226416000,-0.021362800,0.016151600,-0.009925900,0.002755080,-0.035241900,0.002357550,-0.018796500,1749762457.681813955,0.226235172,-0.023199594,0.131284000,0.022597177,-0.776189000,-2.945330000,0.786888950,1.462220000,,,,,
1749762457.690629,,,,,,,,,,,,,,,,,,1749762457.690629005,0.250000000,0.000000000,0.000000000,0.000000000
1749762457.691517,-0.229022000,-0.021761400,0.016465000,-0.010519800,0.002691430,-0.033254300,-0.000718326,-0.018982000,1749762457.691517115,0.228878645,-0.023220702,0.128641000,0.024911893,-0.776460000,-2.945750000,0.786649882,1.462430000,,,,,
1749762457.701792,-0.231565000,-0.022160500,0.016854700,-0.009560310,0.002772750,-0.030405600,-0.003816340,-0.018947800,1749762457.701792002,0.231461400,-0.023217612,0.125981000,0.027213004,-0.776736000,-2.946210000,0.786415589,1.462650000,,,,,
1749762457.711711,-0.234040000,-0.022630100,0.017339200,-0.009222180,0.003140230,-0.025783300,-0.004033930,-0.018994300,1749762457.711710930,0.233982104,-0.023221069,0.123306000,0.029838376,-0.777026000,-2.946280000,0.786182832,1.462890000,,,,,
1749762457.715761,,,,,,,,,,,,,,,,,,1749762457.715760946,0.250000000,0.000000000,0.000000000,0.000000000
1749762457.721713,,,,,,,,,,,,,,,,,,1749762457.721713066,0.250000000,0.000000000,0.000000000,0.000000000
1749762457.721810,-0.236598000,-0.023070900,0.017880700,-0.009954080,0.003439650,-0.021947600,-0.003794710,-0.019192900,1749762457.721810102,0.236577249,-0.023282724,0.120594000,0.032547235,-0.777316000,-2.946290000,0.785941317,1.463140000,,,,,
1749762457.731695,-0.239221000,-0.023425800,0.018265500,-0.008758070,0.003484690,-0.020126900,-0.005088130,-0.019118600,1749762457.731694937,0.239224408,-0.023390971,0.117847000,0.035123886,-0.777598000,-2.946510000,0.785692610,1.463380000,,,,,
1749762457.741555,-0.241585000,-0.023771400,0.018699700,-0.008181520,0.003751930,-0.016902100,-0.004880660,-0.019122500,1749762457.741554976,0.241611031,-0.023505350,0.115111000,0.037847526,-0.777883000,-2.946530000,0.785442594,1.463620000,,,,,
1749762457.751772,-0.243881000,-0.024185400,0.019099700,-0.008689730,0.003919100,-0.014588100,-0.003417300,-0.019278100,1749762457.751771927,0.243939963,-0.023583261,0.112362000,0.040727785,-0.778181000,-2.946370000,0.785195603,1.463870000,,,,,
1749762457.752033,,,,,,,,,,,,,,,,,,1749762457.752032995,0.250000000,0.000000000,0.000000000,0.000000000
1749762457.761785,-0.243721000,-0.024331900,0.019279100,-0.009055600,0.004084930,-0.012442500,-0.002111940,-0.019418200,1749762457.761785030,0.243807673,-0.023447515,0.109946000,0.043274507,-0.778444000,-2.946210000,0.784978026,1.464080000,,,,,
1749762457.765210,,,,,,,,,,,,,,,,,,1749762457.765209913,0.250000000,0.000000000,0.000000000,0.000000000
1749762457.771754,-0.246523000,-0.024780800,0.019804700,-0.009016190,0.003823690,-0.013384200,-0.002673760,-0.019503000,1749762457.771754026,0.246646100,-0.023524011,0.107102000,0.046037871,-0.778752000,-2.946320000,0.784733095,1.464350000,,,,,
1749762457.781891,-0.249099000,-0.025165000,0.020305700,-0.008528830,0.003698100,-0.013327400,-0.002173120,-0.019522300,1749762457.781891108,0.249246507,-0.023659407,0.104263000,0.048921126,-0.779056000,-2.946270000,0.784478010,1.464620000,,,,,
1749762457.782550,,,,,,,,,,,,,,,,,,1749762457.782550097,0.250000000,0.000000000,0.000000000,0.000000000
1749762457.791555,-0.249137000,-0.025277000,0.020562300,-0.008028640,0.003589160,-0.013159900,-0.001717640,-0.019535000,1749762457.791554928,0.249304580,-0.023566884,0.101766000,0.051454030,-0.779324000,-2.946230000,0.784254231,1.464860000,,,,,
1749762457.801739,-0.251414000,-0.025657600,0.021180800,-0.009485880,0.003671420,-0.011687900,-0.000831771,-0.019827000,1749762457.801738977,0.251609310,-0.023665734,0.098944100,0.054376120,-0.779632000,-2.946110000,0.784002059,1.465160000,,,,,
1749762457.811753,-0.253937000,-0.026037400,0.021815800,-0.010396900,0.003711020,-0.010610800,-0.000410862,-0.020054200,1749762457.811753035,0.254156840,-0.023795943,0.096063400,0.057301745,-0.779944000,-2.946060000,0.783745705,1.465460000,,,,,
1749762457.812860,,,,,,,,,,,,,,,,,,1749762457.812860012,0.250000000,0.000000000,0.000000000,0.000000000
1749762457.816048,,,,,,,,,,,,,,,,,,1749762457.816047907,0.250000000,0.000000000,0.000000000,0.000000000
1749762457.821808,-0.253887000,-0.026137900,0.022175900,-0.011098600,0.003754910,-0.009578340,-0.000040466,-0.020260100,1749762457.821808100,0.254126134,-0.023700350,0.093531300,0.059878199,-0.780219000,-2.946010000,0.783520512,1.465730000,,,,,
1749762457.831878,-0.256679000,-0.026408600,0.022906200,-0.013659700,0.003778630,-0.008755800,-0.000633767,-0.020743100,1749762457.831877947,0.256919668,-0.023954280,0.090586700,0.062754469,-0.780519000,-2.946100000,0.783248196,1.466060000,,,,,
1749762457.841752,-0.259529000,-0.026862400,0.023593300,-0.016713100,0.003813300,-0.007914500,0.000876188,-0.021323400,1749762457.841752052,0.259798473,-0.024117294,0.087605900,0.065907020,-0.780849000,-2.945890000,0.782979067,1.466390000,,,,,
1749762457.843230,,,,,,,,,,,,,,,,,,1749762457.843230009,0.250000000,0.000000000,0.000000000,0.000000000
1749762457.851753,-0.262288000,-0.027263200,0.024248900,-0.017876900,0.003956090,-0.006386880,0.000516404,-0.021659600,1749762457.851752996,0.262583715,-0.024250145,0.084609800,0.068878207,-0.781176000,-2.945930000,0.782719972,1.466720000,,,,,
1749762457.861714,-0.264995000,-0.027765000,0.024808400,-0.018844700,0.004016810,-0.005529310,-0.000535542,-0.021978900,1749762457.861713886,0.265340261,-0.024244405,0.081593600,0.071786751,-0.781522000,-2.946080000,0.782483747,1.467050000,,,,,
1749762457.865399,,,,,,,,,,,,,,,,,,1749762457.865398884,0.250000000,0.000000000,0.000000000,0.000000000
1749762457.871725,-0.267759000,-0.028106700,0.025519500,-0.020709700,0.004042240,-0.004973690,0.000450145,-0.022438300,1749762457.871725082,0.268114559,-0.024483712,0.078542100,0.074953150,-0.781849000,-2.945940000,0.782201218,1.467400000,,,,,
1749762457.874281,,,,,,,,,,,,,,,,,,1749762457.874280930,0.250000000,0.000000000,0.000000000,0.000000000
1749762457.881847,-0.270210000,-0.028508300,0.026111600,-0.023062500,0.004124280,-0.004066620,0.000444946,-0.022987200,1749762457.881846905,0.270596624,-0.024568971,0.075508400,0.078002693,-0.782188000,-2.945930000,0.781943198,1.467740000,,,,,
1749762457.891505,-0.272327000,-0.028970900,0.026618800,-0.023400800,0.004017120,-0.004524320,-0.001333900,-0.023267000,1749762457.891505003,0.272769534,-0.024455859,0.072498800,0.080820250,-0.782541000,-2.946190000,0.781725386,1.468070000,,,,,
1749762457.901511,-0.274668000,-0.029495200,0.027221600,-0.024323500,0.003924390,-0.004851150,-0.002011040,-0.023635100,1749762457.901510954,0.275170465,-0.024365800,0.069435400,0.083810451,-0.782907000,-2.946300000,0.781498851,1.468430000,,,,,
1749762457.905359,,,,,,,,,,,,,,,,,,1749762457.905359030,0.250000000,0.000000000,0.000000000,0.000000000
1749762457.911782,-0.276876000,-0.029984800,0.027803500,-0.025090700,0.003525820,-0.007260700,-0.000962941,-0.023989800,1749762457.911782026,0.277428338,-0.024350043,0.066367900,0.086992228,-0.783273000,-2.946170000,0.781251331,1.468780000,,,,,
1749762457.915533,,,,,,,,,,,,,,,,,,1749762457.915533066,0.250000000,0.000000000,0.000000000,0.000000000
1749762457.921700,-0.279157000,-0.030459000,0.028447200,-0.024855900,0.003069500,-0.009901840,-0.000156871,-0.024206600,1749762457.921700001,0.279755324,-0.024358570,0.063267800,0.090190689,-0.783641000,-2.946060000,0.781000430,1.469160000,,,,,
1749762457.931695,-0.281138000,-0.030948700,0.029086900,-0.023113500,0.002574510,-0.012627400,-0.000430998,-0.024202000,1749762457.931694984,0.281794689,-0.024251816,0.060188400,0.093253231,-0.784017000,-2.946100000,0.780774702,1.469530000,,,,,
1749762457.935792,,,,,,,,,,,,,,,,,,1749762457.935791969,0.250000000,0.000000000,0.000000000,0.000000000
1749762457.941702,-0.283283000,-0.031562400,0.029705700,-0.023509200,0.001919840,-0.016264400,0.002200520,-0.024490600,1749762457.941701889,0.284008876,-0.024174397,0.057065300,0.096690953,-0.784416000,-2.945720000,0.780522754,1.469910000,,,,,
1749762457.951739,-0.285248000,-0.032197100,0.030124600,-0.024192700,0.001426130,-0.018543200,0.003803920,-0.024825000,1749762457.951739073,0.286053836,-0.024005781,0.053947100,0.100024010,-0.784824000,-2.945470000,0.780291098,1.470270000,,,,,
1749762457.961790,-0.287067000,-0.032774400,0.030471600,-0.022933100,0.000976771,-0.020359900,0.005400840,-0.024883900,1749762457.961790085,0.287944027,-0.023871758,0.050830300,0.103370599,-0.785229000,-2.945200000,0.780053089,1.470620000,,,,,
1749762457.965562,,,,,,,,,,,,,,,,,,1749762457.965562105,0.250000000,0.000000000,0.000000000,0.000000000
1749762457.965694,,,,,,,,,,,,,,,,,,1749762457.965693951,0.250000000,0.000000000,0.000000000,0.000000000
1749762457.971720,-0.288796000,-0.033364100,0.030890200,-0.023126100,0.000873253,-0.019671000,0.005166060,-0.025141300,1749762457.971719980,0.289754388,-0.023636574,0.047708400,0.106528868,-0.785643000,-2.945180000,0.779847815,1.470990000,,,,,
1749762457.981805,-0.290622000,-0.033914500,0.031083800,-0.024159300,0.000620853,-0.020054300,0.005407570,-0.025522700,1749762457.981805086,0.291650579,-0.023479353,0.044555300,0.109772108,-0.786056000,-2.945090000,0.779627664,1.471330000,,,,,
1749762457.991564,-0.292227000,-0.034373200,0.031278200,-0.024437600,0.000737128,-0.017873600,0.003066240,-0.025804700,1749762457.991564035,0.293321005,-0.023257779,0.041415800,0.112704423,-0.786462000,-2.945380000,0.779445610,1.471660000,,,,,
1749762457.995915,,,,,,,,,,,,,,,,,,1749762457.995914936,0.250000000,0.000000000,0.000000000,0.000000000
1749762458.001813,-0.293933000,-0.034925400,0.031290600,-0.023901600,0.001084420,-0.014252900,0.002684940,-0.025971200,1749762458.001812935,0.295102386,-0.023042868,0.038245700,0.115880771,-0.786886000,-2.945400000,0.779245762,1.471980000,,,,,
1749762458.011756,-0.292816000,-0.035097300,0.031024300,-0.023223000,0.001418580,-0.010971800,0.002328910,-0.026111600,1749762458.011755943,0.294041004,-0.022647700,0.035468600,0.118654129,-0.787260000,-2.945430000,0.779074789,1.472250000,,,,,
1749762458.016082,,,,,,,,,,,,,,,,,,1749762458.016082048,0.250000000,0.000000000,0.000000000,0.000000000
1749762458.021722,-0.294984000,-0.035887800,0.031212200,-0.021050200,0.001224900,-0.011549700,0.001796890,-0.026028200,1749762458.021722078,0.296322614,-0.022280103,0.032225500,0.121886913,-0.787726000,-2.945480000,0.778905844,1.472590000,,,,,
1749762458.026739,,,,,,,,,,,,,,,,,,1749762458.026738882,0.250000000,0.000000000,0.000000000,0.000000000
1749762458.031446,-0.296943000,-0.036602600,0.031441800,-0.019738000,0.001280650,-0.010370900,0.001016110,-0.026048100,1749762458.031445980,0.298385542,-0.021930893,0.028991100,0.125071660,-0.788189000,-2.945580000,0.778742232,1.472940000,,,,,
1749762458.041620,-0.296020000,-0.036901300,0.031363500,-0.018419900,0.001339500,-0.009252010,0.000326777,-0.026053900,1749762458.041620016,0.297540321,-0.021431371,0.026155800,0.127862250,-0.788598000,-2.945670000,0.778602708,1.473240000,,,,,
1749762458.051800,-0.298145000,-0.037600500,0.031706800,-0.018067100,0.001166410,-0.009806600,0.001033770,-0.026186900,1749762458.051800013,0.299758452,-0.021192199,0.022886900,0.131245928,-0.789069000,-2.945560000,0.778413902,1.473600000,,,,,
1749762458.057337,,,,,,,,,,,,,,,,,,1749762458.057337046,0.250000000,0.000000000,0.000000000,0.000000000
1749762458.061731,-0.300381000,-0.038413700,0.032098800,-0.016063900,0.001004680,-0.010244800,0.005396360,-0.026076500,1749762458.061731100,0.302096627,-0.021023447,0.019580500,0.135083277,-0.789563000,-2.944920000,0.778168128,1.473980000,,,,,
1749762458.065504,,,,,,,,,,,,,,,,,,1749762458.065504074,0.250000000,0.000000000,0.000000000,0.000000000
1749762458.071699,-0.299670000,-0.038782100,0.032156100,-0.014176100,0.000859945,-0.010535900,0.009149890,-0.025962900,1749762458.071698904,0.301458954,-0.020704093,0.016680000,0.138480244,-0.790001000,-2.944320000,0.777947957,1.474310000,,,,,
1749762458.081578,-0.302378000,-0.039880900,0.032768700,-0.009198430,0.000486630,-0.012380300,0.007705190,-0.025381500,1749762458.081578016,0.304332208,-0.020120841,0.013289900,0.141818462,-0.790548000,-2.944440000,0.777836927,1.474720000,,,,,
1749762458.087668,,,,,,,,,,,,,,,,,,1749762458.087667942,0.250000000,0.000000000,0.000000000,0.000000000
1749762458.091712,-0.304910000,-0.041002200,0.033348600,-0.006227430,0.000196811,-0.013523000,0.005778310,-0.025041800,1749762458.091711998,0.307038694,-0.019455818,0.009898210,0.145098985,-0.791110000,-2.944640000,0.777752719,1.475130000,,,,,
1749762458.101703,-0.304417000,-0.041616100,0.033558600,-0.003583520,-0.000065677,-0.014398900,0.004048160,-0.024720000,1749762458.101702929,0.306678912,-0.018699047,0.006920770,0.147968751,-0.791609000,-2.944830000,0.777687569,1.475490000,,,,,
1749762458.111774,-0.307276000,-0.042671400,0.033929100,-0.000372252,-0.000118935,-0.013774400,0.000214344,-0.024289300,1749762458.111773968,0.309698487,-0.018061990,0.003461260,0.151068583,-0.792179000,-2.945350000,0.777648913,1.475880000,,,,,
1749762458.115825,,,,,,,,,,,,,,,,,,1749762458.115824938,0.250000000,0.000000000,0.000000000,0.000000000
1749762458.117621,,,,,,,,,,,,,,,,,,1749762458.117620945,0.250000000,0.000000000,0.000000000,0.000000000
1749762458.121753,-0.309878000,-0.043694400,0.034369000,0.001765110,-0.000178390,-0.013235500,-0.001347680,-0.023982500,1749762458.121752977,0.312453872,-0.017497238,0.000010413,0.154394250,-0.792754000,-2.945570000,0.777573997,1.476290000,,,,,
1749762458.131581,-0.309402000,-0.044198900,0.034447900,0.003611870,-0.000225500,-0.012648800,-0.002696810,-0.023696600,1749762458.131581068,0.312088793,-0.016844151,-0.003019140,0.157301841,-0.793264000,-2.945780000,0.777517215,1.476640000,,,,,
1749762458.141726,-0.312093000,-0.045221700,0.034836000,0.007712810,-0.000370202,-0.012774100,-0.004370970,-0.023064600,1749762458.141726017,0.314931775,-0.016279437,-0.006504100,0.160625281,-0.793855000,-2.946050000,0.777462271,1.477040000,,,,,
1749762458.148069,,,,,,,,,,,,,,,,,,1749762458.148068905,0.250000000,0.000000000,0.000000000,0.000000000
1749762458.151723,-0.314426000,-0.046201200,0.035287300,0.009497980,-0.000399886,-0.012099200,-0.005874730,-0.022728200,1749762458.151722908,0.317414876,-0.015686202,-0.009964000,0.163924761,-0.794449000,-2.946320000,0.777416984,1.477460000,,,,,
1749762458.161734,-0.316969000,-0.046971000,0.035732600,0.012051300,-0.000582076,-0.012520400,-0.004337100,-0.022262200,1749762458.161734104,0.320056286,-0.015478870,-0.013477700,0.167615196,-0.795023000,-2.946150000,0.777269815,1.477870000,,,,,
1749762458.165232,,,,,,,,,,,,,,,,,,1749762458.165231943,0.250000000,0.000000000,0.000000000,0.000000000
1749762458.171749,-0.319214000,-0.047885000,0.036195100,0.016933000,-0.001035550,-0.014780000,-0.004992430,-0.021432500,1749762458.171749115,0.322438144,-0.014973111,-0.016973500,0.171052738,-0.795626000,-2.946290000,0.777206403,1.478300000,,,,,
1749762458.178653,,,,,,,,,,,,,,,,,,1749762458.178653002,0.250000000,0.000000000,0.000000000,0.000000000
1749762458.181746,-0.321496000,-0.048965200,0.036760500,0.019028200,-0.001431020,-0.016484700,-0.003555720,-0.020958800,1749762458.181746006,0.324884087,-0.014408281,-0.020497200,0.174757020,-0.796261000,-2.946130000,0.777117558,1.478740000,,,,,
1749762458.191738,-0.323342000,-0.049961000,0.037281500,0.019857100,-0.001637270,-0.016769700,-0.002847760,-0.020648100,1749762458.191737890,0.326887374,-0.013812856,-0.023980400,0.178351617,-0.796896000,-2.946060000,0.777051475,1.479190000,,,,,
1749762458.201724,-0.325170000,-0.050889400,0.037991400,0.022405100,-0.002343580,-0.020477000,-0.003928840,-0.020079300,1749762458.201724052,0.328863431,-0.013194824,-0.027479400,0.181759488,-0.797530000,-2.946250000,0.777028125,1.479660000,,,,,
1749762458.209767,,,,,,,,,,,,,,,,,,1749762458.209767103,0.250000000,0.000000000,0.000000000,0.000000000
1749762458.211701,-0.326871000,-0.051720200,0.038761100,0.022961300,-0.002920470,-0.023038500,-0.002415860,-0.019774500,1749762458.211700916,0.330691048,-0.012769518,-0.030978300,0.185453979,-0.798160000,-2.946070000,0.776933628,1.480150000,,,,,
1749762458.215932,,,,,,,,,,,,,,,,,,1749762458.215931892,0.250000000,0.000000000,0.000000000,0.000000000
1749762458.221726,-0.328575000,-0.052458000,0.039434700,0.024038100,-0.003139230,-0.022958400,-0.001299680,-0.019388400,1749762458.221725941,0.332504184,-0.012423378,-0.034494400,0.189133073,-0.798784000,-2.945930000,0.776836162,1.480640000,,,,,
1749762458.231559,-0.329989000,-0.053175300,0.040029600,0.024894100,-0.003660210,-0.024964100,-0.002047580,-0.019023700,1749762458.231559038,0.334032095,-0.011954586,-0.037985700,0.192586830,-0.799413000,-2.946050000,0.776797510,1.481120000,,,,,
1749762458.240432,,,,,,,,,,,,,,,,,,1749762458.240432024,0.250000000,0.000000000,0.000000000,0.000000000
1749762458.241776,-0.331468000,-0.053885800,0.040785800,0.025214100,-0.004300650,-0.027654000,-0.002238510,-0.018728200,1749762458.241775990,0.335621535,-0.011528214,-0.041500500,0.196119189,-0.800048000,-2.946100000,0.776747293,1.481630000,,,,,
1749762458.251883,-0.332660000,-0.054599600,0.041301600,0.024202700,-0.004378600,-0.026287200,-0.004716400,-0.018623000,1749762458.251883030,0.336933664,-0.010931522,-0.044988200,0.199370197,-0.800691000,-2.946480000,0.776776377,1.482110000,,,,,
1749762458.261774,-0.334009000,-0.055389600,0.041953000,0.023360900,-0.004736520,-0.026941400,-0.007099930,-0.018503300,1749762458.261774063,0.338414371,-0.010282687,-0.048510800,0.202643205,-0.801351000,-2.946880000,0.776822022,1.482620000,,,,,
1749762458.265613,,,,,,,,,,,,,,,,,,1749762458.265613079,0.250000000,0.000000000,0.000000000,0.000000000
1749762458.270691,,,,,,,,,,,,,,,,,,1749762458.270690918,0.250000000,0.000000000,0.000000000,0.000000000
1749762458.271758,-0.334956000,-0.056214200,0.042681700,0.022302900,-0.005380570,-0.029520000,-0.007179470,-0.018423400,1749762458.271758080,0.339503794,-0.009629739,-0.051988600,0.206123549,-0.802025000,-2.946960000,0.776826877,1.483150000,,,,,
1749762458.281727,-0.336059000,-0.056953500,0.043269200,0.021932700,-0.005382540,-0.027501700,-0.006364060,-0.018254100,1749762458.281727076,0.340728497,-0.009134761,-0.055498400,0.209735502,-0.802695000,-2.946910000,0.776794924,1.483660000,,,,,
1749762458.291752,-0.337270000,-0.057753600,0.043888600,0.022293700,-0.005600730,-0.027110600,-0.006668100,-0.017982400,1749762458.291752100,0.342072346,-0.008546422,-0.059034900,0.213252264,-0.803380000,-2.947020000,0.776806292,1.484180000,,,,,
1749762458.301815,,,,,,,,,,,,,,,,,,1749762458.301815033,0.250000000,0.000000000,0.000000000,0.000000000
1749762458.301819,-0.338118000,-0.058513400,0.044411700,0.021811700,-0.006024600,-0.028162100,-0.007168680,-0.017829500,1749762458.301819086,0.343052362,-0.007916890,-0.062530800,0.216706466,-0.804068000,-2.947160000,0.776835734,1.484690000,,,,,
1749762458.311742,-0.339349000,-0.059344600,0.044878700,0.019287500,-0.006145350,-0.027054800,-0.007565880,-0.017978100,1749762458.311742067,0.344421714,-0.007294419,-0.066090800,0.220234801,-0.804774000,-2.947290000,0.776869241,1.485210000,,,,,
1749762458.315990,,,,,,,,,,,,,,,,,,1749762458.315989971,0.250000000,0.000000000,0.000000000,0.000000000
1749762458.321597,-0.340762000,-0.060045000,0.045249100,0.017502800,-0.006719290,-0.029143000,-0.007895520,-0.018044500,1749762458.321597099,0.345944183,-0.006838511,-0.069689600,0.223806849,-0.805469000,-2.947410000,0.776883160,1.485710000,,,,,
1749762458.331780,-0.341559000,-0.060674200,0.045480200,0.017654200,-0.007179490,-0.030304700,-0.006502010,-0.017847500,1749762458.331779957,0.346846849,-0.006416551,-0.073212900,0.227490687,-0.806161000,-2.947290000,0.776854989,1.486200000,,,,,
1749762458.332086,,,,,,,,,,,,,,,,,,1749762458.332086086,0.250000000,0.000000000,0.000000000,0.000000000
1749762458.341820,-0.342582000,-0.061212100,0.045818400,0.018284600,-0.007271280,-0.028850600,-0.005408870,-0.017579300,1749762458.341820002,0.347953909,-0.006117612,-0.076777200,0.231190092,-0.806846000,-2.947200000,0.776818092,1.486700000,,,,,
1749762458.351723,-0.343360000,-0.061745700,0.046149700,0.017121200,-0.007495450,-0.028407700,-0.003090670,-0.017565500,1749762458.351722956,0.348818651,-0.005845506,-0.080316000,0.235020792,-0.807536000,-2.946910000,0.776743380,1.487210000,,,,,
1749762458.361625,-0.344024000,-0.062213700,0.046453400,0.016909000,-0.007964080,-0.029678100,-0.002691580,-0.017425100,1749762458.361624956,0.349560534,-0.005521793,-0.083846100,0.238632257,-0.808221000,-2.946890000,0.776727751,1.487710000,,,,,
1749762458.362233,,,,,,,,,,,,,,,,,,1749762458.362232924,0.250000000,0.000000000,0.000000000,0.000000000
1749762458.365346,,,,,,,,,,,,,,,,,,1749762458.365345955,0.250000000,0.000000000,0.000000000,0.000000000
1749762458.371732,-0.344679000,-0.062703200,0.046650600,0.016424800,-0.007921390,-0.027341400,-0.002921170,-0.017326400,1749762458.371731997,0.350298173,-0.005147250,-0.087381500,0.242188331,-0.808914000,-2.946950000,0.776738179,1.488200000,,,,,
1749762458.381831,-0.342198000,-0.062574400,0.046409400,0.015857400,-0.007863830,-0.025063300,-0.003095340,-0.017244600,1749762458.381830931,0.347839350,-0.004776361,-0.090467800,0.245295305,-0.809523000,-2.947000000,0.776751005,1.488640000,,,,,
1749762458.391701,-0.343497000,-0.063207700,0.046584500,0.015654500,-0.008438400,-0.027293000,-0.003119070,-0.017115500,1749762458.391700983,0.349236424,-0.004395720,-0.094078500,0.248953393,-0.810241000,-2.947030000,0.776764733,1.489130000,,,,,
1749762458.393111,,,,,,,,,,,,,,,,,,1749762458.393110991,0.250000000,0.000000000,0.000000000,0.000000000
1749762458.401739,-0.344525000,-0.063799400,0.046722700,0.015890900,-0.008708240,-0.027271700,-0.006546510,-0.016924600,1749762458.401738882,0.350361504,-0.003828244,-0.097662900,0.252197253,-0.810959000,-2.947560000,0.776909961,1.489610000,,,,,
1749762458.411777,-0.342371000,-0.063750000,0.046429400,0.015956100,-0.008943180,-0.027011700,-0.009475020,-0.016756200,1749762458.411777020,0.348240054,-0.003290751,-0.100795000,0.255011329,-0.811589000,-2.948050000,0.777049264,1.490040000,,,,,
1749762458.415290,,,,,,,,,,,,,,,,,,1749762458.415290117,0.250000000,0.000000000,0.000000000,0.000000000
1749762458.421499,-0.343665000,-0.064445700,0.046577600,0.015699400,-0.009189610,-0.026848700,-0.008012540,-0.016633900,1749762458.421499014,0.349643386,-0.002895384,-0.104407000,0.258783504,-0.812328000,-2.947940000,0.777051285,1.490520000,,,,,
1749762458.422666,,,,,,,,,,,,,,,,,,1749762458.422666073,0.250000000,0.000000000,0.000000000,0.000000000
1749762458.431726,-0.345024000,-0.065157400,0.046567700,0.016302800,-0.009221160,-0.025217800,-0.008761090,-0.016389300,1749762458.431725979,0.351114407,-0.002391808,-0.108041000,0.262345874,-0.813076000,-2.948130000,0.777135819,1.490990000,,,,,
1749762458.441841,-0.343152000,-0.065200500,0.046146700,0.016684200,-0.009234450,-0.023573500,-0.009335750,-0.016170800,1749762458.441840887,0.349285950,-0.001930226,-0.111219000,0.265458969,-0.813734000,-2.948300000,0.777215687,1.491390000,,,,,
1749762458.451702,-0.345040000,-0.065963900,0.046100300,0.015476800,-0.009661320,-0.024889100,-0.007695250,-0.016179400,1749762458.451702118,0.351285196,-0.001596404,-0.114925000,0.269359103,-0.814497000,-2.948150000,0.777212192,1.491850000,,,,,
1749762458.453026,,,,,,,,,,,,,,,,,,1749762458.453026056,0.250000000,0.000000000,0.000000000,0.000000000
1749762458.461617,-0.346679000,-0.066534500,0.046173200,0.016748800,-0.010291300,-0.027511900,-0.007500370,-0.015839800,1749762458.461616993,0.353003385,-0.001333876,-0.118614000,0.273083076,-0.815239000,-2.948200000,0.777244840,1.492320000,,,,,
1749762458.465189,,,,,,,,,,,,,,,,,,1749762458.465188980,0.250000000,0.000000000,0.000000000,0.000000000
1749762458.471737,-0.345037000,-0.066442500,0.045827800,0.017708700,-0.010863000,-0.029553600,-0.007264150,-0.015532900,1749762458.471736908,0.351374358,-0.001094531,-0.121842000,0.276345116,-0.815891000,-2.948240000,0.777275353,1.492730000,,,,,
1749762458.481727,-0.346620000,-0.067093500,0.045668600,0.016806300,-0.010746100,-0.026714600,-0.004607980,-0.015486900,1749762458.481726885,0.353052696,-0.000869282,-0.125522000,0.280343337,-0.816650000,-2.947930000,0.777226227,1.493160000,,,,,
1749762458.483626,,,,,,,,,,,,,,,,,,1749762458.483625889,0.250000000,0.000000000,0.000000000,0.000000000
1749762458.491771,-0.348141000,-0.067727000,0.045624000,0.017603700,-0.010859100,-0.025653600,-0.004274600,-0.015203000,1749762458.491770983,0.354667183,-0.000540347,-0.129209000,0.284108254,-0.817413000,-2.947930000,0.777265385,1.493610000,,,,,
