__time,filtered_pose/dx,filtered_pose/dy,filtered_pose/dz,filtered_pose/p,filtered_pose/pitch,filtered_pose/q,filtered_pose/r,filtered_pose/roll,filtered_pose/timestamp,filtered_pose/vxb,filtered_pose/vyb,filtered_pose/x,filtered_pose/xb,filtered_pose/y,filtered_pose/yaw,filtered_pose/yb,filtered_pose/z,u_control/timestamp,u_control/ux,u_control/uy,u_control/uyaw,u_control/uz
1749762490.802205,-0.014852200,0.034974100,0.015777300,0.018215500,-0.006370980,0.009146950,0.043937300,-0.005117680,1749762490.802205086,-0.035650215,-0.013146774,-1.081410000,0.948335433,-1.001700000,-1.522510000,-1.128499174,1.544910000,,,,,
1749762490.812152,-0.014775600,0.034608200,0.014925100,0.018623300,-0.006124070,0.010216900,0.036606400,-0.004876290,1749762490.812151909,-0.035272923,-0.013109796,-1.081550000,0.948728590,-1.001400000,-1.523130000,-1.128036535,1.544950000,,,,,
1749762490.822168,-0.014751900,0.034302200,0.013897900,0.018337400,-0.005904250,0.011026700,0.030984300,-0.004731590,1749762490.822168112,-0.034960243,-0.013116437,-1.081690000,0.948929837,-1.001100000,-1.523580000,-1.127735178,1.544950000,,,,,
1749762490.832150,-0.014614900,0.034041200,0.012770100,0.015273400,-0.005888970,0.010372900,0.027096400,-0.004993360,1749762490.832149982,-0.034689688,-0.013000928,-1.081820000,0.948917244,-1.000800000,-1.523840000,-1.127604193,1.544920000,,,,,
1749762490.842089,-0.014622300,0.033714400,0.011677500,0.012360800,-0.005882210,0.009705430,0.022806900,-0.005263780,1749762490.842088938,-0.034359035,-0.013035686,-1.081960000,0.949005651,-1.000500000,-1.524190000,-1.127397874,1.544890000,,,,,
1749762490.851899,-0.014861700,0.033267200,0.010613200,0.009368480,-0.006071630,0.007733590,0.018732800,-0.005574890,1749762490.851898909,-0.033918686,-0.013307873,-1.082150000,0.949132958,-1.000230000,-1.524550000,-1.127233474,1.544850000,,,,,
1749762490.862189,-0.014998200,0.032777400,0.009728680,0.006986040,-0.006311630,0.005549290,0.013021800,-0.005827330,1749762490.862189054,-0.033426959,-0.013488601,-1.082310000,0.949599435,-0.999971000,-1.525200000,-1.126764327,1.544830000,,,,,
1749762490.872076,-0.015004300,0.032252400,0.008836690,0.006059990,-0.006550700,0.003521790,0.007024060,-0.005892010,1749762490.872076035,-0.032892770,-0.013542968,-1.082460000,0.950175507,-0.999720000,-1.525940000,-1.126199909,1.544800000,,,,,
1749762490.882202,-0.015016500,0.031745200,0.007915640,0.006313400,-0.006842160,0.001273210,-0.000249819,-0.005794600,1749762490.882201910,-0.032373306,-0.013609632,-1.082620000,0.951022948,-0.999471000,-1.526920000,-1.125417121,1.544750000,,,,,
1749762490.891801,-0.015039600,0.031351200,0.007026520,0.005654450,-0.007021350,-0.000047803,-0.005410070,-0.005827200,1749762490.891801119,-0.031970315,-0.013674293,-1.082770000,0.951611767,-0.999211000,-1.527680000,-1.124832672,1.544700000,,,,,
1749762490.902208,-0.015144100,0.030929800,0.006164980,0.005709550,-0.007103720,-0.000611494,-0.008222420,-0.005762650,1749762490.902208090,-0.031547461,-0.013811373,-1.082940000,0.951869070,-0.998958000,-1.528140000,-1.124553869,1.544650000,,,,,
1749762490.912078,-0.015549000,0.030466400,0.005327370,0.005766330,-0.007269300,-0.001709120,-0.009244940,-0.005697300,1749762490.912077904,-0.031098474,-0.014242818,-1.083150000,0.951877003,-0.998716000,-1.528370000,-1.124534456,1.544590000,,,,,
1749762490.922421,-0.015843700,0.029997300,0.004587090,0.006144460,-0.007182100,-0.000991247,-0.012849000,-0.005584700,1749762490.922420979,-0.030633409,-0.014575838,-1.083340000,0.952319055,-0.998480000,-1.528980000,-1.124133570,1.544540000,,,,,
1749762490.932149,-0.016216000,0.029495500,0.003854990,0.006137090,-0.007150050,-0.000702471,-0.014266600,-0.005524330,1749762490.932148933,-0.030142521,-0.014979040,-1.083560000,0.952465279,-0.998253000,-1.529320000,-1.124020115,1.544480000,,,,,
1749762490.942360,-0.016433300,0.028954500,0.003071550,0.003768300,-0.006938540,0.000801787,-0.016001300,-0.005807100,1749762490.942359924,-0.029605059,-0.015230132,-1.083750000,0.952678953,-0.998036000,-1.529710000,-1.123829494,1.544400000,,,,,
1749762490.951829,-0.016713500,0.028401800,0.002293840,0.001618780,-0.006775450,0.001869140,-0.019309900,-0.006081700,1749762490.951828957,-0.029054387,-0.015551396,-1.083960000,0.953180688,-0.997827000,-1.530350000,-1.123420927,1.544320000,,,,,
1749762490.962009,-0.016857600,0.027869900,0.001541290,-0.000471505,-0.006600080,0.002947620,-0.022038100,-0.006369200,1749762490.962008953,-0.028519471,-0.015733715,-1.084140000,0.953629333,-0.997620000,-1.530940000,-1.123029964,1.544230000,,,,,
1749762490.972042,-0.016821100,0.027318400,0.000789142,-0.001765250,-0.006185720,0.005596840,-0.025143100,-0.006561870,1749762490.972042084,-0.027956259,-0.015738232,-1.084310000,0.954188266,-0.997422000,-1.531620000,-1.122543351,1.544140000,,,,,
1749762490.982099,-0.016738300,0.026718200,-0.000062082,-0.002788080,-0.005746180,0.008236980,-0.025245600,-0.006728120,1749762490.982099056,-0.027349199,-0.015686115,-1.084460000,0.954288400,-0.997236000,-1.531880000,-1.122437874,1.544020000,,,,,
1749762490.991870,-0.016517800,0.025958600,-0.000803242,-0.003654630,-0.005340200,0.010464500,-0.025111400,-0.006881900,1749762490.991869926,-0.026578031,-0.015501449,-1.084600000,0.954384238,-0.997079000,-1.532110000,-1.122352181,1.543910000,,,,,
1749762491.001876,-0.016615000,0.025493300,-0.001659930,-0.004588400,-0.005060050,0.011672500,-0.025751300,-0.007054100,1749762491.001876116,-0.026111371,-0.015625712,-1.084780000,0.954578245,-0.996887000,-1.532460000,-1.122190587,1.543780000,,,,,
1749762491.012141,-0.016316500,0.025068900,-0.002657090,-0.005654350,-0.004406910,0.015364700,-0.024093800,-0.007254850,1749762491.012140989,-0.025675535,-0.015344211,-1.084900000,0.954403234,-0.996694000,-1.532480000,-1.122284013,1.543620000,,,,,
1749762491.022319,-0.015911900,0.024477200,-0.003502440,-0.006533090,-0.003805630,0.018445800,-0.022436200,-0.007439060,1749762491.022319078,-0.025068771,-0.014962574,-1.085000000,0.954234524,-0.996529000,-1.532480000,-1.122377619,1.543470000,,,,,
1749762491.031821,-0.015697700,0.024282800,-0.004554690,-0.007938770,-0.003136930,0.021779000,-0.019634000,-0.007708610,1749762491.031821012,-0.024869111,-0.014751253,-1.085130000,0.953799412,-0.996312000,-1.532290000,-1.122680454,1.543280000,,,,,
1749762491.042184,-0.015506400,0.023959900,-0.005579020,-0.007532220,-0.002471420,0.024860700,-0.016884700,-0.007728930,1749762491.042184114,-0.024542000,-0.014567618,-1.085260000,0.953374972,-0.996117000,-1.532090000,-1.122993548,1.543090000,,,,,
1749762491.052123,-0.015202400,0.023466400,-0.006422160,-0.007111270,-0.001864680,0.027325800,-0.014339500,-0.007743100,1749762491.052123070,-0.024039962,-0.014278134,-1.085370000,0.952978203,-0.995949000,-1.531890000,-1.123287582,1.542910000,,,,,
1749762491.062106,-0.015403700,0.022983100,-0.007614910,-0.004817050,-0.001034490,0.031159300,-0.013145000,-0.007480900,1749762491.062105894,-0.023565293,-0.014497374,-1.085550000,0.952772622,-0.995784000,-1.531860000,-1.123489612,1.542670000,,,,,
1749762491.072316,-0.015759700,0.022516800,-0.008817850,-0.003789020,-0.000582549,0.032125300,-0.012656000,-0.007379720,1749762491.072315931,-0.023112311,-0.014872642,-1.085760000,0.952669990,-0.995622000,-1.531920000,-1.123635989,1.542420000,,,,,
1749762491.081996,-0.016072400,0.021937000,-0.009883380,-0.002571260,-0.000299351,0.031863400,-0.012777100,-0.007240690,1749762491.081995964,-0.022542974,-0.015210797,-1.085960000,0.952678650,-0.995481000,-1.532060000,-1.123696993,1.542180000,,,,,
1749762491.092211,-0.016424900,0.021415800,-0.010943000,-0.000867755,0.000027099,0.031917200,-0.011511700,-0.007018910,1749762491.092211008,-0.022036595,-0.015582115,-1.086180000,0.952471041,-0.995338000,-1.532010000,-1.123958915,1.541930000,,,,,
1749762491.102184,-0.016775300,0.020868800,-0.011948700,0.001054790,0.000350937,0.031949300,-0.010352200,-0.006748280,1749762491.102184057,-0.021504551,-0.015952172,-1.086390000,0.952260548,-0.995203000,-1.531950000,-1.124220660,1.541670000,,,,,
1749762491.112121,-0.017119000,0.020404700,-0.012939800,0.001598050,0.000525498,0.030951700,-0.007822670,-0.006658810,1749762491.112121105,-0.021058390,-0.016308162,-1.086610000,0.951818725,-0.995062000,-1.531690000,-1.124682529,1.541410000,,,,,
1749762491.122126,-0.017528900,0.019887100,-0.013976600,0.001097100,0.000374110,0.027779200,-0.005293010,-0.006715600,1749762491.122126102,-0.020562065,-0.016732023,-1.086840000,0.951354568,-0.994933000,-1.531400000,-1.125183250,1.541130000,,,,,
1749762491.131874,-0.017803900,0.019294500,-0.015014800,-0.001308520,-0.000030840,0.023079800,-0.002315020,-0.007054130,1749762491.131874084,-0.019987226,-0.017022556,-1.087050000,0.950805668,-0.994820000,-1.531020000,-1.125750024,1.540840000,,,,,
1749762491.142171,-0.018103700,0.018660300,-0.015881900,-0.004632680,-0.000539660,0.017988900,0.001046500,-0.007550150,1749762491.142170906,-0.019373427,-0.017338428,-1.087280000,0.950177553,-0.994719000,-1.530560000,-1.126413026,1.540560000,,,,,
1749762491.152100,-0.018403300,0.018032100,-0.016702300,-0.005696650,-0.000886537,0.014363100,0.003460880,-0.007751060,1749762491.152100086,-0.018764321,-0.017656114,-1.087500000,0.949656862,-0.994624000,-1.530190000,-1.126980477,1.540280000,,,,,
1749762491.162163,-0.018684100,0.017436500,-0.017483600,-0.004743000,-0.001258940,0.010811100,0.006128350,-0.007669470,1749762491.162163019,-0.018188153,-0.017953223,-1.087720000,0.949080502,-0.994530000,-1.529770000,-1.127595193,1.540000000,,,,,
1749762491.172081,-0.019121700,0.016761000,-0.018243300,-0.002630760,-0.001497350,0.008425930,0.006546860,-0.007410030,1749762491.172080994,-0.017533379,-0.018416057,-1.087980000,0.948858553,-0.994454000,-1.529650000,-1.127965728,1.539720000,,,,,
1749762491.182066,-0.019534200,0.016113000,-0.019054300,-0.002134140,-0.001624110,0.006973460,0.005661090,-0.007364190,1749762491.182065964,-0.016901765,-0.018855877,-1.088230000,0.948842023,-0.994380000,-1.529710000,-1.128155544,1.539420000,,,,,
1749762491.192114,-0.019703400,0.015575600,-0.019974200,-0.001838590,-0.001629430,0.006456850,0.006896850,-0.007342590,1749762491.192114115,-0.016376148,-0.019043242,-1.088450000,0.948490506,-0.994297000,-1.529480000,-1.128590132,1.539090000,,,,,
1749762491.194226,,,,,,,,,,,,,,,,,,1749762491.194226027,0.000000000,-0.250000000,0.000000000,0.000000000
1749762491.202154,-0.019713600,0.014991900,-0.020949200,-0.001659570,-0.001353870,0.007909140,0.007156970,-0.007334970,1749762491.202153921,-0.015795466,-0.019075805,-1.088640000,0.948287548,-0.994226000,-1.529370000,-1.128881356,1.538750000,,,,,
1749762491.211906,-0.019526100,0.014470000,-0.021975200,-0.000399153,-0.000830301,0.010968600,0.007244300,-0.007168450,1749762491.211905956,-0.015267762,-0.018908859,-1.088810000,0.948116244,-0.994152000,-1.529290000,-1.129123998,1.538390000,,,,,
1749762491.222017,-0.019306200,0.013946900,-0.022925800,0.000989782,-0.000135898,0.014993300,0.006640410,-0.006970660,1749762491.222017050,-0.014735800,-0.018711001,-1.088980000,0.948052541,-0.994084000,-1.529300000,-1.129281550,1.538030000,,,,,
1749762491.232040,-0.019044600,0.013442400,-0.023890700,0.002664430,0.000666265,0.019482700,0.005325850,-0.006717460,1749762491.232039928,-0.014218481,-0.018472404,-1.089130000,0.948126194,-0.994017000,-1.529430000,-1.129305394,1.537660000,,,,,
1749762491.242053,-0.018709400,0.012978800,-0.024841100,0.005690430,0.001525580,0.024056400,0.004883060,-0.006251190,1749762491.242053032,-0.013741234,-0.018156800,-1.089270000,0.948064756,-0.993950000,-1.529440000,-1.129433023,1.537290000,,,,,
1749762491.246509,,,,,,,,,,,,,,,,,,1749762491.246509075,0.000000000,-0.250000000,0.000000000,0.000000000
1749762491.252099,-0.018293200,0.012445500,-0.025756500,0.008970640,0.002759980,0.030897200,0.004189680,-0.005717730,1749762491.252099037,-0.013190294,-0.017763664,-1.089400000,0.948063903,-0.993898000,-1.529490000,-1.129513360,1.536910000,,,,,
1749762491.262050,-0.017967700,0.011926400,-0.026710400,0.013714800,0.004082470,0.037873400,0.003720270,-0.004938780,1749762491.262049913,-0.012657672,-0.017460258,-1.089540000,0.948043052,-0.993849000,-1.529520000,-1.129622777,1.536510000,,,,,
1749762491.272027,-0.017796100,0.011393700,-0.027610900,0.019201800,0.005600760,0.045717100,0.002372890,-0.004004480,1749762491.272027016,-0.012115748,-0.017312603,-1.089690000,0.948164353,-0.993807000,-1.529670000,-1.129628704,1.536110000,,,,,
1749762491.282126,-0.017547300,0.010837500,-0.028264100,0.025461000,0.007129160,0.053090600,0.000140611,-0.002903120,1749762491.282125950,-0.011544662,-0.017090346,-1.089830000,0.948464513,-0.993774000,-1.529970000,-1.129482740,1.535740000,,,,,
1749762491.292041,-0.017237000,0.010256000,-0.028889700,0.029883100,0.008311620,0.057575400,-0.004780340,-0.002006050,1749762491.292041063,-0.010938880,-0.016811919,-1.089960000,0.949248301,-0.993750000,-1.530690000,-1.128928486,1.535370000,,,,,
1749762491.298734,,,,,,,,,,,,,,,,,,1749762491.298733950,0.000000000,-0.250000000,0.000000000,0.000000000
1749762491.302130,-0.016965100,0.009529660,-0.029573000,0.032078300,0.009068780,0.058824000,-0.010936400,-0.001388290,1749762491.302129984,-0.010186642,-0.016578943,-1.090100000,0.950306590,-0.993753000,-1.531630000,-1.128175704,1.534980000,,,,,
1749762491.312189,-0.016927400,0.008643330,-0.030212600,0.031834400,0.009431030,0.057268500,-0.016189500,-0.001102950,1749762491.312189102,-0.009285091,-0.016584062,-1.090260000,0.951314593,-0.993786000,-1.532500000,-1.127509657,1.534590000,,,,,
1749762491.322107,-0.017194300,0.007787580,-0.030747200,0.031005000,0.009461650,0.053537400,-0.018017500,-0.000905097,1749762491.322107077,-0.008432927,-0.016887158,-1.090470000,0.951829357,-0.993824000,-1.532930000,-1.127311775,1.534210000,,,,,
1749762491.332090,-0.017493700,0.006947520,-0.031081300,0.029609000,0.009163650,0.047801100,-0.017435900,-0.000797866,1749762491.332089901,-0.007603082,-0.017218906,-1.090680000,0.951979123,-0.993869000,-1.533030000,-1.127428136,1.533850000,,,,,
1749762491.342159,-0.017836200,0.006067240,-0.031292100,0.027954000,0.008499390,0.039938700,-0.018188800,-0.000742212,1749762491.342159033,-0.006731435,-0.017596284,-1.090910000,0.952344105,-0.993927000,-1.533310000,-1.127393550,1.533510000,,,,,
1749762491.350933,,,,,,,,,,,,,,,,,,1749762491.350933075,0.000000000,-0.250000000,0.000000000,0.000000000
1749762491.351904,-0.018224300,0.005112300,-0.031292300,0.024131600,0.007753210,0.032053600,-0.019363000,-0.001018010,1749762491.351903915,-0.005785403,-0.018021926,-1.091140000,0.952808041,-0.994005000,-1.533660000,-1.127292898,1.533200000,,,,,
1749762491.362131,-0.018486800,0.004110070,-0.031151500,0.018365000,0.007029980,0.024869100,-0.020485500,-0.001614470,1749762491.362131119,-0.004787014,-0.018323181,-1.091360000,0.953300651,-0.994100000,-1.534020000,-1.127173158,1.532910000,,,,,
1749762491.372254,-0.018664300,0.003121000,-0.030940500,0.009435870,0.006211840,0.017525900,-0.020534200,-0.002728060,1749762491.372253895,-0.003801247,-0.018537725,-1.091580000,0.953631226,-0.994202000,-1.534230000,-1.127196522,1.532630000,,,,,
1749762491.382195,-0.018757800,0.002059880,-0.030754500,-0.002467460,0.005353230,0.010409600,-0.021005000,-0.004363040,1749762491.382194996,-0.002739213,-0.018670696,-1.091780000,0.954051195,-0.994325000,-1.534500000,-1.127143332,1.532340000,,,,,
1749762491.392138,-0.018805500,0.001047420,-0.030455800,-0.015885000,0.004312140,0.002527140,-0.020791100,-0.006337040,1749762491.392138004,-0.001725775,-0.018755416,-1.091970000,0.954374122,-0.994452000,-1.534680000,-1.127166046,1.532080000,,,,,
1749762491.401821,-0.018857300,0.000066745,-0.030169600,-0.030365400,0.003263050,-0.004867840,-0.019449100,-0.008599630,1749762491.401820898,-0.000747233,-0.018842608,-1.092170000,0.954521362,-0.994584000,-1.534700000,-1.127351592,1.531820000,,,,,
1749762491.403065,,,,,,,,,,,,,,,,,,1749762491.403064966,0.000000000,-0.250000000,0.000000000,0.000000000
1749762491.411986,-0.018802800,-0.000896773,-0.029782200,-0.044186800,0.002384750,-0.010578300,-0.017757200,-0.010911300,1749762491.411986113,0.000216683,-0.018822926,-1.092350000,0.954597397,-0.994723000,-1.534650000,-1.127584222,1.531570000,,,,,
1749762491.422151,-0.018655800,-0.001834060,-0.029278200,-0.057610900,0.001671370,-0.014760500,-0.015283600,-0.013303400,1749762491.422151089,0.001155115,-0.018710114,-1.092510000,0.954522231,-0.994868000,-1.534460000,-1.127930738,1.531350000,,,,,
1749762491.432034,-0.018580000,-0.002839100,-0.028643300,-0.069608400,0.001096180,-0.017703700,-0.012757600,-0.015622600,1749762491.432034016,0.002158325,-0.018671329,-1.092690000,0.954442658,-0.995032000,-1.534250000,-1.128317034,1.531150000,,,,,
1749762491.442049,-0.018664800,-0.003914880,-0.027812500,-0.078152200,0.000771544,-0.018719600,-0.011996300,-0.017559900,1749762491.442049026,0.003230664,-0.018795315,-1.092890000,0.954642797,-0.995217000,-1.534270000,-1.128504568,1.530980000,,,,,
1749762491.451835,-0.018623200,-0.005035410,-0.026943200,-0.086156000,0.000847961,-0.016905100,-0.011186900,-0.019504200,1749762491.451834917,0.004351965,-0.018794662,-1.093070000,0.954838089,-0.995419000,-1.534270000,-1.128691824,1.530830000,,,,,
1749762491.454206,,,,,,,,,,,,,,,,,,1749762491.454205990,0.000000000,-0.250000000,0.000000000,0.000000000
1749762491.462094,-0.018405200,-0.006141070,-0.026015100,-0.093521200,0.001223660,-0.013155400,-0.011816000,-0.021435800,1749762491.462094069,0.005468572,-0.018616091,-1.093220000,0.955269221,-0.995630000,-1.534470000,-1.128658398,1.530690000,,,,,
1749762491.472137,-0.018118100,-0.007140930,-0.025117500,-0.102441000,0.001616260,-0.009547660,-0.012369400,-0.023666900,1749762491.472136974,0.006481873,-0.018364198,-1.093360000,0.955696742,-0.995837000,-1.534670000,-1.128614707,1.530560000,,,,,
1749762491.482198,-0.017796200,-0.008131800,-0.024283700,-0.112349000,0.001858150,-0.007225490,-0.012432400,-0.026130800,1749762491.482198000,0.007486073,-0.018077323,-1.093500000,0.956053276,-0.996052000,-1.534800000,-1.128638104,1.530430000,,,,,
1749762491.491763,-0.017328200,-0.009097750,-0.023350000,-0.122242000,0.002173330,-0.004558720,-0.011566600,-0.028691600,1749762491.491763115,0.008468240,-0.017644390,-1.093610000,0.956271174,-0.996274000,-1.534800000,-1.128756022,1.530330000,,,,,
1749762491.502037,-0.016484800,-0.010126700,-0.022500700,-0.131066000,0.002526790,-0.001811960,-0.011966800,-0.031196000,1749762491.502037048,0.009529907,-0.016836851,-1.093660000,0.956712390,-0.996514000,-1.534980000,-1.128642437,1.530220000,,,,,
1749762491.506402,,,,,,,,,,,,,,,,,,1749762491.506402016,0.000000000,-0.250000000,0.000000000,0.000000000
1749762491.512075,-0.015536100,-0.011141200,-0.021727900,-0.141033000,0.002471940,-0.002064820,-0.013357600,-0.033954600,1749762491.512074947,0.010582823,-0.015921702,-1.093690000,0.957321285,-0.996763000,-1.535300000,-1.128375049,1.530100000,,,,,
1749762491.522091,-0.014421200,-0.011969500,-0.020937100,-0.150240000,0.002460760,-0.001999670,-0.015906300,-0.036702600,1749762491.522090912,0.011457585,-0.014831173,-1.093680000,0.958117561,-0.996995000,-1.535800000,-1.127894371,1.530000000,,,,,
1749762491.532075,-0.013037700,-0.012614400,-0.020078100,-0.157104000,0.002545520,-0.001278580,-0.017326300,-0.039202200,1749762491.532074928,0.012155481,-0.013466588,-1.093620000,0.958749765,-0.997208000,-1.536170000,-1.127487200,1.529920000,,,,,
1749762491.541819,-0.011601900,-0.013245000,-0.019140300,-0.161456000,0.002561080,-0.001083480,-0.018088600,-0.041405500,1749762491.541819096,0.012838784,-0.012049885,-1.093540000,0.959286043,-0.997426000,-1.536450000,-1.127146239,1.529850000,,,,,
1749762491.552154,-0.010280500,-0.014060500,-0.018238600,-0.165936000,0.002488420,-0.001509020,-0.016056900,-0.043670900,1749762491.552154064,0.013697996,-0.010758775,-1.093470000,0.959415313,-0.997677000,-1.536340000,-1.127190442,1.529790000,,,,,
1749762491.558609,,,,,,,,,,,,,,,,,,1749762491.558609009,0.000000000,-0.250000000,0.000000000,0.000000000
1749762491.562149,-0.009077360,-0.014831500,-0.017306600,-0.170834000,0.002381470,-0.002141280,-0.012546000,-0.046041900,1749762491.562149048,0.014506631,-0.009587988,-1.093400000,0.959275021,-0.997929000,-1.535990000,-1.127464981,1.529750000,,,,,
1749762491.572074,-0.007689780,-0.015584500,-0.016349400,-0.175966000,0.002228430,-0.003047350,-0.008600770,-0.048495800,1749762491.572073936,0.015303758,-0.008234340,-1.093290000,0.959029282,-0.998187000,-1.535540000,-1.127795703,1.529710000,,,,,
1749762491.581950,-0.006072490,-0.016294500,-0.015424400,-0.182133000,0.001911600,-0.005018390,-0.003847220,-0.051151500,1749762491.581949949,0.016066269,-0.006652883,-1.093130000,0.958605719,-0.998446000,-1.534930000,-1.128229891,1.529680000,,,,,
1749762491.592185,-0.004277380,-0.017005100,-0.014486800,-0.186218000,0.001527920,-0.007313860,0.001727440,-0.053566300,1749762491.592185020,0.016837017,-0.004897375,-1.092930000,0.958009845,-0.998712000,-1.534160000,-1.128777560,1.529660000,,,,,
1749762491.602083,-0.002335100,-0.017832000,-0.013494700,-0.190016000,0.001346500,-0.008059190,0.004769120,-0.055980200,1749762491.602082968,0.017733128,-0.002994843,-1.092690000,0.957789208,-0.999002000,-1.533700000,-1.128989046,1.529660000,,,,,
1749762491.610816,,,,,,,,,,,,,,,,,,1749762491.610816002,0.000000000,-0.250000000,0.000000000,0.000000000
1749762491.612168,-0.000252021,-0.018759300,-0.012484700,-0.191680000,0.000989079,-0.009964660,0.009109980,-0.058122100,1749762491.612168074,0.018736408,-0.000960143,-1.092410000,0.957355919,-0.999315000,-1.533030000,-1.129362529,1.529680000,,,,,
1749762491.622105,0.002082890,-0.019475400,-0.011597300,-0.194392000,0.000448487,-0.012999800,0.014353400,-0.060432900,1749762491.622104883,0.019541308,0.001329260,-1.092070000,0.956689225,-0.999607000,-1.532170000,-1.129856967,1.529680000,,,,,
1749762491.631931,0.004694870,-0.020174800,-0.010644200,-0.194821000,-0.000053499,-0.015560200,0.017220100,-0.062439200,1749762491.631931067,0.020343240,0.003900892,-1.091670000,0.956367799,-0.999903000,-1.531610000,-1.130004439,1.529700000,,,,,
1749762491.642247,0.007253010,-0.020834400,-0.009740710,-0.195145000,-0.000786180,-0.019532300,0.019443200,-0.064434400,1749762491.642246962,0.021105701,0.006420886,-1.091250000,0.956127408,-1.000200000,-1.531120000,-1.130065035,1.529730000,,,,,
1749762491.652108,0.009932650,-0.021414600,-0.008873450,-0.192667000,-0.001520920,-0.023245200,0.019989300,-0.066025900,1749762491.652107954,0.021794275,0.009069301,-1.090790000,0.956119095,-1.000490000,-1.530840000,-1.129884658,1.529760000,,,,,
1749762491.662161,0.012769400,-0.021866400,-0.007979010,-0.187495000,-0.002187890,-0.026236100,0.020789300,-0.067201200,1749762491.662161112,0.022362713,0.011878808,-1.090280000,0.956069089,-1.000770000,-1.530530000,-1.129682685,1.529800000,,,,,
1749762491.662999,,,,,,,,,,,,,,,,,,1749762491.662998915,0.000000000,-0.250000000,0.000000000,0.000000000
1749762491.672093,0.015843800,-0.022164400,-0.007195600,-0.181482000,-0.002815520,-0.028750300,0.022970700,-0.068202500,1749762491.672092915,0.022792148,0.014926642,-1.089710000,0.955763245,-1.001040000,-1.530000000,-1.129630729,1.529830000,,,,,
1749762491.682036,0.018948000,-0.022385700,-0.006476600,-0.174474000,-0.003513600,-0.031576400,0.023639900,-0.068999300,1749762491.682035923,0.023145633,0.018011828,-1.089100000,0.955676577,-1.001290000,-1.529680000,-1.129337307,1.529860000,,,,,
1749762491.691968,0.022213600,-0.022633000,-0.005763620,-0.165921000,-0.004237100,-0.034382900,0.023224600,-0.069501400,1749762491.691967964,0.023530783,0.021260267,-1.088430000,0.955760720,-1.001550000,-1.529500000,-1.128850616,1.529900000,,,,,
1749762491.694938,,,,,,,,,,,,,,,,,,1749762491.694937944,0.000000000,-0.250000000,0.000000000,0.000000000
1749762491.702072,0.025514800,-0.022992300,-0.005047190,-0.154344000,-0.004876000,-0.036413900,0.021790900,-0.069478600,1749762491.702071905,0.024026556,0.024543339,-1.087730000,0.956046817,-1.001830000,-1.529480000,-1.128181894,1.529950000,,,,,
1749762491.712095,0.028962300,-0.023234800,-0.004346470,-0.143273000,-0.005130110,-0.035656500,0.020291200,-0.069413600,1749762491.712095022,0.024411247,0.027977880,-1.086970000,0.956337987,-1.002090000,-1.529480000,-1.127433282,1.530000000,,,,,
1749762491.715124,,,,,,,,,,,,,,,,,,1749762491.715123892,0.000000000,-0.250000000,0.000000000,0.000000000
1749762491.721932,0.032775700,-0.023179900,-0.003688120,-0.132054000,-0.005071460,-0.032798600,0.020840400,-0.069216500,1749762491.721931934,0.024523123,0.031783183,-1.086130000,0.956275731,-1.002320000,-1.529190000,-1.126880866,1.530050000,,,,,
1749762491.724824,,,,,,,,,,,,,,,,,,1749762491.724823952,0.000000000,-0.250000000,0.000000000,0.000000000
1749762491.732154,0.037471400,-0.022814300,-0.003239840,-0.118935000,-0.004589600,-0.027224200,0.017378600,-0.068631000,1749762491.732153893,0.024342206,0.036497330,-1.085120000,0.956835306,-1.002500000,-1.529490000,-1.125592227,1.530080000,,,,,
1749762491.742132,0.042082100,-0.022272400,-0.002897820,-0.106416000,-0.003974650,-0.021117500,0.014497800,-0.068001600,1749762491.742131948,0.023981294,0.041132232,-1.084080000,0.957297991,-1.002650000,-1.529730000,-1.124329589,1.530100000,,,,,
1749762491.752077,0.046938400,-0.021662300,-0.002771760,-0.093720400,-0.003322220,-0.015173200,0.013192900,-0.067221300,1749762491.752077103,0.023568782,0.046010664,-1.082950000,0.957530433,-1.002780000,-1.529780000,-1.123158004,1.530090000,,,,,
1749762491.755394,,,,,,,,,,,,,,,,,,1749762491.755393982,0.000000000,-0.250000000,0.000000000,0.000000000
1749762491.762097,0.051920400,-0.020967600,-0.002857580,-0.079861000,-0.003001430,-0.011920800,0.009193210,-0.066145000,1749762491.762096882,0.023055992,0.051027340,-1.081760000,0.958193927,-1.002890000,-1.530230000,-1.121542441,1.530050000,,,,,
1749762491.765565,,,,,,,,,,,,,,,,,,1749762491.765564919,0.000000000,-0.250000000,0.000000000,0.000000000
1749762491.772039,0.056994200,-0.020417700,-0.003145540,-0.065685800,-0.003211450,-0.012545900,0.003260950,-0.064884200,1749762491.772038937,0.022669095,0.056136739,-1.080500000,0.959237258,-1.003020000,-1.531000000,-1.119550470,1.529980000,,,,,
1749762491.782078,0.061809100,-0.020102000,-0.003605900,-0.053792400,-0.003812580,-0.015820000,-0.001961860,-0.063813200,1749762491.782078028,0.022501312,0.060976604,-1.079230000,0.960252578,-1.003180000,-1.531720000,-1.117596749,1.529880000,,,,,
1749762491.786144,,,,,,,,,,,,,,,,,,1749762491.786144018,0.000000000,-0.250000000,0.000000000,0.000000000
1749762491.792015,0.065883000,-0.019833000,-0.004279140,-0.045343500,-0.004830170,-0.021735300,0.000641548,-0.063123600,1749762491.792015076,0.022415090,0.065049837,-1.078020000,0.960057762,-1.003340000,-1.531360000,-1.116739616,1.529740000,,,,,
1749762491.802062,0.070094800,-0.019686400,-0.004801680,-0.038391100,-0.005757280,-0.026620700,-0.000193242,-0.062567000,1749762491.802062035,0.022426347,0.069266834,-1.076750000,0.960421543,-1.003520000,-1.531480000,-1.115362458,1.529630000,,,,,
1749762491.812126,0.074303400,-0.019545300,-0.005065210,-0.033301700,-0.006518200,-0.030025900,-0.000914339,-0.062211500,1749762491.812125921,0.022443432,0.073479973,-1.075440000,0.960764297,-1.003700000,-1.531580000,-1.113964474,1.529540000,,,,,
1749762491.815338,,,,,,,,,,,,,,,,,,1749762491.815337896,0.000000000,-0.250000000,0.000000000,0.000000000
1749762491.815682,,,,,,,,,,,,,,,,,,1749762491.815681934,0.000000000,-0.250000000,0.000000000,0.000000000
1749762491.821891,0.078486400,-0.019286900,-0.005296310,-0.028662200,-0.007005840,-0.031315600,0.000492542,-0.061870500,1749762491.821891069,0.022363987,0.077665640,-1.074090000,0.960765687,-1.003860000,-1.531390000,-1.112804351,1.529450000,,,,,
1749762491.832113,0.082603100,-0.019134800,-0.005387240,-0.023670200,-0.007437430,-0.032130900,0.001219240,-0.061431900,1749762491.832113028,0.022383184,0.081782674,-1.072700000,0.960868053,-1.004030000,-1.531280000,-1.111527830,1.529390000,,,,,
1749762491.842102,0.085458700,-0.018832700,-0.005418760,-0.019110800,-0.007820610,-0.032556700,0.001841640,-0.061006200,1749762491.842102051,0.022202598,0.084645760,-1.071460000,0.960945897,-1.004170000,-1.531180000,-1.110390429,1.529330000,,,,,
1749762491.845695,,,,,,,,,,,,,,,,,,1749762491.845695019,0.000000000,-0.250000000,0.000000000,0.000000000
1749762491.852080,0.089349100,-0.018830700,-0.005316630,-0.016290100,-0.008099790,-0.032237400,0.004198830,-0.060787500,1749762491.852080107,0.022386553,0.088525133,-1.070040000,0.960792694,-1.004360000,-1.530820000,-1.109325025,1.529290000,,,,,
1749762491.862067,0.093034000,-0.018866300,-0.005253400,-0.014741800,-0.008236480,-0.030959300,0.007185570,-0.060725500,1749762491.862066984,0.022613650,0.092194822,-1.068610000,0.960517780,-1.004560000,-1.530340000,-1.108365337,1.529250000,,,,,
1749762491.865895,,,,,,,,,,,,,,,,,,1749762491.865895033,0.000000000,-0.250000000,0.000000000,0.000000000
1749762491.872047,0.095421000,-0.018730200,-0.005151790,-0.013262200,-0.008344440,-0.029571500,0.009724420,-0.060657900,1749762491.872046947,0.022615820,0.094575432,-1.067340000,0.960241796,-1.004720000,-1.529900000,-1.107525461,1.529210000,,,,,
1749762491.875662,,,,,,,,,,,,,,,,,,1749762491.875662088,0.000000000,-0.250000000,0.000000000,0.000000000
1749762491.882130,0.099384000,-0.018609500,-0.004881120,-0.013029800,-0.007981500,-0.025037800,0.013750000,-0.060756800,1749762491.882129908,0.022724250,0.098524623,-1.065810000,0.959721904,-1.004890000,-1.529220000,-1.106656557,1.529200000,,,,,
1749762491.892040,0.103690000,-0.018360000,-0.004781520,-0.012098200,-0.007801900,-0.022078200,0.016588800,-0.060751700,1749762491.892040014,0.022710498,0.102824797,-1.064190000,0.959331189,-1.005040000,-1.528670000,-1.105571991,1.529160000,,,,,
1749762491.902153,0.106524000,-0.017980000,-0.004652390,-0.011179300,-0.007619610,-0.019303800,0.018915400,-0.060739200,1749762491.902153015,0.022504076,0.105660823,-1.062740000,0.958958908,-1.005170000,-1.528160000,-1.104617965,1.529130000,,,,,
1749762491.906602,,,,,,,,,,,,,,,,,,1749762491.906601906,0.000000000,-0.250000000,0.000000000,0.000000000
1749762491.911933,0.111258000,-0.017413500,-0.004859400,-0.011469000,-0.007643850,-0.018141900,0.019422500,-0.060893100,1749762491.911932945,0.022168577,0.110408907,-1.060990000,0.958846629,-1.005270000,-1.527900000,-1.103123155,1.529060000,,,,,
1749762491.915778,,,,,,,,,,,,,,,,,,1749762491.915777922,0.000000000,-0.250000000,0.000000000,0.000000000
1749762491.922084,0.115752000,-0.016692700,-0.005080030,-0.009056620,-0.007883760,-0.018544600,0.016663600,-0.060657300,1749762491.922084093,0.021617022,0.114934225,-1.059220000,0.959223731,-1.005340000,-1.528110000,-1.101156373,1.528980000,,,,,
1749762491.932086,0.118642000,-0.015916800,-0.005227290,-0.006874430,-0.008096320,-0.018731200,0.014112000,-0.060430800,1749762491.932085991,0.020941583,0.117858894,-1.057640000,0.959561007,-1.005390000,-1.528310000,-1.099388055,1.528900000,,,,,
1749762491.937179,,,,,,,,,,,,,,,,,,1749762491.937179089,0.000000000,-0.250000000,0.000000000,0.000000000
1749762491.942111,0.123505000,-0.015060300,-0.005537130,-0.007289530,-0.008382080,-0.019408800,0.015684600,-0.060559900,1749762491.942111015,0.020337822,0.122746367,-1.055750000,0.959275104,-1.005430000,-1.527940000,-1.097856467,1.528810000,,,,,
1749762491.952059,0.128293000,-0.014186600,-0.005769890,-0.004942910,-0.008894070,-0.021597000,0.012576100,-0.060291900,1749762491.952059031,0.019631787,0.127573298,-1.053820000,0.959706509,-1.005450000,-1.528240000,-1.095641233,1.528720000,,,,,
1749762491.961886,0.132717000,-0.013420000,-0.005889310,-0.002986810,-0.009277160,-0.022747300,0.009855850,-0.060057100,1749762491.961885929,0.019018445,0.132031046,-1.051890000,0.960113858,-1.005480000,-1.528510000,-1.093455066,1.528640000,,,,,
1749762491.965340,,,,,,,,,,,,,,,,,,1749762491.965339899,0.000000000,-0.250000000,0.000000000,0.000000000
1749762491.967273,,,,,,,,,,,,,,,,,,1749762491.967272997,0.000000000,-0.250000000,0.000000000,0.000000000
1749762491.972112,0.136829000,-0.012759200,-0.006057330,0.000761799,-0.009688820,-0.024015100,0.006291670,-0.059542400,1749762491.972111940,0.018476236,0.136174892,-1.049970000,0.960682438,-1.005520000,-1.528920000,-1.091144685,1.528560000,,,,,
1749762491.982056,0.141295000,-0.011985400,-0.006063000,0.004723290,-0.009881960,-0.023691500,0.004687380,-0.058959200,1749762491.982055902,0.017864758,0.140672589,-1.047950000,0.960983014,-1.005540000,-1.529100000,-1.088954334,1.528500000,,,,,
1749762491.992018,0.145769000,-0.011153700,-0.006191080,0.005736760,-0.009953830,-0.022555500,0.003162350,-0.058764700,1749762491.992017984,0.017195596,0.145180294,-1.045890000,0.961253642,-1.005540000,-1.529270000,-1.086732727,1.528420000,,,,,
1749762491.998411,,,,,,,,,,,,,,,,,,1749762491.998410940,0.000000000,-0.250000000,0.000000000,0.000000000
1749762492.002129,0.150099000,-0.010280000,-0.006435340,0.005429280,-0.010204400,-0.022727800,0.004801790,-0.058752000,1749762492.002129078,0.016542782,0.149538371,-1.043800000,0.961027535,-1.005520000,-1.529000000,-1.084903216,1.528320000,,,,,
1749762492.012051,0.154293000,-0.009299000,-0.006816460,0.003991170,-0.010272400,-0.021631200,0.008992320,-0.058906700,1749762492.012051105,0.015839367,0.153759278,-1.041690000,0.960360882,-1.005480000,-1.528340000,-1.083427461,1.528200000,,,,,
1749762492.015594,,,,,,,,,,,,,,,,,,1749762492.015594006,0.000000000,-0.250000000,0.000000000,0.000000000
1749762492.022031,0.158302000,-0.008276360,-0.007064540,0.005218270,-0.010094500,-0.018918100,0.013990100,-0.058688500,1749762492.022031069,0.015115624,0.157795878,-1.039570000,0.959514743,-1.005420000,-1.527530000,-1.082084387,1.528100000,,,,,
1749762492.029088,,,,,,,,,,,,,,,,,,1749762492.029088020,0.000000000,-0.250000000,0.000000000,0.000000000
1749762492.032049,0.162512000,-0.007036030,-0.007200520,0.010132500,-0.009517930,-0.013647100,0.013080900,-0.057922400,1749762492.032048941,0.014060170,0.162055446,-1.037370000,0.959509184,-1.005330000,-1.527520000,-1.079892148,1.528010000,,,,,
1749762492.042067,0.166531000,-0.005811900,-0.007187140,0.015202800,-0.008900290,-0.008456440,0.010006400,-0.057084400,1749762492.042067051,0.012957899,0.166127797,-1.035160000,0.959839706,-1.005220000,-1.527840000,-1.077372365,1.527940000,,,,,
1749762492.052073,0.170326000,-0.004728840,-0.007341550,0.014471500,-0.009180080,-0.009800180,0.010597400,-0.057038600,1749762492.052073002,0.012071100,0.169963516,-1.032950000,0.959630405,-1.005120000,-1.527650000,-1.075342458,1.527840000,,,,,
1749762492.059068,,,,,,,,,,,,,,,,,,1749762492.059067965,0.000000000,-0.250000000,0.000000000,0.000000000
1749762492.062058,0.174466000,-0.003460540,-0.007644600,0.014518400,-0.009307760,-0.010004500,0.006313540,-0.056887100,1749762492.062057972,0.010891989,0.174160056,-1.030640000,0.960148018,-1.004980000,-1.528170000,-1.072529438,1.527730000,,,,,
1749762492.065222,,,,,,,,,,,,,,,,,,1749762492.065222025,0.000000000,-0.250000000,0.000000000,0.000000000
1749762492.072049,0.178174000,-0.002367420,-0.007952440,0.014519500,-0.009460040,-0.010364000,0.003307810,-0.056741800,1749762492.072048903,0.009892045,0.177914941,-1.028360000,0.960521211,-1.004860000,-1.528540000,-1.069891075,1.527600000,,,,,
1749762492.082070,0.181659000,-0.001523920,-0.008138000,0.013764000,-0.009499850,-0.009924670,0.001183460,-0.056706300,1749762492.082070112,0.009147530,0.181434940,-1.026070000,0.960806255,-1.004760000,-1.528810000,-1.067339516,1.527500000,,,,,
1749762492.089511,,,,,,,,,,,,,,,,,,1749762492.089510918,0.000000000,-0.250000000,0.000000000,0.000000000
1749762492.092055,0.185603000,-0.000528943,-0.008540630,0.015480800,-0.009121420,-0.006636760,0.003012980,-0.056319300,1749762492.092055082,0.008369038,0.185414974,-1.023680000,0.960489117,-1.004630000,-1.528540000,-1.065205537,1.527360000,,,,,
1749762492.101901,0.189368000,0.000600076,-0.008948840,0.017460600,-0.008385530,-0.001114640,0.003445850,-0.055876800,1749762492.101901054,0.007418997,0.189223566,-1.021280000,0.960324360,-1.004470000,-1.528440000,-1.062896958,1.527210000,,,,,
1749762492.112053,0.192969000,0.001939780,-0.009288310,0.020491200,-0.007556900,0.004665680,0.002683320,-0.055261900,1749762492.112052917,0.006217544,0.192878562,-1.018860000,0.960311845,-1.004270000,-1.528520000,-1.060393838,1.527070000,,,,,
1749762492.115670,,,,,,,,,,,,,,,,,,1749762492.115669966,0.000000000,-0.250000000,0.000000000,0.000000000
1749762492.119730,,,,,,,,,,,,,,,,,,1749762492.119729996,0.000000000,-0.250000000,0.000000000,0.000000000
1749762492.122051,0.196426000,0.003206170,-0.009381080,0.022618200,-0.006754840,0.009865260,0.002626810,-0.054748000,1749762492.122051001,0.005102319,0.196385894,-1.016430000,0.960193566,-1.004070000,-1.528500000,-1.057976761,1.526970000,,,,,
1749762492.132053,0.200009000,0.004467560,-0.009340520,0.027695400,-0.006148250,0.013361400,-0.001220630,-0.053784200,1749762492.132052898,0.003887549,0.200021114,-1.013940000,0.960638318,-1.003850000,-1.529030000,-1.054970695,1.526880000,,,,,
1749762492.142044,0.203540000,0.005741520,-0.009284110,0.033075000,-0.005198760,0.018977300,-0.004614640,-0.052725700,1749762492.142044067,0.002658296,0.203603610,-1.011430000,0.961049948,-1.003620000,-1.529540000,-1.051963282,1.526790000,,,,,
1749762492.150106,,,,,,,,,,,,,,,,,,1749762492.150105953,0.000000000,-0.250000000,0.000000000,0.000000000
1749762492.152050,0.206898000,0.007006580,-0.009187900,0.038320500,-0.003837430,0.027041300,-0.007976390,-0.051632900,1749762492.152050018,0.001423096,0.207011713,-1.008910000,0.961470154,-1.003380000,-1.530070000,-1.048926096,1.526720000,,,,,
1749762492.162040,0.210188000,0.008234010,-0.009290210,0.039803100,-0.002860010,0.031907700,-0.010142000,-0.051034300,1749762492.162039995,0.000246497,0.210349075,-1.006360000,0.961742655,-1.003130000,-1.530470000,-1.045983418,1.526610000,,,,,
1749762492.165259,,,,,,,,,,,,,,,,,,1749762492.165258884,0.000000000,-0.250000000,0.000000000,0.000000000
1749762492.172074,0.213417000,0.009212440,-0.009564280,0.040440100,-0.002326920,0.033380800,-0.010839000,-0.050543700,1749762492.172074080,-0.000643682,0.213614772,-1.003790000,0.961835107,-1.002910000,-1.530670000,-1.043214292,1.526480000,,,,,
1749762492.179993,,,,,,,,,,,,,,,,,,1749762492.179992914,0.000000000,-0.250000000,0.000000000,0.000000000
1749762492.182080,0.216237000,0.010206400,-0.009925300,0.037939400,-0.001830460,0.034500400,-0.008622210,-0.050502600,1749762492.182080030,-0.001478257,0.216472690,-1.001250000,0.961478632,-1.002670000,-1.530460000,-1.040868642,1.526330000,,,,,
1749762492.192315,0.219032000,0.011263500,-0.010230300,0.035927000,-0.001092340,0.037206300,-0.006370060,-0.050415600,1749762492.192315102,-0.002369154,0.219308619,-0.998678000,0.961083336,-1.002420000,-1.530220000,-1.038519343,1.526180000,,,,,
1749762492.201795,0.221978000,0.012363400,-0.010193400,0.036584700,-0.000607216,0.037984500,-0.007349690,-0.049960700,1749762492.201795101,-0.003393102,0.222296138,-0.996060000,0.961116925,-1.002140000,-1.530420000,-1.035699937,1.526090000,,,,,
1749762492.209888,,,,,,,,,,,,,,,,,,1749762492.209887981,0.000000000,-0.250000000,0.000000000,0.000000000
1749762492.212056,0.222580000,0.013212400,-0.010071000,0.036833800,-0.000177724,0.038326200,-0.008138200,-0.049558700,1749762492.212055922,-0.004259468,0.222931112,-0.993753000,0.961166569,-1.001900000,-1.530610000,-1.033202527,1.526000000,,,,,
1749762492.216040,,,,,,,,,,,,,,,,,,1749762492.216039896,0.000000000,-0.250000000,0.000000000,0.000000000
1749762492.222084,0.225251000,0.014079800,-0.010189900,0.032174300,-0.000281137,0.034976300,-0.006037140,-0.049867300,1749762492.222084045,-0.004969219,0.225635903,-0.991139000,0.960785047,-1.001640000,-1.530390000,-1.030791589,1.525890000,,,,,
1749762492.232088,0.228040000,0.014981000,-0.010244600,0.025950800,0.000039206,0.034773800,-0.003458820,-0.050449700,1749762492.232088089,-0.005683913,0.228460861,-0.988481000,0.960293589,-1.001370000,-1.530070000,-1.028432198,1.525780000,,,,,
1749762492.240666,,,,,,,,,,,,,,,,,,1749762492.240665913,0.000000000,-0.250000000,0.000000000,0.000000000
1749762492.242382,0.228450000,0.015633600,-0.010201500,0.020298200,0.000316571,0.034289400,-0.001181590,-0.051011400,1749762492.242382050,-0.006252899,0.228898915,-0.986141000,0.959841465,-1.001120000,-1.529780000,-1.026362357,1.525680000,,,,,
1749762492.251847,0.231373000,0.016502800,-0.010137200,0.020449100,0.001138630,0.037587600,-0.000288409,-0.050786500,1749762492.251847029,-0.006973688,0.231855936,-0.983432000,0.959549938,-1.000840000,-1.529660000,-1.023759308,1.525590000,,,,,
1749762492.262089,0.234487000,0.017357600,-0.010224900,0.016931100,0.001794240,0.039513100,0.003222970,-0.051093100,1749762492.262089014,-0.007579850,0.235006352,-0.980666000,0.958853108,-1.000550000,-1.529150000,-1.021472869,1.525470000,,,,,
1749762492.265877,,,,,,,,,,,,,,,,,,1749762492.265877008,0.000000000,-0.250000000,0.000000000,0.000000000
1749762492.271866,,,,,,,,,,,,,,,,,,1749762492.271866083,0.000000000,-0.250000000,0.000000000,0.000000000
1749762492.272033,0.235125000,0.017948700,-0.010210700,0.013715700,0.002382280,0.040840900,0.006254060,-0.051391000,1749762492.272032976,-0.008033110,0.235672210,-0.978228000,0.958215790,-1.000290000,-1.528680000,-1.019476632,1.525370000,,,,,
1749762492.282067,0.238430000,0.018964200,-0.010093000,0.011572100,0.002134550,0.036324600,0.004558390,-0.051565200,1749762492.282067060,-0.008951579,0.239015428,-0.975397000,0.958193253,-0.999965000,-1.528860000,-1.016462001,1.525290000,,,,,
1749762492.291783,0.241306000,0.019706400,-0.010009300,0.008490830,0.001670360,0.030629200,0.002703280,-0.051897200,1749762492.291783094,-0.009628194,0.241917808,-0.972595000,0.958246100,-0.999667000,-1.529090000,-1.013429601,1.525200000,,,,,
1749762492.302182,0.241675000,0.020178600,-0.009847800,0.005730760,0.001216260,0.025395300,0.001062910,-0.052213300,1749762492.302181959,-0.010135482,0.242304052,-0.970128000,0.958296470,-0.999402000,-1.529300000,-1.010752477,1.525120000,,,,,
1749762492.302420,,,,,,,,,,,,,,,,,,1749762492.302419901,0.000000000,-0.250000000,0.000000000,0.000000000
1749762492.312166,0.245308000,0.021011700,-0.009936860,0.005857430,0.001051720,0.022514700,0.002779850,-0.052137500,1749762492.312165976,-0.010753200,0.245971289,-0.967183000,0.957833860,-0.999079000,-1.529040000,-1.008045684,1.525010000,,,,,
1749762492.315599,,,,,,,,,,,,,,,,,,1749762492.315598965,0.000000000,-0.250000000,0.000000000,0.000000000
1749762492.322062,0.248419000,0.021767600,-0.009845610,0.005883130,0.001237690,0.022245100,0.004067630,-0.052075200,1749762492.322062016,-0.011323770,0.249113629,-0.964278000,0.957414254,-0.998759000,-1.528820000,-1.005340513,1.524920000,,,,,
1749762492.332031,0.251604000,0.022554300,-0.009705190,0.006028630,0.001733750,0.024128400,0.004646330,-0.051995300,1749762492.332031012,-0.011945842,0.252330272,-0.961332000,0.957085879,-0.998427000,-1.528700000,-1.002498034,1.524850000,,,,,
1749762492.332549,,,,,,,,,,,,,,,,,,1749762492.332549095,0.000000000,-0.250000000,0.000000000,0.000000000
1749762492.342057,0.254724000,0.023403800,-0.009526240,0.008031290,0.001782910,0.022806000,0.006470770,-0.051644000,1749762492.342056990,-0.012584088,0.255487171,-0.958362000,0.956552282,-0.998078000,-1.528390000,-0.999812557,1.524780000,,,,,
1749762492.352059,0.257351000,0.023933200,-0.009250900,0.004374650,0.001423340,0.018761200,0.009508360,-0.052095000,1749762492.352058887,-0.012869994,0.258140850,-0.955433000,0.955857203,-0.997767000,-1.527880000,-0.997360623,1.524720000,,,,,
1749762492.362111,0.260078000,0.024353300,-0.008979420,-0.000430431,0.000944895,0.014176600,0.005073990,-0.052749300,1749762492.362111092,-0.013316194,0.260876078,-0.952464000,0.956231624,-0.997467000,-1.528430000,-0.993855709,1.524670000,,,,,
1749762492.363200,,,,,,,,,,,,,,,,,,1749762492.363199949,0.000000000,-0.250000000,0.000000000,0.000000000
1749762492.365350,,,,,,,,,,,,,,,,,,1749762492.365350008,0.000000000,-0.250000000,0.000000000,0.000000000
1749762492.372034,0.262866000,0.024922900,-0.008847250,-0.002997150,0.000473481,0.009956000,0.002617110,-0.053126500,1749762492.372034073,-0.013848943,0.263681421,-0.949458000,0.956339346,-0.997140000,-1.528740000,-0.990542139,1.524600000,,,,,
1749762492.382377,0.265713000,0.025424900,-0.008742830,-0.005023520,0.000357907,0.008475200,0.005864170,-0.053450900,1749762492.382376909,-0.014097524,0.266554092,-0.946415000,0.955651707,-0.996818000,-1.528240000,-0.987966241,1.524520000,,,,,
1749762492.391840,0.268442000,0.025776900,-0.008556800,-0.003478410,0.000849961,0.011278700,0.005551640,-0.053276600,1749762492.391839981,-0.014327719,0.269295883,-0.943362000,0.955457170,-0.996513000,-1.528220000,-0.984922138,1.524460000,,,,,
1749762492.393697,,,,,,,,,,,,,,,,,,1749762492.393697023,0.000000000,-0.250000000,0.000000000,0.000000000
1749762492.402111,0.271066000,0.026242100,-0.008342570,0.000781022,0.001462480,0.014718400,0.004721890,-0.052692600,1749762492.402111053,-0.014699846,0.271936277,-0.940296000,0.955330692,-0.996187000,-1.528290000,-0.981778170,1.524410000,,,,,
1749762492.412215,0.273836000,0.026903000,-0.007980780,0.005294510,0.002230710,0.018993200,0.007196840,-0.052029100,1749762492.412214994,-0.015129801,0.274738085,-0.937183000,0.954703970,-0.995829000,-1.527880000,-0.979044280,1.524380000,,,,,
1749762492.415833,,,,,,,,,,,,,,,,,,1749762492.415832996,0.000000000,-0.250000000,0.000000000,0.000000000
1749762492.422129,0.276449000,0.027418500,-0.007551590,0.010990800,0.003137290,0.023926000,0.003315050,-0.051148600,1749762492.422128916,-0.015668630,0.277363151,-0.934065000,0.954972142,-0.995485000,-1.528370000,-0.975446573,1.524360000,,,,,
1749762492.423846,,,,,,,,,,,,,,,,,,1749762492.423846006,0.000000000,-0.250000000,0.000000000,0.000000000
1749762492.431928,0.279094000,0.028042200,-0.007226860,0.014295000,0.003776770,0.026680800,-0.000901431,-0.050558600,1749762492.431927919,-0.016342001,0.280022793,-0.930916000,0.955304795,-0.995120000,-1.528950000,-0.971731013,1.524330000,,,,,
1749762492.442165,0.281702000,0.028529700,-0.007197140,0.014094000,0.003992730,0.026330800,-0.003189380,-0.050444900,1749762492.442164898,-0.016818897,0.282643035,-0.927747000,0.955425609,-0.994769000,-1.529300000,-0.968215764,1.524260000,,,,,
1749762492.452088,0.284221000,0.028709500,-0.007273140,0.012184800,0.004042230,0.024859200,-0.006271130,-0.050581300,1749762492.452088118,-0.017030921,0.285159184,-0.924564000,0.955710022,-0.994458000,-1.529780000,-0.964563972,1.524180000,,,,,
1749762492.453939,,,,,,,,,,,,,,,,,,1749762492.453938961,0.000000000,-0.250000000,0.000000000,0.000000000
1749762492.462190,0.286407000,0.028775600,-0.007251630,0.013676100,0.003838350,0.021744700,-0.006479480,-0.050242800,1749762492.462189913,-0.017033190,0.287344524,-0.921404000,0.955629369,-0.994161000,-1.529870000,-0.961308449,1.524110000,,,,,
1749762492.466136,,,,,,,,,,,,,,,,,,1749762492.466135979,0.000000000,-0.250000000,0.000000000,0.000000000
1749762492.471787,0.288439000,0.028986100,-0.007090130,0.016684800,0.003809030,0.020046100,-0.006660780,-0.049668900,1749762492.471786976,-0.017186419,0.289381889,-0.918244000,0.955527155,-0.993843000,-1.529960000,-0.958052091,1.524060000,,,,,
1749762492.481846,0.290443000,0.029121800,-0.006867930,0.017521700,0.003929410,0.019495000,-0.006127350,-0.049380500,1749762492.481846094,-0.017237279,0.291389931,-0.915069000,0.955337484,-0.993533000,-1.529950000,-0.954876635,1.524020000,,,,,
1749762492.484044,,,,,,,,,,,,,,,,,,1749762492.484044075,0.000000000,-0.250000000,0.000000000,0.000000000
1749762492.492085,0.292295000,0.029138800,-0.006580460,0.017405100,0.003743520,0.016873600,-0.007292750,-0.049222200,1749762492.492084980,-0.017246083,0.293237121,-0.911896000,0.955392163,-0.993239000,-1.530180000,-0.951474561,1.524000000,,,,,
1749762492.502108,0.294256000,0.029220800,-0.006347810,0.018651100,0.003286340,0.012565300,-0.006732330,-0.048867100,1749762492.502108097,-0.017245437,0.295200006,-0.908688000,0.955210192,-0.992936000,-1.530170000,-0.948266456,1.523960000,,,,,
1749762492.512057,0.296342000,0.029234400,-0.006242260,0.016256600,0.003102640,0.010436000,-0.005427780,-0.049028500,1749762492.512057066,-0.017138628,0.297286896,-0.905442000,0.954934863,-0.992642000,-1.530050000,-0.945125792,1.523920000,,,,,
1749762492.513981,,,,,,,,,,,,,,,,,,1749762492.513981104,0.000000000,-0.250000000,0.000000000,0.000000000
1749762492.515312,,,,,,,,,,,,,,,,,,1749762492.515311956,0.000000000,-0.250000000,0.000000000,0.000000000
1749762492.522094,0.298253000,0.029195300,-0.006053010,0.014686500,0.003168910,0.010173800,-0.005375200,-0.049094000,1749762492.522094011,-0.017036675,0.299193866,-0.902201000,0.954827216,-0.992355000,-1.530100000,-0.941828051,1.523880000,,,,,
1749762492.532076,0.300127000,0.029330300,-0.006044360,0.014967200,0.002665180,0.006006250,-0.004340190,-0.048906400,1749762492.532075882,-0.017065213,0.301073515,-0.898946000,0.954555042,-0.992044000,-1.530000000,-0.938658553,1.523820000,,,,,
1749762492.542067,0.302101000,0.029461900,-0.005886080,0.014524700,0.002151520,0.002057240,-0.005180810,-0.048821000,1749762492.542067051,-0.017164681,0.303048497,-0.895658000,0.954526049,-0.991731000,-1.530160000,-0.935207811,1.523780000,,,,,
1749762492.544491,,,,,,,,,,,,,,,,,,1749762492.544491053,0.000000000,-0.250000000,0.000000000,0.000000000
1749762492.552206,0.303787000,0.029572900,-0.005708700,0.014785200,0.001790380,-0.000570187,-0.007853860,-0.048637900,1749762492.552206039,-0.017341179,0.304730014,-0.892392000,0.954757945,-0.991420000,-1.530600000,-0.931511870,1.523750000,,,,,
1749762492.562151,0.305518000,0.029716000,-0.005636070,0.014511100,0.001382200,-0.003340500,-0.004420170,-0.048529900,1749762492.562150955,-0.017285885,0.306472653,-0.889103000,0.954184437,-0.991104000,-1.530180000,-0.928613667,1.523710000,,,,,
1749762492.565688,,,,,,,,,,,,,,,,,,1749762492.565687895,0.000000000,-0.250000000,0.000000000,0.000000000
1749762492.572088,0.307497000,0.029860800,-0.005463550,0.014065200,0.001359300,-0.003268200,-0.002808130,-0.048449500,1749762492.572088003,-0.017291601,0.308459192,-0.885760000,0.953826626,-0.990786000,-1.529990000,-0.925441756,1.523670000,,,,,
1749762492.575226,,,,,,,,,,,,,,,,,,1749762492.575226068,0.000000000,-0.250000000,0.000000000,0.000000000
1749762492.581953,0.309053000,0.029808200,-0.005363870,0.014873300,0.001404220,-0.002734050,-0.003716350,-0.048191500,1749762492.581953049,-0.017225169,0.310008998,-0.882459000,0.953818061,-0.990495000,-1.530150000,-0.921979033,1.523630000,,,,,
1749762492.592154,0.310610000,0.029831800,-0.005297700,0.014231700,0.001378350,-0.002723930,-0.000932133,-0.048136000,1749762492.592154026,-0.017073316,0.311571838,-0.879142000,0.953320321,-0.990193000,-1.529790000,-0.918995756,1.523590000,,,,,
1749762492.602229,0.312259000,0.029958300,-0.005038480,0.012565300,0.001314240,-0.002977680,-0.003980560,-0.048235700,1749762492.602229118,-0.017273059,0.313216897,-0.875797000,0.953552657,-0.989876000,-1.530240000,-0.915211566,1.523570000,,,,,
1749762492.605595,,,,,,,,,,,,,,,,,,1749762492.605595112,0.000000000,-0.250000000,0.000000000,0.000000000
1749762492.612156,0.313715000,0.029861900,-0.005094190,0.010114700,0.001055850,-0.004551260,-0.006288090,-0.048466100,1749762492.612155914,-0.017234130,0.314661436,-0.872463000,0.953740395,-0.989591000,-1.530610000,-0.911515931,1.523520000,,,,,
1749762492.615781,,,,,,,,,,,,,,,,,,1749762492.615781069,0.000000000,-0.250000000,0.000000000,0.000000000
1749762492.622105,0.315512000,0.030040800,-0.005213320,0.009423580,0.001084380,-0.004041610,-0.006531270,-0.048465400,1749762492.622104883,-0.017372337,0.316462437,-0.869064000,0.953643020,-0.989266000,-1.530710000,-0.908011258,1.523450000,,,,,
1749762492.631931,0.317177000,0.030050500,-0.005157260,0.008348630,0.001467410,-0.001127010,-0.004613240,-0.048527300,1749762492.631931067,-0.017248496,0.318130117,-0.865667000,0.953287411,-0.988964000,-1.530500000,-0.904805095,1.523400000,,,,,
1749762492.636649,,,,,,,,,,,,,,,,,,1749762492.636648893,0.000000000,-0.250000000,0.000000000,0.000000000
1749762492.642084,0.318456000,0.030008000,-0.005212130,0.009170070,0.001612270,-0.000052329,-0.003137930,-0.048324500,1749762492.642083883,-0.017100206,0.319409278,-0.862310000,0.952975630,-0.988670000,-1.530330000,-0.901600995,1.523340000,,,,,
1749762492.652056,0.319971000,0.030172500,-0.005244280,0.009764260,0.001570280,-0.000337775,-0.004437550,-0.048146500,1749762492.652055979,-0.017273886,0.320925900,-0.858905000,0.952987223,-0.988346000,-1.530550000,-0.897976040,1.523290000,,,,,
1749762492.662084,0.321382000,0.030351000,-0.005197670,0.007533830,0.001501170,-0.000790203,-0.004851260,-0.048372900,1749762492.662084103,-0.017430927,0.322341024,-0.855500000,0.952895885,-0.988019000,-1.530660000,-0.894455827,1.523240000,,,,,
1749762492.665826,,,,,,,,,,,,,,,,,,1749762492.665826082,0.000000000,-0.250000000,0.000000000,0.000000000
1749762492.667727,,,,,,,,,,,,,,,,,,1749762492.667726994,0.000000000,-0.250000000,0.000000000,0.000000000
1749762492.672086,0.322819000,0.030495600,-0.005385720,0.008539960,0.001492050,-0.000798568,-0.008423520,-0.048151400,1749762492.672086000,-0.017699065,0.323772808,-0.852078000,0.953207280,-0.987694000,-1.531220000,-0.890489885,1.523160000,,,,,
1749762492.682064,0.324340000,0.030574200,-0.005606810,0.008329470,0.001609510,0.000064910,-0.006512620,-0.048096500,1749762492.682064056,-0.017655617,0.325299088,-0.848629000,0.952859438,-0.987378000,-1.531030000,-0.887212143,1.523080000,,,,,
1749762492.692075,0.325641000,0.030635700,-0.005730900,0.008000380,0.001837300,0.001628310,-0.003085060,-0.048061100,1749762492.692075014,-0.017524906,0.326609070,-0.845196000,0.952301060,-0.987063000,-1.530600000,-0.884178905,1.523000000,,,,,
1749762492.697786,,,,,,,,,,,,,,,,,,1749762492.697786093,0.000000000,-0.250000000,0.000000000,0.000000000
1749762492.702107,0.326968000,0.030700000,-0.005920770,0.010057100,0.002118760,0.003453630,-0.004592470,-0.047682200,1749762492.702106953,-0.017617812,0.327933188,-0.841747000,0.952344065,-0.986747000,-1.530850000,-0.880481934,1.522920000,,,,,
1749762492.712085,0.328104000,0.030649000,-0.005961680,0.011309600,0.002122620,0.003242430,-0.005967160,-0.047399700,1749762492.712085009,-0.017600461,0.329062030,-0.838312000,0.952392945,-0.986448000,-1.531090000,-0.876809184,1.522850000,,,,,
1749762492.715947,,,,,,,,,,,,,,,,,,1749762492.715946913,0.000000000,-0.250000000,0.000000000,0.000000000
1749762492.722146,0.329542000,0.030757400,-0.006050310,0.011612000,0.002112980,0.002952940,-0.008434870,-0.047242700,1749762492.722146034,-0.017790503,0.330495757,-0.834822000,0.952575444,-0.986125000,-1.531510000,-0.872909108,1.522780000,,,,,
1749762492.728264,,,,,,,,,,,,,,,,,,1749762492.728264093,0.000000000,-0.250000000,0.000000000,0.000000000
1749762492.732114,0.331002000,0.030887500,-0.006461280,0.011484100,0.002269860,0.003829480,-0.009949470,-0.047145100,1749762492.732114077,-0.017962746,0.331954366,-0.831315000,0.952648212,-0.985799000,-1.531810000,-0.869106255,1.522660000,,,,,
1749762492.742192,0.332415000,0.031040000,-0.006746110,0.010742600,0.002501340,0.005159250,-0.008397380,-0.047138000,1749762492.742192030,-0.018020052,0.333374401,-0.827799000,0.952350628,-0.985468000,-1.531690000,-0.865694314,1.522550000,,,,,
1749762492.751920,0.333857000,0.031241700,-0.007004540,0.011762300,0.002593490,0.005438360,-0.009068660,-0.046882500,1749762492.751919985,-0.018225488,0.334819910,-0.824266000,0.952304187,-0.985128000,-1.531870000,-0.861979321,1.522450000,,,,,
1749762492.758660,,,,,,,,,,,,,,,,,,1749762492.758660078,0.000000000,-0.250000000,0.000000000,0.000000000
1749762492.762143,0.334955000,0.031435800,-0.007253000,0.014501900,0.002514950,0.004523420,-0.010466800,-0.046366800,1749762492.762142897,-0.018474128,0.335919288,-0.820768000,0.952349491,-0.984788000,-1.532160000,-0.858194594,1.522340000,,,,,
1749762492.765823,,,,,,,,,,,,,,,,,,1749762492.765822887,0.000000000,-0.250000000,0.000000000,0.000000000
1749762492.772107,0.336104000,0.031635400,-0.007362720,0.016729000,0.002398900,0.003413310,-0.009764400,-0.045898200,1749762492.772106886,-0.018632568,0.337074954,-0.817251000,0.952150144,-0.984444000,-1.532170000,-0.854657410,1.522250000,,,,,
1749762492.782117,0.337229000,0.031842900,-0.007578180,0.016470600,0.002441030,0.003468340,-0.009481620,-0.045768500,1749762492.782116890,-0.018813380,0.338206188,-0.813727000,0.951983043,-0.984098000,-1.532220000,-0.851075079,1.522150000,,,,,
1749762492.788864,,,,,,,,,,,,,,,,,,1749762492.788863897,0.000000000,-0.250000000,0.000000000,0.000000000
1749762492.792184,0.338623000,0.031964900,-0.007982780,0.017284300,0.002640950,0.004605660,-0.006980350,-0.045485600,1749762492.792184114,-0.018789833,0.339608941,-0.810152000,0.951556312,-0.983762000,-1.531950000,-0.847746732,1.522010000,,,,,
1749762492.801906,0.339579000,0.032044600,-0.008257460,0.017710700,0.003209300,0.008200700,-0.003808490,-0.045250800,1749762492.801906109,-0.018699523,0.340574634,-0.806627000,0.951032146,-0.983430000,-1.531560000,-0.844582464,1.521890000,,,,,
1749762492.812142,0.340585000,0.032052700,-0.008481630,0.016500200,0.003459220,0.009356520,-0.002124780,-0.045249500,1749762492.812141895,-0.018599839,0.341583904,-0.803085000,0.950682108,-0.983109000,-1.531360000,-0.841220752,1.521780000,,,,,
1749762492.816051,,,,,,,,,,,,,,,,,,1749762492.816051006,0.000000000,-0.250000000,0.000000000,0.000000000
1749762492.819333,,,,,,,,,,,,,,,,,,1749762492.819333076,0.000000000,-0.250000000,0.000000000,0.000000000
1749762492.822052,0.341603000,0.032163700,-0.008728640,0.017015200,0.003117460,0.006360080,-0.004265290,-0.045009700,1749762492.822052002,-0.018783675,0.342599309,-0.799531000,0.950761865,-0.982772000,-1.531690000,-0.837342522,1.521660000,,,,,
1749762492.832101,0.342603000,0.032266000,-0.008962850,0.014800900,0.002932860,0.004651700,-0.005258870,-0.045161300,1749762492.832101107,-0.018912085,0.343598957,-0.795970000,0.950723743,-0.982436000,-1.531880000,-0.833590486,1.521540000,,,,,
1749762492.842152,0.343730000,0.032382600,-0.009330250,0.014047800,0.002714020,0.002825160,-0.003252090,-0.045122700,1749762492.842152119,-0.018902013,0.344734187,-0.792380000,0.950324450,-0.982096000,-1.531640000,-0.830218078,1.521390000,,,,,
1749762492.850378,,,,,,,,,,,,,,,,,,1749762492.850378036,0.000000000,-0.250000000,0.000000000,0.000000000
1749762492.852139,0.344677000,0.032477400,-0.009608720,0.016009900,0.002661080,0.002266290,0.000696751,-0.044697100,1749762492.852138996,-0.018772997,0.345694360,-0.788805000,0.949680137,-0.981758000,-1.531100000,-0.827145535,1.521260000,,,,,
1749762492.862064,0.345494000,0.032536400,-0.009896330,0.015431400,0.002507360,0.001052280,0.000119711,-0.044621100,1749762492.862063885,-0.018823783,0.346511741,-0.785240000,0.949546527,-0.981425000,-1.531170000,-0.823503661,1.521120000,,,,,
1749762492.865544,,,,,,,,,,,,,,,,,,1749762492.865544081,0.000000000,-0.250000000,0.000000000,0.000000000
1749762492.872111,0.346393000,0.032694100,-0.010100800,0.015734900,0.002001520,-0.002501930,-0.001201010,-0.044422700,1749762492.872111082,-0.019011753,0.347412677,-0.781654000,0.949496629,-0.981077000,-1.531360000,-0.819726301,1.520990000,,,,,
1749762492.881026,,,,,,,,,,,,,,,,,,1749762492.881026030,0.000000000,-0.250000000,0.000000000,0.000000000
1749762492.881963,0.347510000,0.032865100,-0.010504500,0.015364500,0.001522600,-0.005626240,-0.000386615,-0.044319100,1749762492.881963015,-0.019103727,0.348537462,-0.778028000,0.949206248,-0.980725000,-1.531260000,-0.816184167,1.520830000,,,,,
1749762492.891886,0.348654000,0.033119300,-0.010993100,0.013374000,0.001170300,-0.007663890,-0.001569140,-0.044454700,1749762492.891885996,-0.019371958,0.349687327,-0.774387000,0.949122565,-0.980359000,-1.531430000,-0.812370206,1.520660000,,,,,
1749762492.902031,0.349724000,0.033151400,-0.011389700,0.013530200,0.001248720,-0.006596590,0.002778190,-0.044298200,1749762492.902030945,-0.019147956,0.350769507,-0.770745000,0.948437665,-0.980024000,-1.530820000,-0.809296541,1.520490000,,,,,
