__time,filtered_pose/dx,filtered_pose/dy,filtered_pose/dz,filtered_pose/p,filtered_pose/pitch,filtered_pose/q,filtered_pose/r,filtered_pose/roll,filtered_pose/timestamp,filtered_pose/vxb,filtered_pose/vyb,filtered_pose/x,filtered_pose/xb,filtered_pose/y,filtered_pose/yaw,filtered_pose/yb,filtered_pose/z,u_control/timestamp,u_control/ux,u_control/uy,u_control/uyaw,u_control/uz
1749760864.274947,0.006376540,0.012478100,0.017657000,0.021763900,0.001577570,-0.021241600,0.000780540,0.003228780,1749760864.274946928,0.006136227,0.012598014,-0.721759000,-0.716966698,-0.243139000,-0.019166100,-0.256926802,1.271580000,,,,,
1749760864.285034,0.006110220,0.012649100,0.017881100,0.024906900,0.002125590,-0.016007400,0.000547799,0.003903050,1749760864.285033941,0.005866347,0.012764031,-0.721734000,-0.716937901,-0.242989000,-0.019192100,-0.256794991,1.271790000,,,,,
1749760864.295137,0.005824060,0.012686200,0.017918100,0.027425100,0.002648710,-0.011304900,0.000340150,0.004517950,1749760864.295136929,0.005579211,0.012795771,-0.721714000,-0.716914098,-0.242857000,-0.019216800,-0.256680340,1.271970000,,,,,
1749760864.304989,0.005694800,0.012853300,0.018234600,0.030937900,0.002879850,-0.008935770,0.001140190,0.005302550,1749760864.304989100,0.005448314,0.012959704,-0.721675000,-0.716908682,-0.242706000,-0.019097200,-0.256442878,1.272200000,,,,,
1749760864.315179,0.005511350,0.013005500,0.018533800,0.033968500,0.003147040,-0.006481550,0.001847820,0.006052230,1749760864.315179110,0.005263490,0.013107772,-0.721644000,-0.716909842,-0.242556000,-0.018982900,-0.256210372,1.272420000,,,,,
1749760864.324818,0.005302710,0.013023000,0.018630400,0.036308500,0.003401250,-0.004285680,0.002448040,0.006731870,1749760864.324817896,0.005055941,0.013120775,-0.721620000,-0.716915408,-0.242423000,-0.018877300,-0.256001235,1.272620000,,,,,
1749760864.334984,0.004830300,0.013186100,0.018946200,0.037762000,0.003800870,-0.001240020,0.003531910,0.007306120,1749760864.334984064,0.004582952,0.013274094,-0.721635000,-0.716979865,-0.242269000,-0.018695300,-0.255717060,1.272860000,,,,,
1749760864.345043,0.004483150,0.013304400,0.019174200,0.039214700,0.004143610,0.001204460,0.004525490,0.007894790,1749760864.345042944,0.004236055,0.013385123,-0.721637000,-0.717030539,-0.242120000,-0.018515700,-0.255439349,1.273080000,,,,,
1749760864.354996,0.004187560,0.013387600,0.019334800,0.041040600,0.004332590,0.002422310,0.004545340,0.008552210,1749760864.354995966,0.003939624,0.013462647,-0.721635000,-0.717043528,-0.241975000,-0.018467500,-0.255259775,1.273290000,,,,,
1749760864.365047,0.004048110,0.013511100,0.019435200,0.041543500,0.004386080,0.002623790,0.004585010,0.009035680,1749760864.365046978,0.003798613,0.013583356,-0.721614000,-0.717038399,-0.241823000,-0.018416300,-0.255070702,1.273500000,,,,,
1749760864.374736,0.003984700,0.013636400,0.019434300,0.041102600,0.004372970,0.002352940,0.004533610,0.009387060,1749760864.374736071,0.003733433,0.013707324,-0.721583000,-0.717020010,-0.241670000,-0.018377900,-0.254889623,1.273700000,,,,,
1749760864.384855,0.003957190,0.013704900,0.019345800,0.039973500,0.004375100,0.002205670,0.005777570,0.009634040,1749760864.384855032,0.003707782,0.013774469,-0.721547000,-0.717044253,-0.241524000,-0.018151900,-0.254580941,1.273880000,,,,,
1749760864.394991,0.004242590,0.013814700,0.019306900,0.037893300,0.004173140,0.000663724,0.008009510,0.009731560,1749760864.394990921,0.003996449,0.013887905,-0.721466000,-0.717063207,-0.241371000,-0.017769800,-0.254152524,1.274070000,,,,,
1749760864.405156,0.004453690,0.013788000,0.019102000,0.035745100,0.003983730,-0.000685720,0.009883370,0.009798410,1749760864.405155897,0.004212874,0.013863477,-0.721393000,-0.717082063,-0.241236000,-0.017417500,-0.253763636,1.274230000,,,,,
1749760864.415297,0.004803320,0.013884500,0.019062300,0.033623900,0.003749910,-0.002247960,0.012102800,0.009847680,1749760864.415297031,0.004566654,0.013964129,-0.721297000,-0.717095507,-0.241084000,-0.016996200,-0.253307898,1.274410000,,,,,
1749760864.424655,0.005065420,0.013845500,0.018859000,0.031477800,0.003532550,-0.003589310,0.013929600,0.009872130,1749760864.424654961,0.004834761,0.013927722,-0.721211000,-0.717109553,-0.240951000,-0.016609800,-0.252896383,1.274570000,,,,,
1749760864.435450,0.005129550,0.013766900,0.018625100,0.029772900,0.003404900,-0.004220880,0.015147600,0.009939220,1749760864.435450077,0.004904568,0.013848647,-0.721151000,-0.717131585,-0.240824000,-0.016293500,-0.252541588,1.274730000,,,,,
1749760864.445040,0.004616820,0.013675500,0.018410200,0.026508200,0.003479920,-0.003414010,0.012652800,0.009762640,1749760864.445039988,0.004390494,0.013749832,-0.721174000,-0.717103326,-0.240700000,-0.016504500,-0.252569293,1.274880000,,,,,
1749760864.455288,0.004213940,0.013578900,0.018126200,0.023007400,0.003591260,-0.002412610,0.010791900,0.009519130,1749760864.455287933,0.003987301,0.013647170,-0.721187000,-0.717082045,-0.240577000,-0.016648300,-0.252549644,1.275030000,,,,,
1749760864.464980,0.003825580,0.013374500,0.017718200,0.019753300,0.003697010,-0.001518680,0.009074790,0.009276440,1749760864.464979887,0.003600495,0.013436843,-0.721201000,-0.717062054,-0.240471000,-0.016789900,-0.252545430,1.275150000,,,,,
1749760864.474771,0.003547250,0.013328900,0.017523700,0.014970100,0.003791390,-0.000764522,0.007067140,0.008779050,1749760864.474771023,0.003320280,0.013387244,-0.721203000,-0.717015461,-0.240344000,-0.016990800,-0.252562535,1.275300000,,,,,
1749760864.485076,0.003237910,0.013269800,0.017179900,0.010345400,0.003865770,-0.000199928,0.005612090,0.008256880,1749760864.485075951,0.003010114,0.013323320,-0.721213000,-0.716992058,-0.240219000,-0.017131500,-0.252538606,1.275420000,,,,,
1749760864.494988,0.003011370,0.013205500,0.016788800,0.006544570,0.004127480,0.001615240,0.004451320,0.007808140,1749760864.494987965,0.002783218,0.013255462,-0.721213000,-0.716965764,-0.240096000,-0.017244000,-0.252496285,1.275540000,,,,,
1749760864.505208,0.002862680,0.013133600,0.016349200,0.002859630,0.004414200,0.003477610,0.003142190,0.007338230,1749760864.505208015,0.002633869,0.013181393,-0.721205000,-0.716923090,-0.239974000,-0.017389700,-0.252478623,1.275640000,,,,,
1749760864.514760,0.002590700,0.013074400,0.015947900,-0.000010191,0.004888770,0.006504780,0.001311500,0.006949890,1749760864.514760017,0.002359882,0.013118026,-0.721216000,-0.716877005,-0.239851000,-0.017624300,-0.252524019,1.275750000,,,,,
1749760864.525137,0.002330760,0.012907100,0.015457000,-0.002510710,0.005328660,0.009084890,-0.000295273,0.006586510,1749760864.525136948,0.002100079,0.012946634,-0.721227000,-0.716834246,-0.239745000,-0.017844600,-0.252576154,1.275840000,,,,,
1749760864.535077,0.002129340,0.012774100,0.015035600,-0.004503130,0.005714930,0.011118300,-0.001646770,0.006271940,1749760864.535077095,0.001898511,0.012810440,-0.721233000,-0.716791877,-0.239635000,-0.018043900,-0.252609141,1.275930000,,,,,
1749760864.545026,0.002054110,0.012669200,0.014524400,-0.005564810,0.006027020,0.012501200,-0.002691940,0.006072660,1749760864.545026064,0.001823048,0.012704507,-0.721223000,-0.716741395,-0.239523000,-0.018212200,-0.252617610,1.276010000,,,,,
1749760864.554966,0.001977020,0.012596200,0.014010500,-0.006696110,0.006247330,0.013157100,-0.002919140,0.005852660,1749760864.554965973,0.001746544,0.012630220,-0.721214000,-0.716719382,-0.239407000,-0.018272100,-0.252544397,1.276080000,,,,,
1749760864.564786,0.001881780,0.012566000,0.013508400,-0.007872660,0.006631020,0.014892500,-0.003942930,0.005614760,1749760864.564785957,0.001649629,0.012598578,-0.721208000,-0.716670670,-0.239285000,-0.018450100,-0.252549879,1.276140000,,,,,
1749760864.575018,0.001782130,0.012428400,0.012951300,-0.008828120,0.006980470,0.016272800,-0.004800080,0.005397230,1749760864.575017929,0.001550492,0.012459418,-0.721203000,-0.716626241,-0.239179000,-0.018614000,-0.252561263,1.276200000,,,,,
1749760864.584964,0.001731140,0.012346900,0.012408500,-0.010477600,0.007300510,0.017355600,-0.005675520,0.005069300,1749760864.584964037,0.001498860,0.012377245,-0.721193000,-0.716574088,-0.239067000,-0.018789200,-0.252574644,1.276250000,,,,,
1749760864.595057,0.001649060,0.012241900,0.011893500,-0.012002200,0.007481240,0.017404900,-0.005988240,0.004743030,1749760864.595057011,0.001417513,0.012270867,-0.721188000,-0.716545312,-0.238959000,-0.018891400,-0.252539801,1.276300000,,,,,
1749760864.605095,0.001562930,0.012042000,0.011339400,-0.013224400,0.007639150,0.017293800,-0.006207700,0.004445450,1749760864.605094910,0.001334066,0.012069498,-0.721184000,-0.716519911,-0.238865000,-0.018983200,-0.252511520,1.276340000,,,,,
1749760864.615023,0.001546350,0.011869900,0.010855700,-0.014607200,0.007673920,0.016342800,-0.006849890,0.004112300,1749760864.615022898,0.001318909,0.011897319,-0.721170000,-0.716468507,-0.238770000,-0.019138500,-0.252527542,1.276380000,,,,,
1749760864.624976,0.001632330,0.011646500,0.010381600,-0.015674700,0.007663400,0.015145500,-0.006951300,0.003811150,1749760864.624975920,0.001408176,0.011675723,-0.721142000,-0.716421128,-0.238684000,-0.019221800,-0.252500701,1.276420000,,,,,
1749760864.635014,0.001692800,0.011348800,0.009876590,-0.016465900,0.007643800,0.013968100,-0.006978100,0.003539450,1749760864.635014057,0.001473521,0.011379348,-0.721117000,-0.716379025,-0.238610000,-0.019295200,-0.252478817,1.276450000,,,,,
1749760864.645028,0.001693910,0.011130200,0.009473770,-0.015309900,0.007314010,0.010736700,-0.006596240,0.003542740,1749760864.645028114,0.001478689,0.011160832,-0.721100000,-0.716359981,-0.238529000,-0.019309500,-0.252407748,1.276490000,,,,,
1749760864.655004,0.001690020,0.010895300,0.008999070,-0.014009100,0.006983580,0.007723240,-0.006738220,0.003578620,1749760864.655004025,0.001478389,0.010926028,-0.721084000,-0.716323616,-0.238452000,-0.019396100,-0.252392488,1.276510000,,,,,
1749760864.664806,0.001671660,0.010594100,0.008505760,-0.012751600,0.006669400,0.005029100,-0.006802270,0.003621220,1749760864.664805889,0.001465060,0.010624641,-0.721070000,-0.716291569,-0.238386000,-0.019472700,-0.252381098,1.276530000,,,,,
1749760864.675032,0.001745210,0.010326900,0.008083140,-0.009997810,0.006171650,0.001256830,-0.007145160,0.003893780,1749760864.675031900,0.001542578,0.010359106,-0.721042000,-0.716235126,-0.238319000,-0.019590600,-0.252398011,1.276560000,,,,,
1749760864.684963,0.001836860,0.010049800,0.007686810,-0.006926390,0.005554170,-0.003079940,-0.006892560,0.004240030,1749760864.684962988,0.001639289,0.010083911,-0.721011000,-0.716196610,-0.238256000,-0.019625300,-0.252359268,1.276580000,,,,,
1749760864.694952,0.002021540,0.009798640,0.007296410,-0.005129140,0.005040280,-0.006405090,-0.005870280,0.004431870,1749760864.694952011,0.001829645,0.009836278,-0.720966000,-0.716172955,-0.238192000,-0.019545700,-0.252237391,1.276600000,,,,,
1749760864.704957,0.002147880,0.009537950,0.006915910,-0.003382590,0.004491660,-0.009740470,-0.004503790,0.004634320,1749760864.704957008,0.001962395,0.009577833,-0.720928000,-0.716171382,-0.238132000,-0.019405900,-0.252076541,1.276620000,,,,,
1749760864.714813,0.002335480,0.009344810,0.006548660,-0.001677960,0.003908970,-0.013080800,-0.002860570,0.004848150,1749760864.714812994,0.002155526,0.009387952,-0.720879000,-0.716172492,-0.238065000,-0.019212200,-0.251869885,1.276630000,,,,,
1749760864.725082,0.002874830,0.009197330,0.006319730,-0.001056770,0.003201920,-0.017047200,-0.000083907,0.004921620,1749760864.725081921,0.002701076,0.009249849,-0.720777000,-0.716166217,-0.237993000,-0.018837400,-0.251527537,1.276670000,,,,,
1749760864.735005,0.003395760,0.009070340,0.006160240,-0.000906969,0.002357790,-0.021684100,0.003501740,0.004932810,1749760864.735004902,0.003229055,0.009131016,-0.720673000,-0.716194312,-0.237919000,-0.018317300,-0.251079133,1.276710000,,,,,
1749760864.745021,0.003819590,0.008879360,0.005966720,-0.000768406,0.001581860,-0.025532400,0.006595060,0.004943870,1749760864.745021105,0.003660646,0.008946059,-0.720577000,-0.716220989,-0.237856000,-0.017832900,-0.250667477,1.276740000,,,,,
1749760864.754706,0.004152750,0.008780670,0.005861810,-0.000658538,0.000705799,-0.029805000,0.009617020,0.004952150,1749760864.754705906,0.003999984,0.008851307,-0.720491000,-0.716262780,-0.237782000,-0.017327900,-0.250230274,1.276780000,,,,,
1749760864.765002,0.004301400,0.008694810,0.005701700,0.000177217,-0.000025706,-0.032788500,0.011385400,0.005066990,1749760864.765002012,0.004153194,0.008766570,-0.720428000,-0.716289349,-0.237707000,-0.016974900,-0.249901359,1.276820000,,,,,
1749760864.775192,0.004392820,0.008542990,0.005511700,0.000903877,-0.000689096,-0.035097900,0.012825400,0.005174330,1749760864.775192022,0.004249961,0.008614951,-0.720371000,-0.716314145,-0.237642000,-0.016651800,-0.249603973,1.276850000,,,,,
1749760864.785066,0.004313400,0.008361450,0.005288460,0.001209510,-0.000990109,-0.034753900,0.012661000,0.005227770,1749760864.785065889,0.004174456,0.008431678,-0.720339000,-0.716309180,-0.237583000,-0.016547400,-0.249469667,1.276870000,,,,,
1749760864.795030,0.004091560,0.008137390,0.005068540,0.001808620,-0.001241790,-0.034094200,0.012197900,0.005326910,1749760864.795030117,0.003956840,0.008203743,-0.720328000,-0.716313815,-0.237532000,-0.016488100,-0.249376015,1.276890000,,,,,
1749760864.804797,0.003862030,0.007870090,0.004832040,0.002314640,-0.001455350,-0.033217300,0.011686300,0.005418510,1749760864.804796934,0.003732126,0.007932517,-0.720320000,-0.716318417,-0.237489000,-0.016440400,-0.249298721,1.276910000,,,,,
1749760864.815025,0.003517310,0.007635650,0.004645980,0.003772810,-0.001437870,-0.030810600,0.011227800,0.005653500,1749760864.815025091,0.003391693,0.007692271,-0.720332000,-0.716343667,-0.237444000,-0.016390200,-0.249217964,1.276930000,,,,,
1749760864.825029,0.003140490,0.007387790,0.004379370,0.005032760,-0.001311210,-0.027818000,0.010934300,0.005874280,1749760864.825028896,0.003019504,0.007438059,-0.720351000,-0.716380661,-0.237404000,-0.016320600,-0.249128422,1.276940000,,,,,
1749760864.835444,0.002784350,0.007106400,0.004108290,0.006086050,-0.001174760,-0.024964100,0.010581800,0.006077630,1749760864.835443974,0.002668420,0.007150739,-0.720372000,-0.716416693,-0.237371000,-0.016262400,-0.249054074,1.276940000,,,,,
1749760864.845081,0.002397800,0.006777190,0.003816480,0.006651680,-0.001013390,-0.022135000,0.009618000,0.006220660,1749760864.845081091,0.002287041,0.006815364,-0.720400000,-0.716436546,-0.237348000,-0.016296600,-0.249056034,1.276940000,,,,,
1749760864.855203,0.001963320,0.006491960,0.003542990,0.007494530,-0.000609512,-0.017831500,0.009353930,0.006409630,1749760864.855202913,0.001857644,0.006522985,-0.720439000,-0.716490374,-0.237321000,-0.016238800,-0.248988261,1.276940000,,,,,
1749760864.864801,0.001626360,0.006177440,0.003283240,0.008348480,-0.000304044,-0.014501500,0.009277700,0.006608640,1749760864.864800930,0.001526347,0.006202909,-0.720469000,-0.716541191,-0.237302000,-0.016156400,-0.248910708,1.276940000,,,,,
1749760864.875051,0.001347640,0.005821380,0.003082400,0.008605510,-0.000214889,-0.012889700,0.008654590,0.006729470,1749760864.875051022,0.001253429,0.005842389,-0.720493000,-0.716565922,-0.237292000,-0.016154100,-0.248899449,1.276940000,,,,,
1749760864.884956,0.001071790,0.005476070,0.002895210,0.007885370,0.000029102,-0.010323000,0.008783120,0.006710900,1749760864.884955883,0.000983771,0.005492565,-0.720519000,-0.716618227,-0.237284000,-0.016048900,-0.248816483,1.276940000,,,,,
1749760864.894954,0.000753741,0.005054480,0.002665500,0.007171860,0.000229288,-0.008234570,0.008382530,0.006686090,1749760864.894953966,0.000672679,0.005065905,-0.720555000,-0.716661500,-0.237291000,-0.016019200,-0.248802775,1.276940000,,,,,
1749760864.905042,0.000468088,0.004666550,0.002371640,0.007095170,0.000402335,-0.006476660,0.008928250,0.006746670,1749760864.905041933,0.000394039,0.004673385,-0.720589000,-0.716735987,-0.237296000,-0.015856100,-0.248691423,1.276920000,,,,,
1749760864.914777,0.000234676,0.004267100,0.002058800,0.005709960,0.000496574,-0.005382200,0.009051740,0.006616370,1749760864.914777040,0.000167448,0.004270267,-0.720618000,-0.716791450,-0.237308000,-0.015748900,-0.248627043,1.276900000,,,,,
1749760864.924994,-0.000020769,0.003897250,0.001794890,0.004293030,0.000729631,-0.003407560,0.009632650,0.006467620,1749760864.924993992,-0.000081460,0.003896454,-0.720653000,-0.716869748,-0.237319000,-0.015574000,-0.248513216,1.276880000,,,,,
1749760864.934966,-0.000375178,0.003546260,0.001479060,0.003053050,0.001014570,-0.001211730,0.010649300,0.006330400,1749760864.934966087,-0.000429496,0.003540092,-0.720705000,-0.716982174,-0.237331000,-0.015330000,-0.248351088,1.276860000,,,,,
1749760864.945008,-0.000680667,0.003209030,0.001190760,0.001945570,0.001281990,0.000712336,0.011440800,0.006200040,1749760864.945008039,-0.000729071,0.003198380,-0.720753000,-0.717084964,-0.237344000,-0.015108500,-0.248205994,1.276830000,,,,,
1749760864.955061,-0.000980203,0.002849800,0.000868617,0.000249896,0.001459080,0.001882290,0.011380500,0.005973140,1749760864.955060959,-0.001022846,0.002834774,-0.720803000,-0.717160890,-0.237364000,-0.015002800,-0.248150945,1.276790000,,,,,
1749760864.964867,-0.001271690,0.002473220,0.000568619,-0.000647902,0.001528550,0.002230860,0.011042900,0.005845210,1749760864.964867115,-0.001308492,0.002453948,-0.720855000,-0.717228535,-0.237391000,-0.014938100,-0.248132318,1.276760000,,,,,
1749760864.975026,-0.001514410,0.002123190,0.000302182,-0.001424450,0.001592110,0.002514830,0.010650900,0.005725910,1749760864.975025892,-0.001545844,0.002100414,-0.720903000,-0.717289416,-0.237417000,-0.014884600,-0.248120657,1.276730000,,,,,
1749760864.984965,-0.001669100,0.001795430,0.000005169,-0.003219750,0.001704230,0.003113440,0.010248900,0.005450840,1749760864.984965086,-0.001695553,0.001770470,-0.720941000,-0.717338960,-0.237443000,-0.014836500,-0.248112716,1.276690000,,,,,
1749760864.995066,-0.001765780,0.001482100,-0.000305300,-0.004238230,0.001905490,0.004284490,0.010345200,0.005270680,1749760864.995065928,-0.001787404,0.001455948,-0.720971000,-0.717397445,-0.237471000,-0.014720000,-0.248057583,1.276640000,,,,,
1749760865.004969,-0.001834390,0.001195960,-0.000573122,-0.005088140,0.002091070,0.005266930,0.010337600,0.005104820,1749760865.004968882,-0.001851676,0.001169019,-0.720999000,-0.717450420,-0.237498000,-0.014617700,-0.248011598,1.276600000,,,,,
1749760865.014861,-0.001882940,0.000844553,-0.000931575,-0.006901790,0.002299010,0.006335700,0.009737230,0.004790440,1749760865.014861107,-0.001895071,0.000816970,-0.721024000,-0.717478866,-0.237537000,-0.014601500,-0.248039336,1.276540000,,,,,
1749760865.024962,-0.001941190,0.000517485,-0.001419450,-0.008941180,0.002406230,0.006637640,0.008086580,0.004425140,1749760865.024961948,-0.001948609,0.000488809,-0.721052000,-0.717470935,-0.237576000,-0.014744000,-0.248180983,1.276460000,,,,,
1749760865.035002,-0.001922550,0.000208199,-0.001910220,-0.011380500,0.002535490,0.007070480,0.006429370,0.003981330,1749760865.035001993,-0.001925439,0.000179523,-0.721068000,-0.717446658,-0.237615000,-0.014903900,-0.248334938,1.276380000,,,,,
1749760865.045094,-0.001902640,-0.000144465,-0.002404010,-0.013302700,0.002553530,0.006707980,0.005314820,0.003588270,1749760865.045094013,-0.001900259,-0.000172990,-0.721085000,-0.717438665,-0.237665000,-0.015001500,-0.248455209,1.276280000,,,,,
1749760865.054965,-0.001868440,-0.000450478,-0.002812980,-0.014859700,0.002566100,0.006332720,0.004296600,0.003229040,1749760865.054965019,-0.001861427,-0.000478632,-0.721099000,-0.717428428,-0.237710000,-0.015096300,-0.248568427,1.276200000,,,,,
1749760865.065020,-0.001884850,-0.000751584,-0.003196360,-0.015646000,0.002606640,0.006175930,0.003795890,0.002966210,1749760865.065020084,-0.001873266,-0.000780007,-0.721120000,-0.717441301,-0.237759000,-0.015126000,-0.248639047,1.276120000,,,,,
1749760865.075000,-0.001932820,-0.001023260,-0.003544450,-0.015706200,0.002724010,0.006558680,0.002770020,0.002801010,1749760865.075000048,-0.001917005,-0.001052591,-0.721146000,-0.717438954,-0.237806000,-0.015237100,-0.248766143,1.276030000,,,,,
1749760865.085004,-0.001957500,-0.001250930,-0.003816360,-0.015619500,0.002829610,0.006834100,0.001851600,0.002656540,1749760865.085004091,-0.001938077,-0.001280815,-0.721169000,-0.717434968,-0.237849000,-0.015342900,-0.248885395,1.275960000,,,,,
1749760865.094671,-0.001937070,-0.001400470,-0.004107970,-0.015238400,0.003051450,0.007890630,0.000895846,0.002555710,1749760865.094671011,-0.001915184,-0.001430255,-0.721185000,-0.717420494,-0.237883000,-0.015463200,-0.249005944,1.275880000,,,,,
1749760865.104996,-0.001897680,-0.001533220,-0.004357970,-0.015039400,0.003214680,0.008471100,0.000343713,0.002432240,1749760865.104995966,-0.001873634,-0.001562513,-0.721199000,-0.717416209,-0.237917000,-0.015534500,-0.249091309,1.275800000,,,,,
1749760865.114781,-0.001846560,-0.001635310,-0.004537230,-0.014732800,0.003361980,0.008901880,-0.000140429,0.002326380,1749760865.114780903,-0.001820823,-0.001663919,-0.721210000,-0.717410073,-0.237947000,-0.015601400,-0.249169471,1.275730000,,,,,
1749760865.124833,-0.001639030,-0.001750490,-0.004729770,-0.014773400,0.003310240,0.007933040,-0.001240900,0.002173160,1749760865.124833107,-0.001611235,-0.001776107,-0.721199000,-0.717358379,-0.237980000,-0.015762600,-0.249317937,1.275660000,,,,,
1749760865.134967,-0.001414540,-0.001839800,-0.004906860,-0.014004700,0.003161140,0.006360720,-0.001978190,0.002137100,1749760865.134967089,-0.001385143,-0.001862033,-0.721183000,-0.717312081,-0.238010000,-0.015882200,-0.249433473,1.275590000,,,,,
1749760865.144817,-0.001206420,-0.001901330,-0.005017710,-0.013210900,0.003017530,0.004934360,-0.002603110,0.002112380,1749760865.144817114,-0.001175860,-0.001920380,-0.721166000,-0.717267069,-0.238038000,-0.015992700,-0.249540459,1.275520000,,,,,
1749760865.154808,-0.001022930,-0.001890040,-0.005114950,-0.011439200,0.002910450,0.003857700,-0.003026770,0.002237670,1749760865.154808044,-0.000992407,-0.001906244,-0.721152000,-0.717230935,-0.238055000,-0.016080300,-0.249620064,1.275460000,,,,,
1749760865.164798,-0.000759144,-0.001917460,-0.005238410,-0.009475330,0.002761600,0.002567580,-0.003009200,0.002408590,1749760865.164798021,-0.000728160,-0.001929439,-0.721124000,-0.717195653,-0.238078000,-0.016108000,-0.249662477,1.275390000,,,,,
1749760865.175325,-0.000495863,-0.001903320,-0.005371480,-0.006414280,0.002698490,0.001956450,-0.002317250,0.002758550,1749760865.175324917,-0.000465276,-0.001911027,-0.721093000,-0.717181959,-0.238095000,-0.016037600,-0.249628486,1.275320000,,,,,
1749760865.184673,-0.000322130,-0.001873220,-0.005516510,-0.002679630,0.002663260,0.001579330,-0.001693850,0.003236990,1749760865.184673071,-0.000292174,-0.001878125,-0.721073000,-0.717178545,-0.238110000,-0.015970200,-0.249594827,1.275240000,,,,,
1749760865.194806,-0.000167897,-0.001830400,-0.005594030,0.000598256,0.002629280,0.001236740,-0.001135650,0.003686410,1749760865.194806099,-0.000138763,-0.001832839,-0.721054000,-0.717175379,-0.238122000,-0.015906000,-0.249560479,1.275170000,,,,,
1749760865.204993,0.000062621,-0.001755900,-0.005773350,0.003957030,0.002424680,-0.000256734,0.000176217,0.004180360,1749760865.204993010,0.000090227,-0.001754698,-0.721022000,-0.717187967,-0.238130000,-0.015726800,-0.249439453,1.275090000,,,,,
1749760865.215032,0.000333551,-0.001606320,-0.005941270,0.006461710,0.002201360,-0.001776180,0.001591520,0.004583820,1749760865.215032101,0.000358439,-0.001600950,-0.720982000,-0.717199768,-0.238125000,-0.015519400,-0.249285083,1.275010000,,,,,
1749760865.225022,0.000507342,-0.001385990,-0.006018520,0.008742370,0.002117690,-0.002229850,0.002561230,0.004979770,1749760865.225022078,0.000528574,-0.001378033,-0.720953000,-0.717210081,-0.238110000,-0.015362600,-0.249157179,1.274940000,,,,,
1749760865.234830,0.000662040,-0.001159860,-0.006113180,0.010979700,0.002157900,-0.001799610,0.003188980,0.005392240,1749760865.234829903,0.000679645,-0.001149632,-0.720926000,-0.717212470,-0.238091000,-0.015245800,-0.249053998,1.274870000,,,,,
1749760865.245070,0.000875479,-0.000966623,-0.006259550,0.013291900,0.001923030,-0.003292370,0.003234810,0.005837960,1749760865.245069981,0.000890077,-0.000953198,-0.720888000,-0.717184321,-0.238074000,-0.015207300,-0.249008809,1.274780000,,,,,
1749760865.255079,0.000969357,-0.000783022,-0.006403120,0.015956600,0.001712160,-0.004517220,0.002864460,0.006358020,1749760865.255079031,0.000981169,-0.000768170,-0.720866000,-0.717157254,-0.238057000,-0.015228700,-0.249006824,1.274700000,,,,,
1749760865.264806,0.000952683,-0.000627154,-0.006581420,0.018119900,0.001915300,-0.002808040,0.001641920,0.006831860,1749760865.264806032,0.000962214,-0.000612430,-0.720858000,-0.717112376,-0.238042000,-0.015377700,-0.249098556,1.274610000,,,,,
1749760865.274838,0.000778811,-0.000418895,-0.006747640,0.020932500,0.002134940,-0.001102920,-0.000464395,0.007421680,1749760865.274837971,0.000785278,-0.000406642,-0.720874000,-0.717056581,-0.238018000,-0.015667300,-0.249282475,1.274520000,,,,,
1749760865.284956,0.000328467,-0.000163004,-0.006900490,0.024233400,0.002774280,0.003373700,-0.004246100,0.008110570,1749760865.284955978,0.000331068,-0.000157655,-0.720932000,-0.716976896,-0.237985000,-0.016221300,-0.249647632,1.274430000,,,,,
1749760865.295075,-0.000073867,0.000090056,-0.007182650,0.028063600,0.003524730,0.008306900,-0.008260230,0.008909360,1749760865.295074940,-0.000075374,0.000088799,-0.720987000,-0.716876133,-0.237950000,-0.016847000,-0.250062127,1.274320000,,,,,
1749760865.304947,-0.000391270,0.000228938,-0.007564740,0.030678600,0.004428590,0.013956500,-0.012304200,0.009569920,1749760865.304946899,-0.000395220,0.000222049,-0.721034000,-0.716755766,-0.237929000,-0.017517100,-0.250522276,1.274190000,,,,,
1749760865.314949,-0.000581713,0.000358784,-0.007948490,0.032415800,0.005372250,0.019491300,-0.015784700,0.010129100,1749760865.314949036,-0.000588127,0.000348170,-0.721065000,-0.716629497,-0.237908000,-0.018145800,-0.250952416,1.274060000,,,,,
1749760865.324858,-0.000583732,0.000517136,-0.008257250,0.032191700,0.006158640,0.023562600,-0.019025400,0.010420700,1749760865.324857950,-0.000593338,0.000506086,-0.721072000,-0.716479087,-0.237881000,-0.018774500,-0.251376048,1.273940000,,,,,
1749760865.335049,-0.000470163,0.000665870,-0.008515020,0.031337500,0.006760730,0.026085000,-0.021355800,0.010618500,1749760865.335048914,-0.000482928,0.000656671,-0.721061000,-0.716335563,-0.237855000,-0.019303300,-0.251728679,1.273820000,,,,,
1749760865.345029,-0.000312200,0.000837618,-0.008672660,0.030772800,0.007265910,0.027766800,-0.023132200,0.010849800,1749760865.345029116,-0.000328702,0.000831281,-0.721043000,-0.716199404,-0.237823000,-0.019774900,-0.252034126,1.273710000,,,,,
1749760865.354962,-0.000162927,0.001030520,-0.008867720,0.030596600,0.007710680,0.028916900,-0.023844600,0.011132000,1749760865.354962111,-0.000183616,0.001027035,-0.721024000,-0.716096711,-0.237787000,-0.020109700,-0.252237520,1.273590000,,,,,
1749760865.364970,-0.000019223,0.001217540,-0.009025130,0.030765300,0.008163670,0.030044500,-0.024415000,0.011462400,1749760865.364969969,-0.000044093,0.001216893,-0.721005000,-0.715997385,-0.237749000,-0.020431100,-0.252429280,1.273480000,,,,,
1749760865.374701,0.000052007,0.001339070,-0.009181700,0.030392900,0.008595360,0.030947900,-0.025058600,0.011716000,1749760865.374701023,0.000024187,0.001339861,-0.720995000,-0.715902749,-0.237719000,-0.020768700,-0.252640786,1.273370000,,,,,
1749760865.385038,0.000127125,0.001462330,-0.009361070,0.030577000,0.008936400,0.031165200,-0.025305500,0.012046700,1749760865.385037899,0.000096309,0.001464682,-0.720983000,-0.715818994,-0.237688000,-0.021055200,-0.252814636,1.273250000,,,,,
1749760865.395077,0.000191452,0.001556770,-0.009434470,0.030466800,0.009235460,0.031078500,-0.025296500,0.012336400,1749760865.395076990,0.000158241,0.001560496,-0.720973000,-0.715745936,-0.237660000,-0.021306900,-0.252966592,1.273150000,,,,,
1749760865.405093,0.000481064,0.001778970,-0.009660850,0.027240200,0.008887500,0.026544300,-0.025876800,0.012172300,1749760865.405092955,0.000442450,0.001788965,-0.720929000,-0.715617619,-0.237612000,-0.021644200,-0.253159058,1.273020000,,,,,
1749760865.415013,0.000875365,0.001948220,-0.009834730,0.024349900,0.008272770,0.020485900,-0.024981600,0.012024800,1749760865.415013075,0.000832742,0.001966816,-0.720867000,-0.715523983,-0.237569000,-0.021772900,-0.253206816,1.272900000,,,,,
1749760865.424838,0.001211180,0.002078430,-0.009899140,0.021615800,0.007684340,0.015025500,-0.023980300,0.011871100,1749760865.424838066,0.001165424,0.002104428,-0.720809000,-0.715440414,-0.237531000,-0.021877200,-0.253242184,1.272790000,,,,,
1749760865.434995,0.001750080,0.002261630,-0.010081600,0.018945500,0.006645580,0.006841320,-0.022372800,0.011699300,1749760865.434994936,0.001700173,0.002299383,-0.720719000,-0.715349869,-0.237484000,-0.021883500,-0.253197734,1.272670000,,,,,
1749760865.445061,0.002241460,0.002371760,-0.010366600,0.015461500,0.005388550,-0.002281930,-0.020863700,0.011382600,1749760865.445060968,0.002189014,0.002420249,-0.720630000,-0.715260604,-0.237445000,-0.021888000,-0.253160014,1.272520000,,,,,
1749760865.455074,0.002649770,0.002446720,-0.010523200,0.012288700,0.004213750,-0.010211200,-0.019364000,0.011076300,1749760865.455074072,0.002595609,0.002504103,-0.720548000,-0.715181744,-0.237410000,-0.021878700,-0.253116577,1.272400000,,,,,
1749760865.465039,0.003031220,0.002474320,-0.010865100,0.006775270,0.002947370,-0.018225100,-0.018655800,0.010398200,1749760865.465039015,0.002976133,0.002540312,-0.720466000,-0.715077393,-0.237382000,-0.021969500,-0.253151720,1.272240000,,,,,
1749760865.474827,0.003286140,0.002527480,-0.011147900,0.002381170,0.001960790,-0.023761400,-0.018450600,0.009827520,1749760865.474827051,0.003229417,0.002599565,-0.720399000,-0.714971462,-0.237349000,-0.022126200,-0.253229295,1.272090000,,,,,
1749760865.484808,0.003479160,0.002551430,-0.011295500,-0.001468700,0.001052900,-0.028375000,-0.018108500,0.009292020,1749760865.484807968,0.003421505,0.002628241,-0.720338000,-0.714876958,-0.237321000,-0.022261000,-0.253296320,1.271960000,,,,,
1749760865.495051,0.003721470,0.002514700,-0.011606600,-0.005731330,0.000396191,-0.030942100,-0.017372300,0.008658050,1749760865.495050907,0.003664380,0.002597186,-0.720268000,-0.714788648,-0.237300000,-0.022335200,-0.253326805,1.271800000,,,,,
1749760865.504968,0.003880490,0.002544590,-0.012032900,-0.008779300,0.000072164,-0.031042700,-0.015206600,0.008157920,1749760865.504967928,0.003823064,0.002630081,-0.720207000,-0.714763994,-0.237271000,-0.022194300,-0.253195742,1.271620000,,,,,
1749760865.514957,0.003984690,0.002548110,-0.012297800,-0.011357400,-0.000211052,-0.030855400,-0.013185000,0.007695580,1749760865.514956951,0.003927533,0.002635356,-0.720154000,-0.714747450,-0.237245000,-0.022052600,-0.253067295,1.271460000,,,,,
1749760865.524938,0.004074340,0.002551750,-0.012700100,-0.012072500,-0.000467316,-0.030495500,-0.012539700,0.007478110,1749760865.524938107,0.004016981,0.002641125,-0.720101000,-0.714685395,-0.237219000,-0.022090700,-0.253067362,1.271280000,,,,,
1749760865.535014,0.004085030,0.002460000,-0.013100000,-0.011121300,-0.000684708,-0.029892700,-0.012199600,0.007495580,1749760865.535013914,0.004029501,0.002549940,-0.720058000,-0.714623437,-0.237207000,-0.022166700,-0.253108728,1.271100000,,,,,
1749760865.545173,0.004011510,0.002334340,-0.013432900,-0.009770460,-0.000990473,-0.029939800,-0.011775400,0.007580620,1749760865.545172930,0.003958638,0.002422920,-0.720028000,-0.714578311,-0.237200000,-0.022227100,-0.253144225,1.270920000,,,,,
1749760865.555156,0.003864360,0.002184860,-0.013759400,-0.008706960,-0.001248060,-0.029652000,-0.012116200,0.007637420,1749760865.555155993,0.003814467,0.002270845,-0.720009000,-0.714517002,-0.237199000,-0.022394300,-0.253262274,1.270740000,,,,,
1749760865.564771,0.003536660,0.002056670,-0.014060000,-0.009245630,-0.001242400,-0.027572100,-0.012333700,0.007472090,1749760865.564770937,0.003489393,0.002135882,-0.720018000,-0.714487361,-0.237196000,-0.022547100,-0.253368653,1.270560000,,,,,
1749760865.574849,0.003219800,0.001926760,-0.014197400,-0.009633120,-0.001219350,-0.025515600,-0.012413900,0.007323340,1749760865.574848890,0.003175273,0.001999290,-0.720029000,-0.714464192,-0.237194000,-0.022682100,-0.253463357,1.270390000,,,,,
1749760865.585113,0.002795750,0.001778130,-0.014311400,-0.009229100,-0.001147330,-0.023263600,-0.012368400,0.007285710,1749760865.585113049,0.002754486,0.001841404,-0.720058000,-0.714463352,-0.237196000,-0.022799600,-0.253549965,1.270240000,,,,,
1749760865.595030,0.002526110,0.001560840,-0.014636300,-0.007233560,-0.001390290,-0.023334700,-0.011641300,0.007483330,1749760865.595030069,0.002489841,0.001618069,-0.720070000,-0.714470440,-0.237210000,-0.022817700,-0.253577167,1.270050000,,,,,
1749760865.605028,0.002256130,0.001357150,-0.014865200,-0.004955980,-0.001706070,-0.023902000,-0.010998700,0.007741890,1749760865.605027914,0.002224546,0.001408323,-0.720084000,-0.714478284,-0.237224000,-0.022840700,-0.253607916,1.269870000,,,,,
1749760865.615053,0.002021060,0.001165330,-0.015079900,-0.002552360,-0.002001980,-0.024293600,-0.010211800,0.008041530,1749760865.615052938,0.001993923,0.001211176,-0.720095000,-0.714490052,-0.237238000,-0.022836400,-0.253619091,1.269690000,,,,,
1749760865.624854,0.001798340,0.000987873,-0.015133500,-0.000435378,-0.002263240,-0.024419700,-0.009435700,0.008323560,1749760865.624854088,0.001775325,0.001028660,-0.720107000,-0.714504443,-0.237252000,-0.022825700,-0.253625716,1.269530000,,,,,
1749760865.634863,0.001562810,0.000790198,-0.015125400,0.001223750,-0.002498110,-0.024355600,-0.008053910,0.008560250,1749760865.634862900,0.001544455,0.000825497,-0.720124000,-0.714547963,-0.237271000,-0.022719400,-0.253569144,1.269380000,,,,,
1749760865.645121,0.001636310,0.000649636,-0.015267000,0.001950110,-0.002501420,-0.022701900,-0.005878430,0.008678020,1749760865.645121098,0.001621291,0.000686259,-0.720097000,-0.714580399,-0.237284000,-0.022483800,-0.253413179,1.269210000,,,,,
1749760865.655099,0.001685870,0.000521404,-0.015255300,0.002565740,-0.002489890,-0.021059900,-0.003930770,0.008786960,1749760865.655098915,0.001673847,0.000558799,-0.720074000,-0.714613910,-0.237296000,-0.022259700,-0.253264521,1.269050000,,,,,
1749760865.664742,0.002084810,0.000296227,-0.015290600,0.001951940,-0.002817370,-0.021864500,0.000860932,0.008723440,1749760865.664741993,0.002077925,0.000341192,-0.719999000,-0.714704559,-0.237323000,-0.021602800,-0.252820410,1.268900000,,,,,
1749760865.675157,0.002359920,-0.000017038,-0.015432500,0.000875394,-0.002924500,-0.021096900,0.005278580,0.008586560,1749760865.675157070,0.002359759,0.000032409,-0.719938000,-0.714806955,-0.237366000,-0.020952400,-0.252397225,1.268720000,,,,,
1749760865.685045,0.002578740,-0.000289848,-0.015419400,-0.000070403,-0.003011150,-0.020241200,0.009081140,0.008457900,1749760865.685045004,0.002584103,-0.000237321,-0.719883000,-0.714903772,-0.237406000,-0.020347200,-0.252003450,1.268570000,,,,,
1749760865.695045,0.002537810,-0.000640496,-0.015504000,-0.001407680,-0.002923660,-0.018245700,0.012507300,0.008262920,1749760865.695044994,0.002549969,-0.000590231,-0.719863000,-0.715030915,-0.237460000,-0.019758600,-0.251636209,1.268400000,,,,,
1749760865.705037,0.002359960,-0.001025930,-0.015725500,-0.002620920,-0.002647470,-0.015088700,0.015469000,0.008072580,1749760865.705037117,0.002379225,-0.000980425,-0.719863000,-0.715169373,-0.237522000,-0.019203200,-0.251301030,1.268220000,,,,,
1749760865.714875,0.002184090,-0.001352700,-0.015779300,-0.003654860,-0.002379300,-0.012204300,0.017912700,0.007896160,1749760865.714874983,0.002208994,-0.001311638,-0.719865000,-0.715298283,-0.237580000,-0.018693500,-0.250994503,1.268050000,,,,,
1749760865.724859,0.002055430,-0.001693320,-0.015937400,-0.005080120,-0.002263120,-0.010564600,0.021526600,0.007652540,1749760865.724858999,0.002085558,-0.001656072,-0.719862000,-0.715470698,-0.237643000,-0.017989400,-0.250553735,1.267870000,,,,,
1749760865.734867,0.001893280,-0.002005070,-0.016117200,-0.006920620,-0.002134010,-0.008948750,0.024091400,0.007334350,1749760865.734867096,0.001927883,-0.001971822,-0.719865000,-0.715619796,-0.237705000,-0.017401500,-0.250195110,1.267690000,,,,,
1749760865.744960,0.001761040,-0.002307570,-0.016292200,-0.009307100,-0.002032670,-0.007635220,0.025293900,0.006918430,1749760865.744960070,0.001799980,-0.002277326,-0.719865000,-0.715722628,-0.237769000,-0.016985900,-0.249961667,1.267500000,,,,,
1749760865.755177,0.001602780,-0.002587740,-0.016497000,-0.010640500,-0.001899090,-0.006190240,0.024795600,0.006631640,1749760865.755177021,0.001646039,-0.002560441,-0.719871000,-0.715772683,-0.237833000,-0.016805300,-0.249896495,1.267310000,,,,,
1749760865.764710,0.001376520,-0.002808450,-0.016766700,-0.013382400,-0.001944030,-0.006073510,0.024287400,0.006126890,1749760865.764709949,0.001423035,-0.002785169,-0.719888000,-0.715832213,-0.237891000,-0.016631200,-0.249830150,1.267100000,,,,,
1749760865.774952,0.001235900,-0.002945360,-0.017060900,-0.016115900,-0.002183580,-0.007304330,0.022324600,0.005595930,1749760865.774951935,0.001284835,-0.002924345,-0.719894000,-0.715826843,-0.237939000,-0.016673500,-0.249908523,1.266890000,,,,,
1749760865.784977,0.000973273,-0.003085690,-0.017292500,-0.018056100,-0.002374340,-0.008114540,0.020222000,0.005152900,1749760865.784976959,0.001024837,-0.003068950,-0.719920000,-0.715831457,-0.237989000,-0.016755700,-0.250017792,1.266690000,,,,,
1749760865.795053,0.000735813,-0.003180640,-0.017341100,-0.019586800,-0.002547610,-0.008748660,0.018210800,0.004749960,1749760865.795053005,0.000789286,-0.003167794,-0.719945000,-0.715833207,-0.238033000,-0.016845700,-0.250126630,1.266510000,,,,,
1749760865.804708,0.000159977,-0.003300950,-0.017450900,-0.019751000,-0.002419190,-0.007262570,0.015768000,0.004530230,1749760865.804708004,0.000216128,-0.003297750,-0.720021000,-0.715865130,-0.238082000,-0.017018500,-0.250300609,1.266320000,,,,,
1749760865.815080,-0.000314107,-0.003322330,-0.017604600,-0.019542900,-0.002521840,-0.007469180,0.013650500,0.004362960,1749760865.815079927,-0.000257024,-0.003327233,-0.720088000,-0.715893957,-0.238119000,-0.017168400,-0.250446059,1.266120000,,,,,
1749760865.824979,-0.000724417,-0.003311540,-0.017582600,-0.019188400,-0.002613070,-0.007583060,0.011684600,0.004219030,1749760865.824979067,-0.000666964,-0.003323588,-0.720151000,-0.715919061,-0.238150000,-0.017317500,-0.250584882,1.265950000,,,,,
1749760865.835068,-0.001171430,-0.003316410,-0.017580700,-0.018844200,-0.002929500,-0.009239140,0.010696800,0.004077150,1749760865.835067987,-0.001113736,-0.003336228,-0.720223000,-0.715983770,-0.238184000,-0.017344200,-0.250639241,1.265770000,,,,,
1749760865.845052,-0.001399020,-0.003401210,-0.017580300,-0.018835400,-0.003397230,-0.011822600,0.009808370,0.003889990,1749760865.845052004,-0.001339746,-0.003424992,-0.720268000,-0.716022425,-0.238230000,-0.017366300,-0.250701839,1.265600000,,,,,
1749760865.854763,-0.001584940,-0.003444980,-0.017424300,-0.018660800,-0.003827290,-0.013969000,0.008947410,0.003727000,1749760865.854763031,-0.001524784,-0.003472025,-0.720309000,-0.716055954,-0.238270000,-0.017393300,-0.250761878,1.265440000,,,,,
1749760865.865097,-0.001700650,-0.003472570,-0.017413600,-0.018527000,-0.004426590,-0.017132600,0.009513500,0.003559830,1749760865.865097046,-0.001640598,-0.003501342,-0.720342000,-0.716131340,-0.238308000,-0.017221600,-0.250677490,1.265270000,,,,,
1749760865.875030,-0.001807470,-0.003536250,-0.017319900,-0.017498800,-0.004951030,-0.019563200,0.009946260,0.003523950,1749760865.875030041,-0.001746869,-0.003566576,-0.720374000,-0.716202182,-0.238352000,-0.017063600,-0.250608878,1.265110000,,,,,
1749760865.885417,-0.001884550,-0.003560420,-0.017084900,-0.016447800,-0.005429170,-0.021507700,0.010235300,0.003501640,1749760865.885416985,-0.001824033,-0.003591799,-0.720404000,-0.716266972,-0.238391000,-0.016922100,-0.250547035,1.264970000,,,,,
1749760865.895078,-0.002196880,-0.003569560,-0.017036800,-0.016351300,-0.005399330,-0.019821900,0.009606680,0.003351190,1749760865.895077944,-0.002136204,-0.003606199,-0.720468000,-0.716333093,-0.238428000,-0.016911100,-0.250577233,1.264810000,,,,,
1749760865.904903,-0.002649250,-0.003475090,-0.016964000,-0.016402500,-0.005340220,-0.018050700,0.009064320,0.003180230,1749760865.904902935,-0.002590167,-0.003519348,-0.720556000,-0.716425044,-0.238450000,-0.016893800,-0.250588324,1.264650000,,,,,
1749760865.915497,-0.003019960,-0.003362000,-0.016750400,-0.016301900,-0.005273280,-0.016347400,0.008511470,0.003030830,1749760865.915497065,-0.002962770,-0.003412506,-0.720636000,-0.716507310,-0.238468000,-0.016883500,-0.250600293,1.264510000,,,,,
1749760865.925070,-0.003782730,-0.003384960,-0.016747100,-0.016180100,-0.004621860,-0.010738400,0.004939280,0.002885500,1749760865.925070047,-0.003723547,-0.003449956,-0.720777000,-0.716538845,-0.238505000,-0.017317400,-0.250950598,1.264340000,,,,,
1749760865.935077,-0.004511150,-0.003436880,-0.016751800,-0.015286900,-0.003974260,-0.005541730,0.002533390,0.002853470,1749760865.935076952,-0.004449904,-0.003515818,-0.720921000,-0.716606740,-0.238547000,-0.017617500,-0.251210150,1.264170000,,,,,
1749760865.945024,-0.005001390,-0.003524270,-0.016725300,-0.013601300,-0.003396610,-0.001184230,0.000568640,0.002945480,1749760865.945024014,-0.004937589,-0.003613115,-0.721037000,-0.716656517,-0.238594000,-0.017877600,-0.251445597,1.264010000,,,,,
1749760865.954872,-0.005384010,-0.003612220,-0.016615400,-0.012160700,-0.002880990,0.002446420,0.000184310,0.003018770,1749760865.954871893,-0.005318389,-0.003708158,-0.721143000,-0.716749016,-0.238642000,-0.017927800,-0.251531465,1.263860000,,,,,
1749760865.964821,-0.005669720,-0.003656870,-0.016372500,-0.010797700,-0.002400060,0.005588300,-0.000152206,0.003095180,1749760865.964821100,-0.005603076,-0.003758186,-0.721238000,-0.716831405,-0.238685000,-0.017974800,-0.251609853,1.263730000,,,,,
1749760865.974801,-0.006035950,-0.003710100,-0.016116700,-0.008797590,-0.002120730,0.007126330,-0.000239222,0.003277780,1749760865.974801064,-0.005968236,-0.003818075,-0.721348000,-0.716937023,-0.238729000,-0.017989000,-0.251666004,1.263600000,,,,,
1749760865.985044,-0.006395830,-0.003785550,-0.015822500,-0.006954770,-0.001850870,0.008493310,-0.000106587,0.003457530,1749760865.985044003,-0.006326766,-0.003899879,-0.721460000,-0.717052396,-0.238777000,-0.017972100,-0.251703892,1.263480000,,,,,
1749760865.995054,-0.006652760,-0.003817760,-0.015426100,-0.005287450,-0.001603820,0.009609210,0.000009927,0.003630220,1749760865.995054007,-0.006583139,-0.003936596,-0.721562000,-0.717157627,-0.238819000,-0.017956200,-0.251736316,1.263380000,,,,,
1749760866.005055,-0.007031500,-0.003955760,-0.015204700,-0.004607680,-0.001451140,0.009998730,0.000336218,0.003676100,1749760866.005054951,-0.006959534,-0.004081044,-0.721683000,-0.717289508,-0.238878000,-0.017908700,-0.251763408,1.263260000,,,,,
1749760866.014722,-0.007455330,-0.004060990,-0.015015900,-0.003743520,-0.001136820,0.011474000,-0.000197149,0.003755570,1749760866.014722109,-0.007381100,-0.004194395,-0.721815000,-0.717401832,-0.238932000,-0.017982900,-0.251872995,1.263140000,,,,,
1749760866.025084,-0.007758610,-0.004116730,-0.014718400,-0.002957400,-0.000850089,0.012657800,-0.000660150,0.003832350,1749760866.025084019,-0.007683034,-0.004256111,-0.721934000,-0.717502497,-0.238981000,-0.018052100,-0.251973779,1.263030000,,,,,
1749760866.035024,-0.008456130,-0.004236970,-0.014582300,-0.001904680,-0.000388108,0.014966500,-0.003858640,0.003955710,1749760866.035023928,-0.008376201,-0.004392870,-0.722113000,-0.717561539,-0.239040000,-0.018523400,-0.252374215,1.262900000,,,,,
1749760866.045112,-0.009027080,-0.004371910,-0.014480700,-0.001442290,0.000062251,0.017036200,-0.007327360,0.004003840,1749760866.045111895,-0.008942090,-0.004543214,-0.722280000,-0.717590308,-0.239102000,-0.019065900,-0.252828627,1.262770000,,,,,
1749760866.055120,-0.009444640,-0.004450770,-0.014264000,-0.001026610,0.000472703,0.018688800,-0.010284900,0.004049810,1749760866.055119991,-0.009355741,-0.004634727,-0.722431000,-0.717612939,-0.239157000,-0.019568900,-0.253247488,1.262660000,,,,,
1749760866.064746,-0.009789550,-0.004528590,-0.014124200,-0.000403644,0.000812620,0.019742100,-0.012920400,0.004130050,1749760866.064745903,-0.009696768,-0.004723992,-0.722576000,-0.717633700,-0.239213000,-0.020054600,-0.253654899,1.262540000,,,,,
1749760866.075184,-0.010095300,-0.004591190,-0.013997300,0.000689469,0.001038510,0.019938100,-0.014040100,0.004284820,1749760866.075184107,-0.009999802,-0.004795630,-0.722718000,-0.717700500,-0.239267000,-0.020346500,-0.253921243,1.262410000,,,,,
1749760866.084959,-0.010272400,-0.004605080,-0.013762700,0.001635840,0.001237060,0.019932300,-0.014891500,0.004429210,1749760866.084959030,-0.010175311,-0.004815807,-0.722845000,-0.717759398,-0.239315000,-0.020610600,-0.254161386,1.262310000,,,,,
1749760866.094957,-0.009994400,-0.004641320,-0.013606800,0.003412620,0.001306510,0.019038400,-0.013756300,0.004703700,1749760866.094957113,-0.009896701,-0.004846152,-0.722907000,-0.717824401,-0.239366000,-0.020594600,-0.254202168,1.262190000,,,,,
1749760866.104966,-0.009608510,-0.004733200,-0.013445500,0.005090840,0.001380360,0.018236300,-0.012330400,0.004981640,1749760866.104965925,-0.009509344,-0.004929404,-0.722951000,-0.717884851,-0.239426000,-0.020525000,-0.254213097,1.262080000,,,,,
1749760866.115077,-0.009187180,-0.004771340,-0.013185900,0.006508060,0.001437720,0.017375800,-0.010978900,0.005238450,1749760866.115077019,-0.009087682,-0.004958224,-0.722986000,-0.717937341,-0.239479000,-0.020451900,-0.254214324,1.261980000,,,,,
1749760866.124959,-0.008735840,-0.004877440,-0.013122700,0.006624450,0.001360890,0.015651000,-0.011290700,0.005320440,1749760866.124958992,-0.008633483,-0.005056411,-0.723012000,-0.717922600,-0.239542000,-0.020607000,-0.254389195,1.261860000,,,,,
1749760866.135062,-0.008323060,-0.004931730,-0.012970600,0.007005830,0.001386740,0.014751700,-0.011015100,0.005442090,1749760866.135061979,-0.008219300,-0.005102783,-0.723039000,-0.717929869,-0.239599000,-0.020679900,-0.254499077,1.261750000,,,,,
1749760866.145035,-0.007848520,-0.005011890,-0.012771700,0.006745970,0.001338420,0.013403700,-0.010852500,0.005474390,1749760866.145035028,-0.007742756,-0.005173783,-0.723054000,-0.717921582,-0.239660000,-0.020766400,-0.254622475,1.261650000,,,,,
1749760866.155006,-0.007251190,-0.005071620,-0.012567200,0.006270710,0.001167770,0.011306500,-0.009885930,0.005472810,1749760866.155005932,-0.007144481,-0.005220869,-0.723045000,-0.717919483,-0.239719000,-0.020734500,-0.254658374,1.261550000,,,,,
1749760866.164791,-0.006666500,-0.005078750,-0.012277700,0.005801060,0.001000800,0.009378930,-0.008956180,0.005467280,1749760866.164791107,-0.006559958,-0.005215637,-0.723033000,-0.717915648,-0.239770000,-0.020698300,-0.254683126,1.261470000,,,,,
1749760866.173233,,,,,,,,,,,,,,,,,,1749760866.173233032,0.000000000,0.000000000,0.000000000,0.000000000
1749760866.174738,-0.005962920,-0.005156070,-0.012154600,0.004325840,0.000874434,0.007863590,-0.006912530,0.005310970,1749760866.174737930,-0.005856023,-0.005277165,-0.722997000,-0.717931191,-0.239832000,-0.020490900,-0.254595474,1.261360000,,,,,
1749760866.184739,-0.005390170,-0.005284730,-0.012088500,0.002892760,0.000810069,0.006879290,-0.004593950,0.005146030,1749760866.184739113,-0.005282201,-0.005392648,-0.722974000,-0.717974889,-0.239903000,-0.020223200,-0.254473795,1.261250000,,,,,
1749760866.193304,,,,,,,,,,,,,,,,,,1749760866.193304062,0.007539230,0.000000000,0.000000000,0.000000000
1749760866.194750,-0.004843370,-0.005350040,-0.011923800,0.001618440,0.000745409,0.005960710,-0.002533000,0.004989820,1749760866.194750071,-0.004735573,-0.005445687,-0.722948000,-0.718012142,-0.239965000,-0.019969700,-0.254353249,1.261150000,,,,,
1749760866.205020,-0.004551270,-0.005486190,-0.011856200,0.000907201,0.000728905,0.005436820,0.000383777,0.004902670,1749760866.205019951,-0.004443033,-0.005574208,-0.722954000,-0.718117990,-0.240038000,-0.019571300,-0.254140276,1.261050000,,,,,
1749760866.213306,,,,,,,,,,,,,,,,,,1749760866.213305950,0.015074900,0.000000000,0.000000000,0.000000000
1749760866.214967,-0.004371610,-0.005714330,-0.011912000,0.000169933,0.000708146,0.004919720,0.003089260,0.004804630,1749760866.214967012,-0.004261244,-0.005797097,-0.722974000,-0.718237111,-0.240126000,-0.019174400,-0.253943603,1.260920000,,,,,
1749760866.225014,-0.004176350,-0.005862520,-0.011855100,-0.000473987,0.000685553,0.004425570,0.005419310,0.004712780,1749760866.225013971,-0.004065373,-0.005940015,-0.722989000,-0.718344380,-0.240205000,-0.018805000,-0.253757536,1.260810000,,,,,
1749760866.233329,,,,,,,,,,,,,,,,,,1749760866.233329058,0.022603400,0.000000000,0.000000000,0.000000000
1749760866.234983,-0.004089530,-0.006066790,-0.011782700,-0.000193814,0.000503062,0.002864830,0.007105820,0.004748750,1749760866.234982967,-0.003976565,-0.006141427,-0.723018000,-0.718447639,-0.240293000,-0.018505800,-0.253631118,1.260700000,,,,,
1749760866.245042,-0.003973330,-0.006224540,-0.011628600,-0.000103643,0.000271991,0.001077140,0.008849260,0.004759910,1749760866.245042086,-0.003859509,-0.006295748,-0.723042000,-0.718552348,-0.240377000,-0.018181400,-0.253482463,1.260600000,,,,,
1749760866.253319,,,,,,,,,,,,,,,,,,1749760866.253319025,0.030121200,0.000000000,0.000000000,0.000000000
1749760866.255110,-0.003836890,-0.006306860,-0.011391300,-0.000024155,0.000055072,-0.000490089,0.010290000,0.004770420,1749760866.255110025,-0.003723493,-0.006374465,-0.723062000,-0.718646477,-0.240451000,-0.017883600,-0.253342812,1.260520000,,,,,
1749760866.264816,-0.003791920,-0.006436600,-0.011267600,-0.000207306,0.000077174,-0.000304220,0.010951400,0.004743570,1749760866.264816046,-0.003677504,-0.006502649,-0.723094000,-0.718727397,-0.240533000,-0.017684700,-0.253282422,1.260430000,,,,,
1749760866.273324,,,,,,,,,,,,,,,,,,1749760866.273324013,0.037624800,0.000000000,0.000000000,0.000000000
1749760866.275050,-0.003919840,-0.006525030,-0.011191800,-0.000334534,0.000312171,0.001334240,0.010728000,0.004723020,1749760866.275049925,-0.003804348,-0.006593034,-0.723151000,-0.718802559,-0.240610000,-0.017607600,-0.253304999,1.260320000,,,,,
1749760866.285044,-0.003996580,-0.006544300,-0.011026700,-0.000442431,0.000531210,0.002750090,0.010438400,0.004703990,1749760866.285043955,-0.003881168,-0.006613399,-0.723201000,-0.718867872,-0.240678000,-0.017542400,-0.253326999,1.260240000,,,,,
1749760866.293326,,,,,,,,,,,,,,,,,,1749760866.293325901,0.045110500,0.000000000,0.000000000,0.000000000
1749760866.295161,-0.004162400,-0.006562250,-0.010980500,-0.000357894,0.000853336,0.004778040,0.010030300,0.004711850,1749760866.295161009,-0.004046947,-0.006634073,-0.723265000,-0.718942097,-0.240746000,-0.017497300,-0.253363687,1.260130000,,,,,
1749760866.304839,-0.004373480,-0.006518930,-0.010948100,0.000659597,0.001127240,0.006334510,0.009613850,0.004856100,1749760866.304838896,-0.004259015,-0.006594283,-0.723337000,-0.719023122,-0.240806000,-0.017457500,-0.253396321,1.260030000,,,,,
1749760866.313307,,,,,,,,,,,,,,,,,,1749760866.313307047,0.052574900,0.000000000,0.000000000,0.000000000
1749760866.315104,-0.004518670,-0.006423450,-0.010823000,0.001540340,0.001379470,0.007634640,0.009165870,0.004990650,1749760866.315104008,-0.004406052,-0.006501215,-0.723402000,-0.719095104,-0.240857000,-0.017426400,-0.253426084,1.259940000,,,,,
1749760866.325171,-0.004576180,-0.006306920,-0.010747400,0.002533790,0.001614350,0.008725790,0.008373420,0.005150380,1749760866.325170994,-0.004465434,-0.006385810,-0.723456000,-0.719142320,-0.240904000,-0.017449900,-0.253490918,1.259840000,,,,,
1749760866.333310,,,,,,,,,,,,,,,,,,1749760866.333309889,0.060014300,0.000000000,0.000000000,0.000000000
1749760866.335117,-0.004438990,-0.006239400,-0.010732900,0.003819410,0.001710470,0.008786800,0.008464400,0.005362500,1749760866.335117102,-0.004330055,-0.006315487,-0.723481000,-0.719190956,-0.240957000,-0.017353000,-0.253474657,1.259730000,,,,,
1749760866.345002,-0.004134030,-0.006189170,-0.010746300,0.004234030,0.001602150,0.007436420,0.008933490,0.005460930,1749760866.345001936,-0.004026969,-0.006259357,-0.723481000,-0.719228715,-0.241013000,-0.017200200,-0.253420754,1.259620000,,,,,
1749760866.353303,,,,,,,,,,,,,,,,,,1749760866.353302956,0.067425400,0.000000000,0.000000000,0.000000000
1749760866.355028,-0.003831690,-0.006090590,-0.010662800,0.004557810,0.001496000,0.006193920,0.009263110,0.005550310,1749760866.355027914,-0.003727214,-0.006155080,-0.723479000,-0.719260702,-0.241060000,-0.017062900,-0.253368960,1.259530000,,,,,
1749760866.364975,-0.003575340,-0.006018490,-0.010689800,0.006670390,0.001349630,0.004760060,0.009030130,0.005902810,1749760866.364974976,-0.003472488,-0.006078413,-0.723480000,-0.719275706,-0.241111000,-0.017004200,-0.253377749,1.259420000,,,,,
1749760866.373326,,,,,,,,,,,,,,,,,,1749760866.373326063,0.074804600,0.000000000,0.000000000,0.000000000
1749760866.375067,-0.003362000,-0.005933460,-0.010609200,0.008799540,0.001065050,0.002473660,0.009730350,0.006278840,1749760866.375066996,-0.003261776,-0.005989141,-0.723485000,-0.719328576,-0.241158000,-0.016812100,-0.253286649,1.259320000,,,,,
1749760866.385038,-0.003185190,-0.005830860,-0.010513800,0.010638600,0.000870157,0.000961888,0.010029500,0.006634010,1749760866.385037899,-0.003087543,-0.005883149,-0.723493000,-0.719371455,-0.241203000,-0.016671400,-0.253230564,1.259230000,,,,,
1749760866.393304,,,,,,,,,,,,,,,,,,1749760866.393304110,0.082148400,0.000000000,0.000000000,0.000000000
1749760866.394967,-0.003091010,-0.005682450,-0.010417600,0.012926100,0.000646213,-0.000645762,0.009916920,0.007072740,1749760866.394967079,-0.002996332,-0.005732938,-0.723511000,-0.719410107,-0.241240000,-0.016587400,-0.253207429,1.259140000,,,,,
1749760866.404996,-0.002946790,-0.005508100,-0.010339000,0.014888700,0.000223354,-0.003511920,0.009996810,0.007487130,1749760866.404995918,-0.002855639,-0.005555903,-0.723521000,-0.719447646,-0.241271000,-0.016476600,-0.253158878,1.259050000,,,,,
1749760866.413298,,,,,,,,,,,,,,,,,,1749760866.413297892,0.089453400,0.000000000,0.000000000,0.000000000
1749760866.414811,-0.002766050,-0.005426480,-0.010274100,0.015303200,-0.000206750,-0.006230670,0.009185000,0.007696240,1749760866.414810896,-0.002676170,-0.005471365,-0.723524000,-0.719445380,-0.241314000,-0.016494600,-0.253214871,1.258950000,,,,,
1749760866.425003,-0.002703150,-0.005308200,-0.010205400,0.016038400,-0.000501923,-0.007833520,0.008444990,0.007956080,1749760866.425003052,-0.002615146,-0.005352104,-0.723543000,-0.719459791,-0.241351000,-0.016510300,-0.253263475,1.258860000,,,,,
1749760866.433306,,,,,,,,,,,,,,,,,,1749760866.433305979,0.096716200,0.000000000,0.000000000,0.000000000
1749760866.435074,-0.002664570,-0.005163340,-0.010185500,0.015208600,-0.000980823,-0.010590700,0.006810060,0.007995910,1749760866.435074091,-0.002578165,-0.005207022,-0.723564000,-0.719441471,-0.241383000,-0.016663400,-0.253405967,1.258760000,,,,,
1749760866.445013,-0.002781290,-0.004993400,-0.010193300,0.013314400,-0.001460170,-0.013161100,0.005503900,0.007872800,1749760866.445013046,-0.002697088,-0.005039378,-0.723608000,-0.719454193,-0.241410000,-0.016785000,-0.253521184,1.258660000,,,,,
1749760866.453307,,,,,,,,,,,,,,,,,,1749760866.453306913,0.103933000,0.000000000,0.000000000,0.000000000
1749760866.454786,-0.002923800,-0.004829470,-0.010179400,0.010859300,-0.001908490,-0.015341100,0.004762270,0.007649260,1749760866.454786062,-0.002842072,-0.004878013,-0.723656000,-0.719488386,-0.241436000,-0.016837700,-0.253585903,1.258560000,,,,,
1749760866.465039,-0.003122430,-0.004730670,-0.010173600,0.008345670,-0.002176900,-0.016132600,0.003684220,0.007392670,1749760866.465039015,-0.003041816,-0.004782903,-0.723714000,-0.719518157,-0.241470000,-0.016946700,-0.253699304,1.258460000,,,,,
1749760866.473303,,,,,,,,,,,,,,,,,,1749760866.473303080,0.111101000,0.000000000,0.000000000,0.000000000
1749760866.475098,-0.003597380,-0.004626380,-0.010233700,0.005983230,-0.002100690,-0.014497600,0.000739026,0.007132900,1749760866.475097895,-0.003516632,-0.004688052,-0.723814000,-0.719518293,-0.241503000,-0.017337800,-0.254015417,1.258350000,,,,,
1749760866.485063,-0.004082720,-0.004545190,-0.010360300,0.004003430,-0.002074790,-0.013321500,-0.003114580,0.006905110,1749760866.485063076,-0.004000757,-0.004617499,-0.723921000,-0.719484240,-0.241537000,-0.017890200,-0.254448749,1.258230000,,,,,
1749760866.493333,,,,,,,,,,,,,,,,,,1749760866.493333101,0.118217000,0.000000000,0.000000000,0.000000000
1749760866.495088,-0.004645700,-0.004515370,-0.010522500,0.002140960,-0.002085280,-0.012476700,-0.006675480,0.006674560,1749760866.495088100,-0.004561657,-0.004600258,-0.724044000,-0.719466789,-0.241578000,-0.018438700,-0.254886608,1.258100000,,,,,
1749760866.504758,-0.004966960,-0.004446320,-0.010734900,0.000584777,-0.002260810,-0.012826100,-0.009527870,0.006469880,1749760866.504757881,-0.004881952,-0.004539493,-0.724137000,-0.719436376,-0.241613000,-0.018919900,-0.255269539,1.257960000,,,,,
1749760866.513297,,,,,,,,,,,,,,,,,,1749760866.513297081,0.125277000,0.000000000,0.000000000,0.000000000
1749760866.514997,-0.005201470,-0.004308320,-0.010885700,-0.000641311,-0.002247210,-0.011849700,-0.011622300,0.006297600,1749760866.514997005,-0.005117270,-0.004407999,-0.724220000,-0.719416840,-0.241638000,-0.019319400,-0.255583533,1.257830000,,,,,
1749760866.524955,-0.005411850,-0.004213190,-0.010965400,-0.000326995,-0.002062850,-0.009765100,-0.013435100,0.006336850,1749760866.524955034,-0.005327810,-0.004318974,-0.724303000,-0.719402181,-0.241667000,-0.019699000,-0.255887234,1.257710000,,,,,
1749760866.533303,,,,,,,,,,,,,,,,,,1749760866.533303022,0.132277000,0.000000000,0.000000000,0.000000000
1749760866.534970,-0.005546180,-0.004097330,-0.011076700,0.000950248,-0.001948790,-0.008307840,-0.015489000,0.006519140,1749760866.534970045,-0.005462575,-0.004208147,-0.724377000,-0.719364847,-0.241692000,-0.020131800,-0.256225052,1.257590000,,,,,
1749760866.544818,-0.005618290,-0.003969730,-0.011198700,0.001508710,-0.001806850,-0.006759000,-0.016516600,0.006609780,1749760866.544817924,-0.005535998,-0.004083708,-0.724443000,-0.719352412,-0.241715000,-0.020435900,-0.256468143,1.257460000,,,,,
1749760866.553333,,,,,,,,,,,,,,,,,,1749760866.553333044,0.139216000,0.000000000,0.000000000,0.000000000
1749760866.555077,-0.005666990,-0.003854640,-0.011298800,0.001197580,-0.001506470,-0.004226230,-0.017164300,0.006579670,1749760866.555077076,-0.005586010,-0.003971086,-0.724506000,-0.719348397,-0.241738000,-0.020695200,-0.256678961,1.257330000,,,,,
1749760866.565035,-0.005626100,-0.003771520,-0.011388400,0.000032317,-0.001101750,-0.001149520,-0.017451800,0.006422350,1749760866.565035105,-0.005546019,-0.003888321,-0.724557000,-0.719344050,-0.241764000,-0.020908600,-0.256859525,1.257210000,,,,,
1749760866.573306,,,,,,,,,,,,,,,,,,1749760866.573306084,0.146089000,0.000000000,0.000000000,0.000000000
1749760866.574992,-0.005456980,-0.003701530,-0.011550300,-0.002867200,-0.000771288,0.001204200,-0.017718900,0.006001430,1749760866.574991941,-0.005377585,-0.003815958,-0.724588000,-0.719319647,-0.241792000,-0.021121900,-0.257041603,1.257070000,,,,,
1749760866.584970,-0.005359420,-0.003676570,-0.011617800,-0.004955710,-0.000321035,0.004220480,-0.016996500,0.005669330,1749760866.584969997,-0.005280300,-0.003789324,-0.724629000,-0.719341353,-0.241825000,-0.021194200,-0.257127471,1.256940000,,,,,
1749760866.593336,,,,,,,,,,,,,,,,,,1749760866.593336105,0.152893000,0.000000000,0.000000000,0.000000000
1749760866.595251,-0.005226950,-0.003622260,-0.011573700,-0.006731650,0.000097573,0.006811320,-0.016216500,0.005361760,1749760866.595251083,-0.005148800,-0.003732511,-0.724663000,-0.719360174,-0.241854000,-0.021250800,-0.257197901,1.256830000,,,,,
