time,filtered_pose/dx,filtered_pose/dy,filtered_pose/dz,filtered_pose/p,filtered_pose/pitch,filtered_pose/q,filtered_pose/r,filtered_pose/roll,filtered_pose/timestamp,filtered_pose/vxb,filtered_pose/vyb,filtered_pose/x,filtered_pose/xb,filtered_pose/y,filtered_pose/yaw,filtered_pose/yb,filtered_pose/z,u_control/timestamp,u_control/ux,u_control/uy,u_control/uyaw,u_control/uz
1749760806.584475,-0.014098600,0.005829600,-0.049582400,0.008878030,-0.015407000,-0.005926400,0.002855590,0.014304500,1749760806.584475040,-0.014113520,0.005793385,-0.597589000,-0.596038789,-0.603051000,-0.002567350,-0.604583231,1.225510000,,,,,
1749760806.594899,-0.015321900,0.005340830,-0.048814900,0.005564630,-0.015107700,-0.003458120,0.002177160,0.013911900,1749760806.594898939,-0.015335932,0.005300402,-0.597908000,-0.596315426,-0.603064000,-0.002637360,-0.604638799,1.225120000,,,,,
1749760806.604456,-0.016299800,0.004821090,-0.047966200,0.004178350,-0.015132500,-0.003390930,0.001224190,0.013766100,1749760806.604455948,-0.016313016,0.004776181,-0.598203000,-0.596539811,-0.603086000,-0.002754040,-0.604731186,1.224760000,,,,,
1749760806.614479,-0.017051900,0.004251840,-0.046957700,0.003070400,-0.015384400,-0.004891320,0.000513744,0.013646900,1749760806.614479065,-0.017063928,0.004203310,-0.598476000,-0.596757698,-0.603120000,-0.002845010,-0.604820227,1.224430000,,,,,
1749760806.624334,-0.017564200,0.003737230,-0.045856400,0.001090030,-0.015788000,-0.007332410,0.000317057,0.013389900,1749760806.624334097,-0.017574848,0.003686833,-0.598721000,-0.596988428,-0.603152000,-0.002868450,-0.604866918,1.224120000,,,,,
1749760806.634524,-0.018069200,0.003308250,-0.044772200,-0.001018010,-0.016101400,-0.008985520,-0.000126492,0.013094600,1749760806.634524107,-0.018078815,0.003255298,-0.598970000,-0.597200292,-0.603177000,-0.002929720,-0.604929223,1.223810000,,,,,
1749760806.644472,-0.018734200,0.002870220,-0.043793900,-0.001958790,-0.016159800,-0.008768720,-0.001752250,0.012947700,1749760806.644471884,-0.018743196,0.002810871,-0.599247000,-0.597333535,-0.603208000,-0.003167170,-0.605102889,1.223510000,,,,,
1749760806.654669,-0.019565100,0.002426920,-0.042843400,-0.002243610,-0.016125800,-0.007931270,-0.003292950,0.012886800,1749760806.654669046,-0.019573259,0.002360218,-0.599555000,-0.597495346,-0.603244000,-0.003408530,-0.605284093,1.223210000,,,,,
1749760806.664288,-0.020520900,0.002042490,-0.041932400,-0.003818890,-0.015982900,-0.006401800,-0.003652740,0.012635500,1749760806.664288044,-0.020527911,0.001970783,-0.599890000,-0.597778663,-0.603275000,-0.003493730,-0.605367168,1.222910000,,,,,
1749760806.674290,-0.021584400,0.001677130,-0.040982600,-0.004404150,-0.015868300,-0.005172360,-0.003128040,0.012512200,1749760806.674289942,-0.021590064,0.001602567,-0.600249000,-0.598161580,-0.603308000,-0.003454030,-0.605377675,1.222630000,,,,,
1749760806.684584,-0.022426500,0.001215930,-0.039995000,-0.004174000,-0.015730500,-0.003867820,-0.001226330,0.012501600,1749760806.684583902,-0.022430286,0.001143957,-0.600587000,-0.598647717,-0.603358000,-0.003209030,-0.605282192,1.222370000,,,,,
1749760806.694554,-0.023138400,0.000714886,-0.039020400,-0.002472850,-0.015623500,-0.002865080,0.001040540,0.012707000,1749760806.694554090,-0.023140371,0.000647968,-0.600915000,-0.599167426,-0.603419000,-0.002891960,-0.605154296,1.222110000,,,,,
1749760806.704440,-0.023944900,0.000118003,-0.038133400,-0.000422813,-0.015372300,-0.000938758,0.002463880,0.012980100,1749760806.704440117,-0.023945130,0.000053956,-0.601264000,-0.599647633,-0.603498000,-0.002674770,-0.605104082,1.221850000,,,,,
1749760806.714303,-0.024720400,-0.000427782,-0.037298400,0.001418340,-0.014924100,0.002211400,0.002636240,0.013243400,1749760806.714303017,-0.024719192,-0.000492674,-0.601616000,-0.600029488,-0.603576000,-0.002625090,-0.605153215,1.221590000,,,,,
1749760806.724283,-0.025249600,-0.000926323,-0.036497500,0.002484730,-0.014159100,0.007324640,0.003168230,0.013412500,1749760806.724282980,-0.025247184,-0.000989985,-0.601940000,-0.600416019,-0.603653000,-0.002521430,-0.605168829,1.221330000,,,,,
1749760806.734463,-0.025617500,-0.001385830,-0.035644100,0.002922160,-0.013353300,0.012367000,0.003929100,0.013500900,1749760806.734462976,-0.025614130,-0.001446775,-0.602246000,-0.600807899,-0.603729000,-0.002379210,-0.605160160,1.221090000,,,,,
1749760806.744575,-0.026076600,-0.001856550,-0.034819500,0.002818920,-0.012478200,0.017539200,0.005177460,0.013515100,1749760806.744575024,-0.026072532,-0.001912834,-0.602569000,-0.601264235,-0.603811000,-0.002158560,-0.605110274,1.220850000,,,,,
1749760806.754496,-0.026619500,-0.002426820,-0.033989100,0.002918410,-0.011563600,0.022627400,0.005412580,0.013557800,1749760806.754496098,-0.026614413,-0.002481987,-0.602908000,-0.601655024,-0.603913000,-0.002072620,-0.605161301,1.220620000,,,,,
1749760806.764284,-0.027231900,-0.003024700,-0.033184500,0.003661720,-0.010682800,0.027132300,0.005373300,0.013695000,1749760806.764283895,-0.027225722,-0.003079817,-0.603264000,-0.602040100,-0.604024000,-0.002024200,-0.605243889,1.220400000,,,,,
1749760806.774539,-0.027773600,-0.003608710,-0.032311100,0.005294490,-0.009953990,0.030281200,0.005848140,0.013968800,1749760806.774538994,-0.027766688,-0.003661514,-0.603615000,-0.602465151,-0.604139000,-0.001901480,-0.605285669,1.220200000,,,,,
1749760806.784449,-0.028284900,-0.004073900,-0.031423000,0.006865930,-0.009331110,0.032484300,0.006356250,0.014250000,1749760806.784449100,-0.028277648,-0.004123935,-0.603967000,-0.602897041,-0.604243000,-0.001769180,-0.605310580,1.220000000,,,,,
1749760806.794688,-0.028779200,-0.004514900,-0.030466300,0.008722990,-0.008930750,0.033004100,0.007774010,0.014588500,1749760806.794687986,-0.028772397,-0.004558054,-0.604321000,-0.603414012,-0.604347000,-0.001499650,-0.605252590,1.219830000,,,,,
1749760806.804666,-0.029300000,-0.004910700,-0.029404100,0.010016700,-0.008654960,0.032630700,0.009598990,0.014863700,1749760806.804666042,-0.029294300,-0.004944590,-0.604685000,-0.603985386,-0.604450000,-0.001156770,-0.605149077,1.219680000,,,,,
1749760806.814277,-0.029828400,-0.005304620,-0.028237300,0.010803500,-0.008470930,0.031651300,0.010983000,0.015078100,1749760806.814276934,-0.029823829,-0.005330262,-0.605054000,-0.604534038,-0.604556000,-0.000859703,-0.605075943,1.219550000,,,,,
1749760806.824556,-0.030378900,-0.005746410,-0.027111000,0.010658400,-0.007999330,0.032718900,0.011023700,0.015165100,1749760806.824556112,-0.030374616,-0.005769009,-0.605433000,-0.604982979,-0.604674000,-0.000743960,-0.605124251,1.219430000,,,,,
1749760806.834602,-0.030896000,-0.006279990,-0.026037900,0.011357200,-0.007367650,0.034814700,0.009546380,0.015373200,1749760806.834602118,-0.030890661,-0.006306199,-0.605812000,-0.605298689,-0.604809000,-0.000848356,-0.605322727,1.219320000,,,,,
1749760806.844725,-0.031429000,-0.006812040,-0.024886300,0.011301000,-0.006725080,0.036841300,0.006148580,0.015478600,1749760806.844724894,-0.031420484,-0.006851212,-0.606198000,-0.605443442,-0.604949000,-0.001246530,-0.605704174,1.219220000,,,,,
1749760806.854429,-0.031928700,-0.007326620,-0.023731600,0.010473500,-0.006102440,0.038591200,0.003078850,0.015471400,1749760806.854429007,-0.031916708,-0.007378687,-0.606585000,-0.605597276,-0.605092000,-0.001631020,-0.606080547,1.219140000,,,,,
1749760806.864265,-0.032419700,-0.007912290,-0.022457600,0.009807910,-0.005457180,0.040376300,0.001245120,0.015479400,1749760806.864264965,-0.032404874,-0.007972792,-0.606976000,-0.605845159,-0.605250000,-0.001866640,-0.606381951,1.219090000,,,,,
1749760806.874447,-0.032668500,-0.008496790,-0.021173100,0.009224850,-0.004957310,0.041037800,-0.000535585,0.015492800,1749760806.874447107,-0.032650474,-0.008565796,-0.607336000,-0.606055472,-0.605414000,-0.002112890,-0.606695882,1.219050000,,,,,
1749760806.884514,-0.032877800,-0.009048340,-0.019769500,0.008316830,-0.004778800,0.039441800,-0.001148220,0.015453100,1749760806.884514093,-0.032857748,-0.009120888,-0.607693000,-0.606354850,-0.605579000,-0.002207260,-0.606918860,1.219050000,,,,,
1749760806.894485,-0.033111400,-0.009623470,-0.018288000,0.007077720,-0.004884080,0.036002300,-0.001719640,0.015356300,1749760806.894484997,-0.033089161,-0.009699659,-0.608056000,-0.606660099,-0.605753000,-0.002301750,-0.607150987,1.219060000,,,,,
1749760806.904431,-0.033378600,-0.010149700,-0.016737200,0.005447290,-0.005065560,0.032275100,-0.001912630,0.015190200,1749760806.904431105,-0.033354687,-0.010228011,-0.608426000,-0.607002223,-0.605926000,-0.002346990,-0.607352300,1.219110000,,,,,
1749760806.914606,-0.033633000,-0.010675000,-0.015286300,0.003420770,-0.005650860,0.026024800,-0.001577000,0.014950200,1749760806.914606094,-0.033608172,-0.010752911,-0.608796000,-0.607389812,-0.606104000,-0.002317350,-0.607513165,1.219150000,,,,,
1749760806.924598,-0.033726400,-0.011282400,-0.013787800,0.000116143,-0.006356380,0.019377300,-0.001299840,0.014504400,1749760806.924597979,-0.033700442,-0.011359700,-0.609146000,-0.607754241,-0.606299000,-0.002292860,-0.607694092,1.219210000,,,,,
1749760806.934704,-0.033640500,-0.011899400,-0.012225900,-0.004628070,-0.007069720,0.013133400,-0.001019500,0.013816300,1749760806.934704065,-0.033613460,-0.011975570,-0.609471000,-0.608095634,-0.606501000,-0.002265130,-0.607879974,1.219300000,,,,,
1749760806.944615,-0.033577800,-0.012507100,-0.010730800,-0.011198600,-0.007853790,0.006832590,-0.000460230,0.012815400,1749760806.944614887,-0.033550278,-0.012580742,-0.609798000,-0.608465373,-0.606708000,-0.002194070,-0.608044478,1.219400000,,,,,
1749760806.954744,-0.033552300,-0.013159000,-0.009397800,-0.018317300,-0.008599880,0.001226810,-0.000096450,0.011669200,1749760806.954744101,-0.033523986,-0.013230967,-0.610130000,-0.608826238,-0.606928000,-0.002145820,-0.608235831,1.219480000,,,,,
1749760806.964290,-0.033483500,-0.013824600,-0.008115330,-0.023789800,-0.009272220,-0.003485440,0.000516176,0.010691000,1749760806.964289904,-0.033454981,-0.013893472,-0.610456000,-0.609205315,-0.607156000,-0.002057780,-0.608410898,1.219580000,,,,,
1749760806.974840,-0.033509300,-0.014468400,-0.006903290,-0.028060700,-0.009965260,-0.008015840,0.002011960,0.009832580,1749760806.974839926,-0.033482690,-0.014529876,-0.610795000,-0.609679227,-0.607388000,-0.001835310,-0.608507975,1.219670000,,,,,
1749760806.984535,-0.033642800,-0.014978700,-0.005827530,-0.032041900,-0.010537200,-0.011400900,0.002000750,0.008973590,1749760806.984534979,-0.033615531,-0.015039798,-0.611149000,-0.610044079,-0.607607000,-0.001816820,-0.608716344,1.219760000,,,,,
1749760806.994638,-0.033921300,-0.015412700,-0.004803320,-0.035119500,-0.010831600,-0.012642500,0.001824740,0.008206050,1749760806.994637966,-0.033893156,-0.015474492,-0.611526000,-0.610417306,-0.607820000,-0.001822380,-0.608933423,1.219850000,,,,,
1749760807.004518,-0.034172700,-0.015839700,-0.003837300,-0.037176900,-0.010901800,-0.012255300,0.001531860,0.007555950,1749760807.004518032,-0.034143391,-0.015902779,-0.611902000,-0.610778103,-0.608036000,-0.001846690,-0.609164956,1.219940000,,,,,
1749760807.014287,-0.034336300,-0.016247800,-0.002935620,-0.037647100,-0.010801200,-0.010719500,0.000069255,0.007115860,1749760807.014286995,-0.034303020,-0.016317945,-0.612267000,-0.611022536,-0.608254000,-0.002043860,-0.609504117,1.220030000,,,,,
1749760807.024468,-0.034440500,-0.016605100,-0.002186650,-0.038501800,-0.010904200,-0.010691000,-0.000873167,0.006615220,1749760807.024467945,-0.034404218,-0.016680144,-0.612626000,-0.611298036,-0.608468000,-0.002180080,-0.609802127,1.220110000,,,,,
1749760807.034498,-0.034518600,-0.017026300,-0.001498420,-0.037741500,-0.011009800,-0.010681500,-0.000727806,0.006340660,1749760807.034497976,-0.034481611,-0.017101086,-0.612981000,-0.611660093,-0.608695000,-0.002167700,-0.610022328,1.220190000,,,,,
1749760807.044439,-0.034503300,-0.017437000,-0.000903936,-0.036573500,-0.010995300,-0.009846930,-0.001058400,0.006132940,1749760807.044439077,-0.034464452,-0.017513658,-0.613324000,-0.611968845,-0.608925000,-0.002223000,-0.610286914,1.220260000,,,,,
1749760807.054429,-0.034561600,-0.017829800,-0.000378250,-0.035545000,-0.010705700,-0.007175270,-0.001350480,0.005916620,1749760807.054429054,-0.034520930,-0.017908417,-0.613678000,-0.612289958,-0.609157000,-0.002276020,-0.610552164,1.220330000,,,,,
1749760807.064421,-0.034661300,-0.018277400,0.000119363,-0.034224000,-0.010321500,-0.004037390,-0.002002670,0.005753090,1749760807.064420938,-0.034617623,-0.018359990,-0.614038000,-0.612583276,-0.609400000,-0.002384280,-0.610862305,1.220400000,,,,,
1749760807.074248,-0.034804300,-0.018719700,0.000537224,-0.032587100,-0.009851030,-0.000520851,-0.003294730,0.005648670,1749760807.074248075,-0.034755661,-0.018809850,-0.614405000,-0.612822721,-0.609647000,-0.002592020,-0.611237500,1.220460000,,,,,
1749760807.084513,-0.034980100,-0.019105600,0.000775800,-0.030154500,-0.009345710,0.002993220,-0.005272660,0.005676210,1749760807.084512949,-0.034924310,-0.019207392,-0.614779000,-0.613000201,-0.609890000,-0.002912320,-0.611677844,1.220500000,,,,,
1749760807.094597,-0.035164000,-0.019523500,0.000999720,-0.027405100,-0.008699930,0.007232210,-0.006011330,0.005774090,1749760807.094597101,-0.035103851,-0.019631444,-0.615155000,-0.613277524,-0.610142000,-0.003072360,-0.612029095,1.220540000,,,,,
1749760807.104494,-0.035365100,-0.019954300,0.001142270,-0.024864400,-0.008131270,0.010648600,-0.005949970,0.005869170,1749760807.104494095,-0.035302599,-0.020064667,-0.615536000,-0.613626379,-0.610400000,-0.003123560,-0.612319683,1.220570000,,,,,
1749760807.114475,-0.035469800,-0.020292600,0.001229450,-0.022924600,-0.007418310,0.014823000,-0.004147370,0.005902340,1749760807.114475012,-0.035410370,-0.020396127,-0.615905000,-0.614118559,-0.610649000,-0.002921180,-0.612445561,1.220600000,,,,,
1749760807.124417,-0.035504600,-0.020623600,0.001253880,-0.021596000,-0.006712780,0.018659000,-0.001768730,0.005866110,1749760807.124417067,-0.035450505,-0.020716448,-0.616265000,-0.614664117,-0.610900000,-0.002617080,-0.612510721,1.220610000,,,,,
1749760807.134549,-0.035671400,-0.020930500,0.001150370,-0.020075900,-0.006072470,0.021782100,0.000628935,0.005871000,1749760807.134548903,-0.035623451,-0.021012005,-0.616644000,-0.615245035,-0.611151000,-0.002286430,-0.612559315,1.220610000,,,,,
1749760807.144403,-0.035698900,-0.021111800,0.001098870,-0.017019400,-0.005608400,0.023477000,0.002339540,0.006114290,1749760807.144402981,-0.035655935,-0.021184283,-0.617005000,-0.615761623,-0.611386000,-0.002031620,-0.612638257,1.220610000,,,,,
1749760807.154404,-0.035490800,-0.021203200,0.001039190,-0.013539000,-0.005342880,0.023688700,0.003550620,0.006449740,1749760807.154403925,-0.035451890,-0.021268193,-0.617332000,-0.616210328,-0.611611000,-0.001832270,-0.612741092,1.220620000,,,,,
1749760807.164227,-0.035161400,-0.021276400,0.000908953,-0.010905700,-0.005118650,0.023601500,0.005128170,0.006696920,1749760807.164227009,-0.035128004,-0.021331492,-0.617639000,-0.616679144,-0.611833000,-0.001567580,-0.612800446,1.220610000,,,,,
1749760807.175001,-0.034753600,-0.021314800,0.000798925,-0.008314580,-0.004833830,0.023937500,0.006697760,0.006964310,1749760807.175000906,-0.034726112,-0.021359554,-0.617931000,-0.617142005,-0.612052000,-0.001288260,-0.612847548,1.220600000,,,,,
1749760807.184475,-0.034436300,-0.021432100,0.000642984,-0.007105460,-0.004472800,0.024774800,0.007151860,0.007056820,1749760807.184474945,-0.034411516,-0.021471870,-0.618233000,-0.617525212,-0.612282000,-0.001155310,-0.612995842,1.220590000,,,,,
1749760807.194656,-0.034281600,-0.021607400,0.000397534,-0.005471460,-0.004082200,0.025758100,0.006074850,0.007223160,1749760807.194655895,-0.034254775,-0.021649902,-0.618554000,-0.617793832,-0.612522000,-0.001240270,-0.613288703,1.220560000,,,,,
1749760807.204520,-0.034198300,-0.021815500,0.000033616,-0.004262370,-0.003611330,0.027226300,0.004519030,0.007344100,1749760807.204519987,-0.034167603,-0.021863546,-0.618885000,-0.618023113,-0.612768000,-0.001405550,-0.613637268,1.220510000,,,,,
1749760807.214263,-0.034244300,-0.022009200,-0.000466938,-0.003110410,-0.002858380,0.030534900,0.003068240,0.007468840,1749760807.214262962,-0.034209678,-0.022062975,-0.619234000,-0.618270111,-0.613014000,-0.001571130,-0.613986140,1.220440000,,,,,
1749760807.224432,-0.034360800,-0.022223300,-0.000975705,-0.001537280,-0.002211400,0.032886400,0.001657460,0.007666280,1749760807.224431992,-0.034321959,-0.022283240,-0.619593000,-0.618521658,-0.613265000,-0.001745410,-0.614345509,1.220360000,,,,,
1749760807.234680,-0.034636900,-0.022484200,-0.001523120,0.000710996,-0.001677430,0.034298100,0.000532949,0.007977540,1749760807.234679937,-0.034594293,-0.022549700,-0.619977000,-0.618814973,-0.613525000,-0.001892210,-0.614697028,1.220270000,,,,,
1749760807.244476,-0.035075400,-0.022603800,-0.002098520,0.003736040,-0.001316590,0.034421100,-0.001138200,0.008424140,1749760807.244476080,-0.035027182,-0.022678448,-0.620387000,-0.619078471,-0.613768000,-0.002129670,-0.615087827,1.220170000,,,,,
1749760807.254181,-0.035525400,-0.022641100,-0.002608230,0.006873820,-0.001014390,0.034131900,-0.001653350,0.008917360,1749760807.254180908,-0.035475143,-0.022719765,-0.620803000,-0.619440923,-0.613999000,-0.002215890,-0.615373123,1.220070000,,,,,
1749760807.264447,-0.035964900,-0.022658500,-0.003044360,0.008153360,-0.000531988,0.035103000,-0.001693070,0.009171990,1749760807.264446974,-0.035914096,-0.022738939,-0.621222000,-0.619845686,-0.614228000,-0.002238190,-0.615616873,1.219980000,,,,,
1749760807.274298,-0.036132300,-0.022701100,-0.003418000,0.008262890,-0.000162058,0.035233100,-0.001645440,0.009269440,1749760807.274297953,-0.036081172,-0.022782275,-0.621606000,-0.620222999,-0.614461000,-0.002248200,-0.615856941,1.219900000,,,,,
1749760807.284440,-0.036077500,-0.022726300,-0.003769580,0.007753530,0.000303766,0.036014300,-0.001093940,0.009278070,1749760807.284440041,-0.036027767,-0.022805058,-0.621960000,-0.620615698,-0.614692000,-0.002184540,-0.616049229,1.219810000,,,,,
1749760807.294388,-0.035997800,-0.022875000,-0.004195820,0.005973910,0.000911039,0.037715300,-0.000781523,0.009097060,1749760807.294388056,-0.035948534,-0.022952346,-0.622309000,-0.620985386,-0.614940000,-0.002150090,-0.616276598,1.219710000,,,,,
1749760807.304221,-0.035663000,-0.023048000,-0.004532180,0.005338300,0.001523480,0.039334900,-0.000067091,0.009064450,1749760807.304220915,-0.035615582,-0.023121207,-0.622620000,-0.621355011,-0.615194000,-0.002054110,-0.616471631,1.219620000,,,,,
1749760807.314502,-0.035217100,-0.023186600,-0.004902200,0.004256960,0.002109690,0.040662400,0.000765019,0.008960740,1749760807.314502001,-0.035172194,-0.023254663,-0.622912000,-0.621720633,-0.615445000,-0.001933890,-0.616648492,1.219520000,,,,,
1749760807.324441,-0.034716300,-0.023334500,-0.005231140,0.002210200,0.002317450,0.039293500,0.001468230,0.008705950,1749760807.324440956,-0.034673679,-0.023397786,-0.623191000,-0.622066888,-0.615698000,-0.001824070,-0.616833719,1.219430000,,,,,
1749760807.334601,-0.034332500,-0.023478300,-0.005516820,-0.000623065,0.002665860,0.038987100,0.002761360,0.008316430,1749760807.334600925,-0.034294384,-0.023533940,-0.623483000,-0.622483402,-0.615952000,-0.001621520,-0.616962180,1.219330000,,,,,
1749760807.344473,-0.034077600,-0.023689400,-0.005801460,-0.003827820,0.003228720,0.040177800,0.004430520,0.007844610,1749760807.344472885,-0.034045555,-0.023735431,-0.623789000,-0.622955667,-0.616218000,-0.001351410,-0.617060432,1.219240000,,,,,
1749760807.354276,-0.033848600,-0.023976500,-0.006020060,-0.007601500,0.003669070,0.040443300,0.006172130,0.007258080,1749760807.354275942,-0.033823308,-0.024012166,-0.624097000,-0.623446816,-0.616497000,-0.001054080,-0.617154506,1.219150000,,,,,
1749760807.364497,-0.033646600,-0.024389200,-0.006396970,-0.011374800,0.004255340,0.041694900,0.007273800,0.006633860,1749760807.364496946,-0.033626289,-0.024417196,-0.624406000,-0.623892420,-0.616796000,-0.000832307,-0.617315484,1.219030000,,,,,
1749760807.374494,-0.033314500,-0.024743900,-0.006738830,-0.014780400,0.004696860,0.041864000,0.007967470,0.006025350,1749760807.374494076,-0.033298192,-0.024765842,-0.624694000,-0.624287330,-0.617092000,-0.000658791,-0.617503409,1.218920000,,,,,
1749760807.384486,-0.032884800,-0.025052000,-0.007037100,-0.017579200,0.005065830,0.041522200,0.007391090,0.005470930,1749760807.384485960,-0.032868187,-0.025073792,-0.624965000,-0.624555627,-0.617384000,-0.000662854,-0.617798125,1.218810000,,,,,
1749760807.394476,-0.032332400,-0.025326500,-0.007369170,-0.020728600,0.005434480,0.041201500,0.004825890,0.004837580,1749760807.394475937,-0.032308031,-0.025357580,-0.625213000,-0.624618743,-0.617674000,-0.000961621,-0.618274932,1.218690000,,,,,
1749760807.404260,-0.031769300,-0.025481700,-0.007641820,-0.022527400,0.005751950,0.040550800,0.003006100,0.004368970,1749760807.404259920,-0.031739267,-0.025519098,-0.625455000,-0.624726782,-0.617950000,-0.001177740,-0.618686195,1.218580000,,,,,
1749760807.414556,-0.031306200,-0.025631300,-0.007911800,-0.024323400,0.006064980,0.039914300,0.000919141,0.003882770,1749760807.414556026,-0.031268979,-0.025676695,-0.625705000,-0.624807369,-0.618227000,-0.001450880,-0.619134172,1.218460000,,,,,
1749760807.424367,-0.031141200,-0.025786300,-0.008281570,-0.026312400,0.006573900,0.040669900,-0.000473059,0.003350570,1749760807.424366951,-0.031098767,-0.025837460,-0.625994000,-0.624976363,-0.618505000,-0.001643950,-0.619533267,1.218330000,,,,,
1749760807.434479,-0.030827700,-0.025891100,-0.008557130,-0.027747100,0.006988160,0.040721900,-0.000544517,0.002879010,1749760807.434478998,-0.030784703,-0.025942209,-0.626260000,-0.625232547,-0.618779000,-0.001659060,-0.619817151,1.218200000,,,,,
1749760807.444263,-0.030424000,-0.026040200,-0.008759470,-0.029194100,0.007536540,0.041693500,-0.000131636,0.002391320,1749760807.444262981,-0.030382179,-0.026088982,-0.626510000,-0.625515901,-0.619059000,-0.001604520,-0.620063451,1.218090000,,,,,
1749760807.454283,-0.029889500,-0.026143000,-0.008873830,-0.030463600,0.008094540,0.042664500,0.000871663,0.001914940,1749760807.454282999,-0.029851297,-0.026186613,-0.626736000,-0.625831055,-0.619334000,-0.001460080,-0.620248424,1.217990000,,,,,
1749760807.464374,-0.029307200,-0.026211500,-0.008967530,-0.031420500,0.008674320,0.043718600,0.001386650,0.001471280,1749760807.464374065,-0.029271091,-0.026251818,-0.626951000,-0.626097494,-0.619606000,-0.001376540,-0.620468436,1.217880000,,,,,
1749760807.474403,-0.028493700,-0.026208100,-0.008985590,-0.030513400,0.009031410,0.043167200,0.001833710,0.001288870,1749760807.474402905,-0.028459665,-0.026245055,-0.627125000,-0.626320052,-0.619867000,-0.001297730,-0.620680317,1.217790000,,,,,
1749760807.484411,-0.027572500,-0.026187700,-0.009009480,-0.029268700,0.009097120,0.040648300,0.001446080,0.001164560,1749760807.484411001,-0.027537496,-0.026224505,-0.627277000,-0.626448131,-0.620127000,-0.001335710,-0.620964307,1.217700000,,,,,
1749760807.494504,-0.026603900,-0.026170500,-0.009007100,-0.027892800,0.009017710,0.037303800,-0.000417273,0.001071760,1749760807.494503975,-0.026562204,-0.026212819,-0.627412000,-0.626423576,-0.620386000,-0.001591960,-0.621384028,1.217610000,,,,,
1749760807.504496,-0.025611200,-0.026220900,-0.008868040,-0.024520700,0.009078160,0.035152200,-0.002034680,0.001282750,1749760807.504496098,-0.025563144,-0.026267753,-0.627533000,-0.626395461,-0.620655000,-0.001831110,-0.621803041,1.217540000,,,,,
1749760807.514496,-0.024644400,-0.026256300,-0.008684500,-0.021707700,0.009436110,0.035196500,-0.003366040,0.001446220,1749760807.514496088,-0.024590658,-0.026306640,-0.627649000,-0.626377978,-0.620922000,-0.002044880,-0.622204168,1.217480000,,,,,
1749760807.524506,-0.023781200,-0.026317700,-0.008598510,-0.020015800,0.009878780,0.035820800,-0.004914140,0.001474940,1749760807.524506092,-0.023720515,-0.026372409,-0.627770000,-0.626337447,-0.621194000,-0.002303450,-0.622638388,1.217400000,,,,,
1749760807.534228,-0.022987700,-0.026240300,-0.008425070,-0.017744000,0.010321700,0.036403800,-0.005823690,0.001604830,1749760807.534228086,-0.022922429,-0.026297337,-0.627893000,-0.626346938,-0.621446000,-0.002484730,-0.623004225,1.217340000,,,,,
1749760807.544169,-0.022257600,-0.026148400,-0.008265730,-0.017081200,0.010786600,0.037098100,-0.006258080,0.001523690,1749760807.544168949,-0.022189380,-0.026206316,-0.628016000,-0.626393682,-0.621695000,-0.002606080,-0.623329547,1.217280000,,,,,
1749760807.554529,-0.021646100,-0.025996600,-0.007978000,-0.015711300,0.011169800,0.037182100,-0.005784380,0.001551890,1749760807.554528952,-0.021578440,-0.026052788,-0.628150000,-0.626530950,-0.621934000,-0.002599840,-0.623564986,1.217240000,,,,,
1749760807.564451,-0.020944400,-0.025901300,-0.007569020,-0.014438700,0.011455400,0.036588900,-0.007303490,0.001579670,1749760807.564450979,-0.020869760,-0.025961479,-0.628265000,-0.626471529,-0.622180000,-0.002878380,-0.623985806,1.217220000,,,,,
1749760807.574392,-0.019896900,-0.025825900,-0.007096020,-0.013633300,0.011409400,0.033753400,-0.008836960,0.001552290,1749760807.574392080,-0.019814823,-0.025888927,-0.628322000,-0.626343127,-0.622428000,-0.003174200,-0.624419281,1.217210000,,,,,
1749760807.584460,-0.018708000,-0.025738200,-0.006614480,-0.011607600,0.011268600,0.030460900,-0.010197600,0.001710260,1749760807.584460020,-0.018618828,-0.025802780,-0.628348000,-0.626189635,-0.622674000,-0.003460250,-0.624844509,1.217210000,,,,,
1749760807.594529,-0.017528000,-0.025578900,-0.006097680,-0.010415900,0.011070700,0.027002300,-0.011700700,0.001767310,1749760807.594528913,-0.017431172,-0.025644983,-0.628364000,-0.626004555,-0.622908000,-0.003780590,-0.625279129,1.217220000,,,,,
1749760807.604410,-0.016461000,-0.025530700,-0.005521910,-0.011770900,0.010740200,0.022869100,-0.012268600,0.001466290,1749760807.604409933,-0.016359255,-0.025596014,-0.628384000,-0.625898796,-0.623157000,-0.003980110,-0.625653095,1.217240000,,,,,
1749760807.614382,-0.015507900,-0.025601800,-0.004918000,-0.014259100,0.010481800,0.019515800,-0.012839600,0.000987094,1749760807.614382029,-0.015400601,-0.025666488,-0.628410000,-0.625795004,-0.623423000,-0.004185760,-0.626047904,1.217270000,,,,,
1749760807.624473,-0.014462300,-0.025711800,-0.004312560,-0.015391400,0.010234100,0.016467800,-0.014214800,0.000680001,1749760807.624473095,-0.014346091,-0.025776820,-0.628413000,-0.625591279,-0.623695000,-0.004513950,-0.626525261,1.217310000,,,,,
1749760807.634453,-0.013338700,-0.025810600,-0.003566400,-0.015474300,0.009937620,0.013293600,-0.014186100,0.000514039,1749760807.634453058,-0.013218487,-0.025872371,-0.628395000,-0.625485571,-0.623966000,-0.004651920,-0.626882481,1.217380000,,,,,
1749760807.644446,-0.012208800,-0.025855700,-0.002761670,-0.013692600,0.009631870,0.010274100,-0.014506700,0.000618146,1749760807.644445896,-0.012083507,-0.025914492,-0.628364000,-0.625335148,-0.624231000,-0.004840360,-0.627265184,1.217460000,,,,,
1749760807.654399,-0.011130100,-0.025884200,-0.001917790,-0.010892600,0.009291250,0.007222380,-0.013505000,0.000888016,1749760807.654398918,-0.011004693,-0.025937765,-0.628329000,-0.625299169,-0.624493000,-0.004839900,-0.627526723,1.217560000,,,,,
1749760807.664423,-0.010071900,-0.025970900,-0.001041770,-0.009160940,0.008829870,0.003549480,-0.013207100,0.001030670,1749760807.664422989,-0.009943698,-0.026020255,-0.628287000,-0.625198244,-0.624765000,-0.004931660,-0.627855888,1.217660000,,,,,
1749760807.674567,-0.009005760,-0.025915500,-0.000186991,-0.006934930,0.008225990,-0.000851461,-0.012724400,0.001262460,1749760807.674566984,-0.008876236,-0.025960148,-0.628233000,-0.625104083,-0.625017000,-0.004993620,-0.628146351,1.217780000,,,,,
1749760807.684468,-0.007852430,-0.025790100,0.000722994,-0.006267020,0.007562680,-0.005358490,-0.011577900,0.001290140,1749760807.684468031,-0.007724563,-0.025828687,-0.628155000,-0.625049599,-0.625257000,-0.004954290,-0.628361376,1.217910000,,,,,
1749760807.694432,-0.006563290,-0.025577300,0.001683370,-0.006138620,0.006596830,-0.011637800,-0.009431670,0.001246130,1749760807.694432020,-0.006441513,-0.025608240,-0.628047000,-0.625063686,-0.625484000,-0.004758260,-0.628465319,1.218050000,,,,,
1749760807.704362,-0.005358960,-0.025244400,0.002787250,-0.004785520,0.005405690,-0.019035500,-0.007304320,0.001381320,1749760807.704361916,-0.005244207,-0.025268488,-0.627937000,-0.625087691,-0.625692000,-0.004543510,-0.628538570,1.218230000,,,,,
1749760807.714390,-0.004227770,-0.024804500,0.003971140,-0.003051490,0.004139280,-0.026442200,-0.005132970,0.001585390,1749760807.714390039,-0.004121045,-0.024822455,-0.627826000,-0.625128229,-0.625880000,-0.004301100,-0.628574545,1.218430000,,,,,
1749760807.724410,-0.003306270,-0.024318500,0.005168120,-0.001132180,0.002823260,-0.033680600,-0.001579240,0.001833720,1749760807.724410057,-0.003212957,-0.024331004,-0.627735000,-0.625328747,-0.626058000,-0.003836130,-0.628461461,1.218640000,,,,,
1749760807.734490,-0.002605430,-0.023898000,0.006450260,0.000577959,0.001258160,-0.042135100,0.001338100,0.002070850,1749760807.734489918,-0.002523490,-0.023906791,-0.627666000,-0.625515509,-0.626240000,-0.003428090,-0.628388012,1.218880000,,,,,
1749760807.744528,-0.001997550,-0.023463900,0.007637850,0.002464670,-0.000460869,-0.051067200,0.002931080,0.002350730,1749760807.744528055,-0.001922848,-0.023470140,-0.627604000,-0.625606766,-0.626416000,-0.003183280,-0.628410662,1.219120000,,,,,
1749760807.754533,-0.001488130,-0.023103000,0.008758610,0.004583140,-0.001965280,-0.057907300,0.004501500,0.002683150,1749760807.754533052,-0.001420529,-0.023107255,-0.627550000,-0.625714010,-0.626598000,-0.002925810,-0.628431407,1.219360000,,,,,
1749760807.764484,-0.000797569,-0.022928100,0.009790740,0.004603300,-0.003495250,-0.064452500,0.003824700,0.002731910,1749760807.764483929,-0.000729260,-0.022930374,-0.627464000,-0.625593894,-0.626804000,-0.002979120,-0.628670506,1.219600000,,,,,
1749760807.774609,-0.000140963,-0.022803500,0.010629200,0.004092110,-0.004850430,-0.069344100,0.002442000,0.002703680,1749760807.774609089,-0.000069319,-0.022803830,-0.627377000,-0.625403976,-0.627015000,-0.003141760,-0.628982970,1.219820000,,,,,
1749760807.784448,0.000389450,-0.022740700,0.011230100,0.002911100,-0.005834480,-0.071344400,0.000961858,0.002573020,1749760807.784447908,0.000465228,-0.022739276,-0.627301000,-0.625207339,-0.627234000,-0.003332380,-0.629320919,1.220010000,,,,,
1749760807.794499,0.000891666,-0.022733400,0.011627600,0.001479270,-0.006643100,-0.071999400,0.000544680,0.002394110,1749760807.794498920,0.000968576,-0.022730253,-0.627224000,-0.625097485,-0.627460000,-0.003383370,-0.629578535,1.220180000,,,,,
1749760807.804554,0.001621130,-0.022614000,0.011953300,-0.000817484,-0.007609060,-0.073692500,0.001632810,0.002075230,1749760807.804553986,0.001693935,-0.022608663,-0.627110000,-0.625085762,-0.627670000,-0.003219830,-0.629685930,1.220340000,,,,,
1749760807.814512,0.002329010,-0.022480200,0.012423200,-0.002627230,-0.008703840,-0.076155700,0.003277760,0.001804130,1749760807.814512014,0.002395643,-0.022473197,-0.626990000,-0.625125894,-0.627877000,-0.002964520,-0.629732963,1.220530000,,,,,
1749760807.824513,0.003225790,-0.022321700,0.013026800,-0.003974110,-0.009855840,-0.078843200,0.004867170,0.001582180,1749760807.824512959,0.003286065,-0.022312906,-0.626837000,-0.625138381,-0.628079000,-0.002700830,-0.629769687,1.220740000,,,,,
1749760807.834480,0.004251670,-0.022143400,0.013594900,-0.004549430,-0.011013100,-0.081382200,0.005189930,0.001458860,1749760807.834480047,0.004309345,-0.022132248,-0.626656000,-0.625017047,-0.628276000,-0.002605270,-0.629906474,1.220960000,,,,,
1749760807.844433,0.005232650,-0.021927000,0.014046800,-0.004561320,-0.012091300,-0.083201300,0.004059480,0.001411640,1749760807.844433069,0.005292219,-0.021912699,-0.626471000,-0.624760770,-0.628466000,-0.002717600,-0.630166175,1.221160000,,,,,
1749760807.854444,0.006170240,-0.021658800,0.014303700,-0.005722850,-0.013173500,-0.084923600,0.003371300,0.001197270,1749760807.854444027,0.006230362,-0.021641582,-0.626282000,-0.624533844,-0.628646000,-0.002776990,-0.630382753,1.221340000,,,,,
1749760807.864580,0.006778700,-0.021390900,0.014421100,-0.006337550,-0.014093100,-0.085408000,0.002797090,0.001050740,1749760807.864579916,0.006839138,-0.021371653,-0.626132000,-0.624352004,-0.628824000,-0.002826700,-0.630591373,1.221500000,,,,,
1749760807.874330,0.007161810,-0.021162500,0.014436400,-0.005649800,-0.015053900,-0.086142500,0.002306670,0.001087280,1749760807.874330044,0.007222516,-0.021141859,-0.626008000,-0.624200193,-0.629005000,-0.002869980,-0.630799037,1.221640000,,,,,
1749760807.884529,0.007456010,-0.020897300,0.014431300,-0.005168850,-0.015992300,-0.086672400,0.001451660,0.001100660,1749760807.884529114,0.007518066,-0.020875055,-0.625894000,-0.624021871,-0.629178000,-0.002971130,-0.631034833,1.221790000,,,,,
1749760807.894972,0.007668300,-0.020557600,0.014495800,-0.003799430,-0.016840700,-0.086546300,0.001587070,0.001247920,1749760807.894972086,0.007728643,-0.020534990,-0.625789000,-0.623937979,-0.629337000,-0.002936940,-0.631172188,1.221940000,,,,,
1749760807.904583,0.007713000,-0.020137600,0.014518200,-0.001719470,-0.017619300,-0.085948400,0.002125840,0.001512110,1749760807.904582977,0.007770216,-0.020115592,-0.625706000,-0.623913983,-0.629482000,-0.002842800,-0.631258211,1.222090000,,,,,
1749760807.914801,0.007727350,-0.019682000,0.014459500,-0.000959965,-0.018430300,-0.085614900,0.002960890,0.001605250,1749760807.914800882,0.007780467,-0.019661063,-0.625626000,-0.623923617,-0.629617000,-0.002700220,-0.631304030,1.222220000,,,,,
1749760807.924225,0.007818530,-0.019214800,0.014345200,-0.000603368,-0.019115900,-0.084441100,0.003930590,0.001647460,1749760807.924225092,0.007867113,-0.019194960,-0.625536000,-0.623940913,-0.629746000,-0.002529730,-0.631326420,1.222350000,,,,,
1749760807.934230,0.007885330,-0.018763000,0.014156100,-0.001099910,-0.019891600,-0.083967600,0.004378220,0.001569290,1749760807.934230089,0.007930814,-0.018743820,-0.625448000,-0.623918474,-0.629873000,-0.002425390,-0.631388101,1.222470000,,,,,
1749760807.944411,0.007779530,-0.018326500,0.013823600,-0.001906280,-0.020593900,-0.083022100,0.004124240,0.001441140,1749760807.944411039,0.007823830,-0.018307632,-0.625384000,-0.623858518,-0.629997000,-0.002418510,-0.631507653,1.222560000,,,,,
1749760807.954469,0.007655250,-0.017922100,0.013467700,-0.002453870,-0.021160400,-0.081207100,0.003068470,0.001342520,1749760807.954468966,0.007700580,-0.017902670,-0.625325000,-0.623728384,-0.630121000,-0.002530650,-0.631701459,1.222650000,,,,,
1749760807.964388,0.007480110,-0.017558800,0.013063800,-0.003048020,-0.021735900,-0.079578400,0.002945440,0.001231660,1749760807.964387894,0.007524296,-0.017539911,-0.625274000,-0.623685156,-0.630248000,-0.002517840,-0.631820340,1.222720000,,,,,
1749760807.974442,0.007095580,-0.017218900,0.012590900,-0.004314120,-0.022272600,-0.077795400,0.002247390,0.001017240,1749760807.974442005,0.007140150,-0.017200466,-0.625255000,-0.623620362,-0.630374000,-0.002589800,-0.631991170,1.222790000,,,,,
1749760807.984387,0.006634770,-0.016883000,0.012080200,-0.005287310,-0.022845400,-0.076383400,0.001368380,0.000832714,1749760807.984386921,0.006680246,-0.016865058,-0.625251000,-0.623549523,-0.630497000,-0.002695030,-0.632179778,1.222840000,,,,,
1749760807.994429,0.006116850,-0.016551400,0.011534600,-0.005695030,-0.023382900,-0.074825300,0.000756864,0.000720607,1749760807.994429111,0.006162677,-0.016534392,-0.625260000,-0.623510671,-0.630618000,-0.002770190,-0.632347667,1.222880000,,,,,
1749760808.004452,0.005531480,-0.016227900,0.010963500,-0.005494180,-0.023905400,-0.073271200,-0.000422617,0.000692837,1749760808.004451990,0.005579068,-0.016211601,-0.625283000,-0.623429745,-0.630736000,-0.002933980,-0.632567850,1.222910000,,,,,
1749760808.014451,0.004858590,-0.015894600,0.010349000,-0.005354880,-0.024302300,-0.070959700,-0.001026360,0.000658133,1749760808.014451027,0.004906663,-0.015879826,-0.625326000,-0.623414238,-0.630850000,-0.003025920,-0.632739295,1.222930000,,,,,
1749760808.024425,0.004021700,-0.015606100,0.009617620,-0.005304200,-0.024570700,-0.067922900,-0.000676514,0.000611947,1749760808.024425030,0.004068272,-0.015594024,-0.625399000,-0.623512559,-0.630967000,-0.002985350,-0.632831220,1.222930000,,,,,
1749760808.034442,0.003057130,-0.015239700,0.008903090,-0.004876990,-0.024785200,-0.064724000,-0.000219567,0.000620971,1749760808.034441948,0.003101704,-0.015230690,-0.625499000,-0.623649985,-0.631070000,-0.002925730,-0.632897338,1.222920000,,,,,
1749760808.044422,0.002099060,-0.014882000,0.008176000,-0.004298380,-0.024836000,-0.060619100,-0.000416278,0.000656263,1749760808.044421911,0.002143050,-0.014875729,-0.625607000,-0.623738205,-0.631171000,-0.002956510,-0.633017852,1.222900000,,,,,
1749760808.054402,0.001215210,-0.014562800,0.007407230,-0.003012330,-0.024833900,-0.056431600,-0.000663943,0.000800118,1749760808.054402113,0.001258844,-0.014559093,-0.625715000,-0.623820489,-0.631273000,-0.002996650,-0.633145212,1.222870000,,,,,
1749760808.064378,0.000450934,-0.014252800,0.006678000,-0.002178680,-0.024698800,-0.051617500,-0.000820794,0.000891110,1749760808.064378023,0.000494062,-0.014251370,-0.625814000,-0.623900549,-0.631374000,-0.003026080,-0.633264870,1.222840000,,,,,
1749760808.074403,-0.000471943,-0.013936700,0.005986840,-0.002096060,-0.024453700,-0.046377700,-0.000288241,0.000881325,1749760808.074403048,-0.000430731,-0.013938035,-0.625943000,-0.624073066,-0.631470000,-0.002956910,-0.633318094,1.222810000,,,,,
1749760808.084466,-0.001543420,-0.013532800,0.005282280,-0.001878300,-0.024116300,-0.040863300,0.000266675,0.000892001,1749760808.084465981,-0.001504450,-0.013537188,-0.626104000,-0.624283058,-0.631551000,-0.002879180,-0.633351046,1.222770000,,,,,
1749760808.094423,-0.002695470,-0.013028300,0.004578090,-0.002529080,-0.023602100,-0.034511100,0.000854345,0.000778673,1749760808.094423056,-0.002659096,-0.013035773,-0.626286000,-0.624520649,-0.631613000,-0.002791130,-0.633358583,1.222720000,,,,,
1749760808.105575,-0.003773030,-0.012497400,0.003922690,-0.002467080,-0.023255900,-0.029752400,0.000781309,0.000762389,1749760808.105575085,-0.003738108,-0.012507890,-0.626470000,-0.624703189,-0.631666000,-0.002793200,-0.633413390,1.222670000,,,,,
1749760808.114278,-0.004707000,-0.011934200,0.003351710,-0.001063870,-0.022999600,-0.025940500,0.000577920,0.000941579,1749760808.114278078,-0.004673387,-0.011947403,-0.626643000,-0.624862297,-0.631709000,-0.002814940,-0.633470457,1.222620000,,,,,
1749760808.124335,-0.005615720,-0.011363900,0.002862620,-0.000297827,-0.022596500,-0.021380800,0.001707910,0.001042230,1749760808.124335051,-0.005585643,-0.011378714,-0.626822000,-0.625148847,-0.631746000,-0.002644990,-0.633401726,1.222590000,,,,,
1749760808.134397,-0.006543280,-0.010773600,0.002396430,0.000579696,-0.022261500,-0.017603200,0.002511000,0.001166740,1749760808.134397030,-0.006516204,-0.010789998,-0.627013000,-0.625424488,-0.631774000,-0.002511240,-0.633346586,1.222550000,,,,,
1749760808.144257,-0.007597170,-0.010134900,0.001911570,0.001589380,-0.021851200,-0.013567500,0.003394170,0.001319230,1749760808.144257069,-0.007573253,-0.010152785,-0.627232000,-0.625740613,-0.631789000,-0.002357820,-0.633266143,1.222500000,,,,,
1749760808.154274,-0.008693850,-0.009474520,0.001459920,0.002141560,-0.021508600,-0.010274800,0.003507420,0.001415340,1749760808.154273987,-0.008671965,-0.009494555,-0.627467000,-0.626007517,-0.631794000,-0.002307420,-0.633240147,1.222450000,,,,,
1749760808.164139,-0.009848500,-0.008797400,0.000964764,0.002127040,-0.021270100,-0.007926120,0.003505860,0.001434650,1749760808.164139032,-0.009828482,-0.008819759,-0.627722000,-0.626284587,-0.631790000,-0.002272580,-0.633214916,1.222400000,,,,,
1749760808.174299,-0.010972500,-0.008129440,0.000469984,0.002369780,-0.021027400,-0.005710260,0.004209130,0.001491190,1749760808.174299002,-0.010955116,-0.008152851,-0.627984000,-0.626633502,-0.631781000,-0.002135340,-0.633120518,1.222330000,,,,,
1749760808.184258,-0.012114100,-0.007514740,-0.000018931,0.003188350,-0.020590000,-0.002306460,0.004301520,0.001633810,1749760808.184257984,-0.012098444,-0.007539919,-0.628259000,-0.626943662,-0.631773000,-0.002079830,-0.633078305,1.222270000,,,,,
1749760808.194475,-0.013223800,-0.006896540,-0.000550870,0.003236240,-0.020271800,0.000042380,0.003968100,0.001672650,1749760808.194474936,-0.013209390,-0.006924100,-0.628542000,-0.627223253,-0.631759000,-0.002085260,-0.633068299,1.222190000,,,,,
1749760808.204233,-0.014542100,-0.006349900,-0.000995982,0.005011720,-0.019750300,0.003629500,0.005160940,0.001962960,1749760808.204232931,-0.014530186,-0.006377116,-0.628865000,-0.627681089,-0.631748000,-0.001872280,-0.632924303,1.222120000,,,,,
1749760808.214241,-0.016085600,-0.005796770,-0.001353370,0.005769760,-0.018768000,0.010140500,0.005610430,0.002123200,1749760808.214241028,-0.016075400,-0.005824997,-0.629235000,-0.628125116,-0.631731000,-0.001755360,-0.632834560,1.222060000,,,,,
1749760808.224476,-0.017603900,-0.005171410,-0.001713170,0.006006280,-0.017668400,0.017011400,0.005778070,0.002215260,1749760808.224476099,-0.017595214,-0.005200888,-0.629617000,-0.628558086,-0.631698000,-0.001674900,-0.632751659,1.221990000,,,,,
1749760808.234427,-0.018986000,-0.004547520,-0.002144630,0.006025260,-0.016555700,0.023499200,0.006679890,0.002278080,1749760808.234426975,-0.018979221,-0.004575730,-0.629993000,-0.629053590,-0.631659000,-0.001486110,-0.632594541,1.221910000,,,,,
1749760808.244419,-0.020219600,-0.003977290,-0.002525030,0.005027040,-0.015437200,0.029580700,0.006773080,0.002193310,1749760808.244419098,-0.020213989,-0.004005710,-0.630362000,-0.629473462,-0.631622000,-0.001405770,-0.632507520,1.221840000,,,,,
1749760808.254407,-0.021587300,-0.003499620,-0.002858300,0.002677910,-0.014045400,0.037124700,0.005606570,0.001902300,1749760808.254406929,-0.021582000,-0.003532159,-0.630763000,-0.629810152,-0.631592000,-0.001507510,-0.632542163,1.221760000,,,,,
1749760808.264376,-0.022904500,-0.003055580,-0.003215330,-0.001230900,-0.012638800,0.044250900,0.002817270,0.001361200,1749760808.264375925,-0.022898787,-0.003098101,-0.631171000,-0.629997302,-0.631563000,-0.001856680,-0.632733793,1.221680000,,,,,
1749760808.270117,,,,,,,,,,,,,,,,,,1749760808.270117044,0.000000000,0.000000000,0.000000000,0.000000000
1749760808.270292,,,,,,,,,,,,,,,,,,1749760808.270292044,0.000000000,0.000000000,0.000000000,0.000000000
1749760808.274443,-0.024100600,-0.002666530,-0.003534480,-0.004791620,-0.011247300,0.050783300,0.000198550,0.000831579,1749760808.274442911,-0.024094651,-0.002719761,-0.631573000,-0.630176420,-0.631537000,-0.002208960,-0.632930578,1.221600000,,,,,
1749760808.284141,-0.025239200,-0.002204790,-0.003840910,-0.008503280,-0.010049200,0.055534200,-0.000076790,0.000244425,1749760808.284141064,-0.025234182,-0.002261496,-0.631980000,-0.630559445,-0.631497000,-0.002246980,-0.632915451,1.221520000,,,,,
1749760808.290365,,,,,,,,,,,,,,,,,,1749760808.290364981,0.009491870,0.000000000,0.000000000,0.000000000
1749760808.294470,-0.026291500,-0.001680900,-0.004080240,-0.011058800,-0.008992680,0.058984200,0.001311400,-0.000211879,1749760808.294470072,-0.026288006,-0.001734690,-0.632385000,-0.631091707,-0.631443000,-0.002046060,-0.632735575,1.221450000,,,,,
1749760808.304249,-0.027196600,-0.001126070,-0.004219290,-0.011939000,-0.007900080,0.062444700,0.003336850,-0.000450345,1749760808.304249048,-0.027194601,-0.001173355,-0.632779000,-0.631680272,-0.631379000,-0.001738690,-0.632478252,1.221390000,,,,,
1749760808.310352,,,,,,,,,,,,,,,,,,1749760808.310352087,0.018967400,0.000000000,0.000000000,0.000000000
1749760808.314419,-0.027989100,-0.000608220,-0.004269510,-0.011332500,-0.006773880,0.065898400,0.005316840,-0.000481625,1749760808.314419031,-0.027988210,-0.000647898,-0.633167000,-0.632271374,-0.631315000,-0.001417660,-0.632211981,1.221340000,,,,,
1749760808.324383,-0.028609500,-0.000052161,-0.004310830,-0.010218400,-0.005939180,0.067107900,0.006102780,-0.000433082,1749760808.324383020,-0.028609412,-0.000087931,-0.633537000,-0.632747259,-0.631240000,-0.001250310,-0.632031624,1.221290000,,,,,
1749760808.330364,,,,,,,,,,,,,,,,,,1749760808.330363989,0.028410500,0.000000000,0.000000000,0.000000000
1749760808.334507,-0.029206600,0.000567207,-0.004228110,-0.008543390,-0.005308570,0.066829300,0.006384340,-0.000291923,1749760808.334506989,-0.029207232,0.000533666,-0.633909000,-0.633183781,-0.631151000,-0.001148380,-0.631878552,1.221260000,,,,,
1749760808.344149,-0.029754300,0.001223950,-0.004050820,-0.007330420,-0.004797920,0.065744200,0.007686530,-0.000201133,1749760808.344149113,-0.029755384,0.001197309,-0.634281000,-0.633715735,-0.631049000,-0.000895351,-0.631616651,1.221240000,,,,,
1749760808.350350,,,,,,,,,,,,,,,,,,1749760808.350349903,0.037804800,0.000000000,0.000000000,0.000000000
1749760808.354473,-0.030293900,0.001925190,-0.003715090,-0.006100960,-0.004658760,0.062176800,0.008823350,-0.000095820,1749760808.354473114,-0.030295151,0.001905398,-0.634657000,-0.634244658,-0.630935000,-0.000653327,-0.631349504,1.221250000,,,,,
1749760808.364376,-0.031002600,0.002559700,-0.003243980,-0.004413100,-0.004789580,0.056996600,0.009662150,0.000088387,1749760808.364376068,-0.031003731,0.002545958,-0.635063000,-0.634783338,-0.630824000,-0.000443230,-0.631105417,1.221280000,,,,,
1749760808.370373,,,,,,,,,,,,,,,,,,1749760808.370373011,0.047134300,0.000000000,0.000000000,0.000000000
1749760808.374394,-0.031797800,0.003287630,-0.002584760,-0.004806650,-0.004803500,0.052977600,0.009867860,-0.000012920,1749760808.374393940,-0.031798840,0.003277559,-0.635488000,-0.635288213,-0.630693000,-0.000316723,-0.630894242,1.221350000,,,,,
1749760808.384494,-0.032448100,0.004010930,-0.001795010,-0.005283150,-0.004888850,0.048743600,0.010022900,-0.000130213,1749760808.384494066,-0.032448884,0.004004586,-0.635901000,-0.635777706,-0.630555000,-0.000195513,-0.630679315,1.221440000,,,,,
1749760808.390365,,,,,,,,,,,,,,,,,,1749760808.390364885,0.056383400,0.000000000,0.000000000,0.000000000
1749760808.394531,-0.032784000,0.004683820,-0.001088540,-0.005749380,-0.005202470,0.043229800,0.009281220,-0.000250780,1749760808.394531012,-0.032784950,0.004677163,-0.636274000,-0.636145986,-0.630417000,-0.000203042,-0.630546177,1.221520000,,,,,
1749760808.404409,-0.032947200,0.005356930,-0.000383510,-0.006057430,-0.005624430,0.037349800,0.009019210,-0.000353027,1749760808.404408932,-0.032947994,0.005352044,-0.636626000,-0.636532526,-0.630272000,-0.000148296,-0.630366402,1.221610000,,,,,
1749760808.410370,,,,,,,,,,,,,,,,,,1749760808.410370111,0.065536400,0.000000000,0.000000000,0.000000000
1749760808.414424,-0.033152200,0.006096150,0.000285829,-0.006698130,-0.005808200,0.033514000,0.008464660,-0.000506684,1749760808.414423943,-0.033153045,0.006091553,-0.636985000,-0.636897616,-0.630111000,-0.000138670,-0.630199325,1.221710000,,,,,
1749760808.424503,-0.033250100,0.006818460,0.000968712,-0.007138660,-0.006046450,0.029567300,0.007912230,-0.000637666,1749760808.424503088,-0.033251015,0.006813995,-0.637331000,-0.637246404,-0.629945000,-0.000134282,-0.630030576,1.221810000,,,,,
1749760808.430365,,,,,,,,,,,,,,,,,,1749760808.430365086,0.074578100,0.000000000,0.000000000,0.000000000
1749760808.434438,-0.033337600,0.007514080,0.001568880,-0.008188650,-0.006247300,0.026149700,0.007077160,-0.000861598,1749760808.434437990,-0.033338926,0.007508196,-0.637676000,-0.637564847,-0.629776000,-0.000176480,-0.629888527,1.221900000,,,,,
1749760808.444416,-0.033499900,0.008294200,0.002154900,-0.008446420,-0.006510300,0.022539500,0.007853580,-0.000980933,1749760808.444416046,-0.033499841,0.008294438,-0.638033000,-0.638037465,-0.629588000,0.000007091,-0.629583475,1.222010000,,,,,
1749760808.450359,,,,,,,,,,,,,,,,,,1749760808.450359106,0.083493500,0.000000000,0.000000000,0.000000000
1749760808.454440,-0.033603200,0.009014980,0.002764470,-0.007665620,-0.006774580,0.019169000,0.008980820,-0.000951961,1749760808.454440117,-0.033600951,0.009023360,-0.638383000,-0.638539949,-0.629400000,0.000249395,-0.629240771,1.222120000,,,,,
1749760808.464454,-0.033708800,0.009724040,0.003392850,-0.007392110,-0.006875720,0.017153400,0.008771300,-0.000988881,1749760808.464453936,-0.033705796,0.009734448,-0.638734000,-0.638928246,-0.629207000,0.000308764,-0.629009752,1.222230000,,,,,
1749760808.470358,,,,,,,,,,,,,,,,,,1749760808.470357895,0.092268200,0.000000000,0.000000000,0.000000000
1749760808.474544,-0.033746400,0.010402300,0.003989200,-0.007264510,-0.006939470,0.015533900,0.007784640,-0.001044260,1749760808.474544048,-0.033743766,0.010410842,-0.639077000,-0.639236202,-0.629011000,0.000253132,-0.628849209,1.222360000,,,,,
1749760808.484409,-0.033679100,0.011054000,0.004664890,-0.007170280,-0.006788730,0.015502200,0.006456190,-0.001103220,1749760808.484409094,-0.033677574,0.011058647,-0.639405000,-0.639491757,-0.628812000,0.000137980,-0.628723769,1.222490000,,,,,
1749760808.490361,,,,,,,,,,,,,,,,,,1749760808.490360975,0.100888000,0.000000000,0.000000000,0.000000000
1749760808.494421,-0.033448100,0.011594000,0.005543810,-0.005698140,-0.006591700,0.015791300,0.006067590,-0.000961047,1749760808.494421005,-0.033446406,0.011598886,-0.639708000,-0.639799826,-0.628623000,0.000146085,-0.628529542,1.222670000,,,,,
1749760808.504417,-0.032962000,0.012118600,0.006521420,-0.004123590,-0.006452940,0.015659500,0.006602400,-0.000789275,1749760808.504416943,-0.032958551,0.012127976,-0.639972000,-0.640150737,-0.628431000,0.000284459,-0.628248929,1.222860000,,,,,
1749760808.510359,,,,,,,,,,,,,,,,,,1749760808.510359049,0.109339000,0.000000000,0.000000000,0.000000000
1749760808.514416,-0.032239600,0.012629100,0.007478710,-0.001920130,-0.006425740,0.014768900,0.005930280,-0.000510388,1749760808.514415979,-0.032236406,0.012637251,-0.640196000,-0.640354820,-0.628236000,0.000252836,-0.628074115,1.223070000,,,,,
1749760808.524452,-0.031436800,0.013128400,0.008450150,0.000727109,-0.006508100,0.013185400,0.004517950,-0.000144993,1749760808.524451971,-0.031435396,0.013131762,-0.640402000,-0.640469166,-0.628037000,0.000106952,-0.627968504,1.223290000,,,,,
1749760808.530353,,,,,,,,,,,,,,,,,,1749760808.530353069,0.117609000,0.000000000,0.000000000,0.000000000
1749760808.534261,-0.030842800,0.013660500,0.009429840,0.001892590,-0.006508730,0.012273500,0.001572620,0.000031601,1749760808.534260988,-0.030846566,0.013651994,-0.640630000,-0.640456839,-0.627828000,-0.000275771,-0.628004643,1.223510000,,,,,
1749760808.544437,-0.030633500,0.014239000,0.010473600,0.002353560,-0.006647470,0.010473700,-0.000847176,0.000117498,1749760808.544436932,-0.030642203,0.014220262,-0.640908000,-0.640524036,-0.627608000,-0.000611598,-0.627999861,1.223760000,,,,,
1749760808.550358,,,,,,,,,,,,,,,,,,1749760808.550358057,0.125684000,0.000000000,0.000000000,0.000000000
1749760808.554491,-0.030609700,0.014761100,0.011461300,0.004021550,-0.006508300,0.010710700,-0.001671480,0.000383363,1749760808.554491043,-0.030620612,0.014738450,-0.641211000,-0.640746666,-0.627389000,-0.000739826,-0.627863213,1.224010000,,,,,
1749760808.564415,-0.030721900,0.015252300,0.012459000,0.006683180,-0.006249040,0.011758000,-0.001809570,0.000810265,1749760808.564414978,-0.030733736,0.015228437,-0.641533000,-0.641045745,-0.627170000,-0.000776602,-0.627668027,1.224270000,,,,,
1749760808.570360,,,,,,,,,,,,,,,,,,1749760808.570359945,0.133554000,0.000000000,0.000000000,0.000000000
1749760808.574434,-0.030718700,0.015766900,0.013501200,0.009269870,-0.006167830,0.011507600,-0.003981640,0.001252900,1749760808.574434042,-0.030736186,0.015732785,-0.641840000,-0.641143535,-0.626943000,-0.001110260,-0.627655223,1.224540000,,,,,
1749760808.584398,-0.030726700,0.016232100,0.014666500,0.011739000,-0.006296600,0.009829210,-0.006222100,0.001704320,1749760808.584398031,-0.030750618,0.016186743,-0.642149000,-0.641223529,-0.626718000,-0.001475580,-0.627664860,1.224850000,,,,,
1749760808.590359,,,,,,,,,,,,,,,,,,1749760808.590358973,0.141206000,0.000000000,0.000000000,0.000000000
1749760808.594425,-0.030712200,0.016684800,0.015882900,0.014027300,-0.006333470,0.008898880,-0.007918730,0.002154150,1749760808.594424963,-0.030741922,0.016629974,-0.642454000,-0.641335138,-0.626490000,-0.001784290,-0.627635326,1.225170000,,,,,
1749760808.604431,-0.030315900,0.017163900,0.017194700,0.014727200,-0.006318010,0.008392750,-0.009367370,0.002396110,1749760808.604430914,-0.030351432,0.017100990,-0.642703000,-0.641402808,-0.626253000,-0.002073940,-0.627584580,1.225520000,,,,,
1749760808.610380,,,,,,,,,,,,,,,,,,1749760808.610379934,0.148629000,0.000000000,0.000000000,0.000000000
1749760808.614434,-0.029759200,0.017587900,0.018393400,0.014546400,-0.006505410,0.006525160,-0.009607250,0.002517120,1749760808.614434004,-0.029797864,0.017522314,-0.642926000,-0.641545658,-0.626020000,-0.002202460,-0.627434499,1.225860000,,,,,
1749760808.624390,-0.029258800,0.017994700,0.019539800,0.014999200,-0.006690580,0.004801520,-0.009304620,0.002728370,1749760808.624389887,-0.029299296,0.017928688,-0.643150000,-0.641737491,-0.625785000,-0.002254570,-0.627233435,1.226220000,,,,,
1749760808.630361,,,,,,,,,,,,,,,,,,1749760808.630361080,0.155815000,0.000000000,0.000000000,0.000000000
1749760808.634403,-0.028866700,0.018370900,0.020633300,0.016877900,-0.006578760,0.005240640,-0.009356980,0.003151290,1749760808.634402990,-0.028909887,0.018302862,-0.643386000,-0.641910907,-0.625551000,-0.002355220,-0.627064579,1.226570000,,,,,
1749760808.644384,-0.028569700,0.018749000,0.021525600,0.019608900,-0.006050200,0.008518140,-0.009331690,0.003716840,1749760808.644383907,-0.028615458,0.018679088,-0.643632000,-0.642101121,-0.625312000,-0.002445110,-0.626883880,1.226910000,,,,,
1749760808.650360,,,,,,,,,,,,,,,,,,1749760808.650360107,0.162753000,0.000000000,0.000000000,0.000000000
1749760808.654456,-0.028194100,0.019081200,0.022361900,0.022286000,-0.005363230,0.012660300,-0.009306680,0.004301860,1749760808.654455900,-0.028242376,0.019009672,-0.643863000,-0.642276491,-0.625076000,-0.002534800,-0.626706054,1.227240000,,,,,
1749760808.664194,-0.027636500,0.019390600,0.023268800,0.022868900,-0.004645120,0.016731700,-0.010545400,0.004609410,1749760808.664194107,-0.027690836,0.019312925,-0.644064000,-0.642307019,-0.624840000,-0.002807830,-0.626645957,1.227600000,,,,,
1749760808.670370,,,,,,,,,,,,,,,,,,1749760808.670370102,0.169435000,0.000000000,0.000000000,0.000000000
1749760808.674337,-0.027271400,0.019703600,0.024165600,0.022616100,-0.003971240,0.020218500,-0.011833000,0.004801370,1749760808.674336910,-0.027332357,0.019618955,-0.644287000,-0.642347431,-0.624601000,-0.003100340,-0.626595504,1.227960000,,,,,
1749760808.684408,-0.027047100,0.020043000,0.025145200,0.021764400,-0.003398350,0.022770100,-0.012245800,0.004903800,1749760808.684407949,-0.027112668,0.019954214,-0.644527000,-0.642476498,-0.624355000,-0.003278650,-0.626464819,1.228340000,,,,,
1749760808.690361,,,,,,,,,,,,,,,,,,1749760808.690361023,0.175853000,0.000000000,0.000000000,0.000000000
1749760808.694419,-0.026890200,0.020269900,0.026221200,0.021936200,-0.003222300,0.022414600,-0.011338800,0.005146400,1749760808.694418907,-0.026956325,0.020181879,-0.644775000,-0.642731094,-0.624121000,-0.003269340,-0.626225649,1.228750000,,,,,
1749760808.704383,-0.026664200,0.020533900,0.027211000,0.021106200,-0.003340660,0.020057100,-0.010395400,0.005245170,1749760808.704382896,-0.026730705,0.020447249,-0.645011000,-0.642982704,-0.623880000,-0.003245660,-0.625970197,1.229160000,,,,,
1749760808.710388,,,,,,,,,,,,,,,,,,1749760808.710387945,0.182001000,0.000000000,0.000000000,0.000000000
1749760808.714432,-0.026627400,0.020774000,0.028371500,0.019195800,-0.003362100,0.018529000,-0.008322370,0.005178700,1749760808.714432001,-0.026690605,0.020692731,-0.645272000,-0.643367869,-0.623640000,-0.003048450,-0.625604179,1.229600000,,,,,
1749760808.724144,-0.026496900,0.021057500,0.029486400,0.016556900,-0.003186910,0.018459500,-0.006943900,0.004987270,1749760808.724143982,-0.026558514,0.020979737,-0.645519000,-0.643688821,-0.623391000,-0.002931400,-0.625280593,1.230040000,,,,,
1749760808.730357,,,,,,,,,,,,,,,,,,1749760808.730356932,0.187872000,0.000000000,0.000000000,0.000000000
1749760808.734472,-0.026211400,0.021496600,0.030491500,0.012774800,-0.003034550,0.018237500,-0.006080840,0.004603360,1749760808.734472036,-0.026273104,0.021421142,-0.645743000,-0.643948591,-0.623117000,-0.002875450,-0.624971223,1.230490000,,,,,
1749760808.744385,-0.026020800,0.021790100,0.031501100,0.009742610,-0.002758990,0.018879000,-0.004469790,0.004290590,1749760808.744385004,-0.026079586,0.021719707,-0.645977000,-0.644291548,-0.622859000,-0.002702210,-0.624602289,1.230940000,,,,,
1749760808.750359,,,,,,,,,,,,,,,,,,1749760808.750359058,0.193460000,0.000000000,0.000000000,0.000000000
1749760808.754475,-0.025744500,0.022005800,0.032447600,0.010188100,-0.002272690,0.020926800,-0.004229740,0.004452740,1749760808.754475117,-0.025804086,0.021935899,-0.646197000,-0.644506089,-0.622610000,-0.002712030,-0.624360214,1.231390000,,,,,
1749760808.764466,-0.025020000,0.022118500,0.033371000,0.012534300,-0.001752390,0.023067700,-0.005611010,0.004895470,1749760808.764466047,-0.025085251,0.022044469,-0.646350000,-0.644508068,-0.622373000,-0.002955000,-0.624280244,1.231850000,,,,,
1749760808.770388,,,,,,,,,,,,,,,,,,1749760808.770387888,0.198762000,0.000000000,0.000000000,0.000000000
1749760808.774466,-0.024315300,0.022348800,0.034261300,0.013292200,-0.001345190,0.024282700,-0.006664770,0.005130930,1749760808.774466038,-0.024385894,0.022271750,-0.646497000,-0.644525258,-0.622119000,-0.003164200,-0.624161528,1.232310000,,,,,
1749760808.784370,-0.023638700,0.022593300,0.035140200,0.014007800,-0.000751246,0.026699500,-0.007400740,0.005367810,1749760808.784369946,-0.023713979,0.022514274,-0.646642000,-0.644562776,-0.621860000,-0.003337770,-0.624014874,1.232780000,,,,,
1749760808.790381,,,,,,,,,,,,,,,,,,1749760808.790380955,0.203772000,0.000000000,0.000000000,0.000000000
1749760808.794472,-0.022791500,0.022659800,0.035996500,0.012562900,-0.000027031,0.029846600,-0.009030260,0.005297980,1749760808.794471979,-0.022874023,0.022576494,-0.646756000,-0.644483693,-0.621624000,-0.003648520,-0.623979560,1.233260000,,,,,
1749760808.804385,-0.021805600,0.022600100,0.036775900,0.010483400,0.000441127,0.031014600,-0.009387500,0.005121500,1749760808.804384947,-0.021891114,0.022517279,-0.646840000,-0.644479782,-0.621406000,-0.003790720,-0.623853519,1.233730000,,,,,
1749760808.810387,,,,,,,,,,,,,,,,,,1749760808.810386896,0.208490000,0.000000000,0.000000000,0.000000000
1749760808.814584,-0.020669700,0.022566300,0.037483600,0.009862830,0.000683859,0.030550600,-0.007200770,0.005136170,1749760808.814584017,-0.020750060,0.022492430,-0.646893000,-0.644673179,-0.621185000,-0.003566910,-0.623488453,1.234200000,,,,,
1749760808.824255,-0.019724600,0.022718800,0.038220700,0.008320840,0.000851781,0.029603600,-0.005950010,0.005010770,1749760808.824254990,-0.019803025,0.022650472,-0.646963000,-0.644812435,-0.620937000,-0.003457200,-0.623169965,1.234680000,,,,,
1749760808.830389,,,,,,,,,,,,,,,,,,1749760808.830389023,0.212912000,0.000000000,0.000000000,0.000000000
1749760808.834418,-0.019120900,0.023012000,0.039023800,0.006497140,0.001071590,0.029078900,-0.004186330,0.004829030,1749760808.834418058,-0.019195828,0.022949535,-0.647072000,-0.645044895,-0.620668000,-0.003260470,-0.622774456,1.235180000,,,,,
1749760808.844553,-0.018582600,0.023239600,0.039846000,0.006157150,0.001621590,0.030863100,-0.002793570,0.004844610,1749760808.844552994,-0.018654553,0.023181883,-0.647185000,-0.645258647,-0.620404000,-0.003099990,-0.622407283,1.235690000,,,,,
1749760808.850388,,,,,,,,,,,,,,,,,,1749760808.850388050,0.217037000,0.000000000,0.000000000,0.000000000
1749760808.854450,-0.017817200,0.023403700,0.040618100,0.006399820,0.002396400,0.034071900,-0.000682609,0.004941430,1749760808.854449987,-0.017883156,0.023353340,-0.647260000,-0.645507840,-0.620148000,-0.002821240,-0.621971605,1.236200000,,,,,
