__time,filtered_pose/dx,filtered_pose/dy,filtered_pose/dz,filtered_pose/p,filtered_pose/pitch,filtered_pose/q,filtered_pose/r,filtered_pose/roll,filtered_pose/timestamp,filtered_pose/vxb,filtered_pose/vyb,filtered_pose/x,filtered_pose/xb,filtered_pose/y,filtered_pose/yaw,filtered_pose/yb,filtered_pose/z,u_control/timestamp,u_control/ux,u_control/uy,u_control/uyaw,u_control/uz
1749760931.535391,0.004984340,-0.002880090,0.004534760,0.003781640,-0.013447700,0.010132200,0.007749750,0.012483200,1749760931.535391092,0.005079968,-0.002707858,-1.276850000,-1.258459209,-0.515635000,-0.034223000,-0.559022178,1.264340000,,,,,
1749760931.545712,0.004504380,-0.003256120,0.004684560,0.000127099,-0.012925300,0.013030400,0.007292300,0.011990100,1749760931.545711994,0.004613121,-0.003100141,-1.276870000,-1.258482507,-0.515718000,-0.034212000,-0.559091971,1.264400000,,,,,
1749760931.555662,0.003950220,-0.003580590,0.004886240,-0.002097910,-0.012270400,0.016641200,0.007796380,0.011668100,1749760931.555661917,0.004069880,-0.003443971,-1.276900000,-1.258591491,-0.515798000,-0.034065800,-0.558988950,1.264480000,,,,,
1749760931.565690,0.003389930,-0.003803270,0.005023030,-0.003722310,-0.011637000,0.019855700,0.008540130,0.011411200,1749760931.565690041,0.003516814,-0.003686259,-1.276940000,-1.258733115,-0.515866000,-0.033879800,-0.558824158,1.264550000,,,,,
1749760931.575673,0.002918370,-0.004018560,0.005101960,-0.005380730,-0.010990000,0.022942600,0.008878010,0.011133000,1749760931.575673103,0.003052290,-0.003917810,-1.276980000,-1.258845914,-0.515935000,-0.033745300,-0.558725164,1.264610000,,,,,
1749760931.585392,0.002521440,-0.004340690,0.005134110,-0.007906200,-0.010341300,0.025828300,0.008249090,0.010712300,1749760931.585391998,0.002666466,-0.004253141,-1.277010000,-1.258871509,-0.516022000,-0.033747900,-0.558816399,1.264670000,,,,,
1749760931.595484,0.002087580,-0.004671450,0.005199740,-0.011118200,-0.009704860,0.028431200,0.007609900,0.010166600,1749760931.595484018,0.002244061,-0.004598329,-1.277050000,-1.258902569,-0.516114000,-0.033758300,-0.558922789,1.264730000,,,,,
1749760931.605827,0.001583580,-0.005017100,0.005284460,-0.013094000,-0.008873150,0.032199100,0.007673120,0.009768340,1749760931.605827093,0.001751591,-0.004960942,-1.277100000,-1.258996947,-0.516211000,-0.033673000,-0.558914031,1.264790000,,,,,
1749760931.615712,0.001112040,-0.005327110,0.005335440,-0.014994600,-0.008248670,0.034281100,0.008033010,0.009361280,1749760931.615711927,0.001290073,-0.005286818,-1.277150000,-1.259115822,-0.516306000,-0.033544000,-0.558848239,1.264850000,,,,,
1749760931.625716,0.000677480,-0.005632930,0.005320690,-0.016292100,-0.007697680,0.035714100,0.009170380,0.009022830,1749760931.625715971,0.000864637,-0.005607253,-1.277200000,-1.259299747,-0.516404000,-0.033298400,-0.558638594,1.264900000,,,,,
1749760931.635489,0.000288294,-0.005948600,0.005322900,-0.019077400,-0.007008600,0.037998800,0.010150400,0.008455260,1749760931.635488987,0.000484787,-0.005935818,-1.277250000,-1.259477090,-0.516506000,-0.033064300,-0.558447374,1.264960000,,,,,
1749760931.645819,-0.000087895,-0.006201170,0.005305450,-0.021194200,-0.006277400,0.040416300,0.011152100,0.007956950,1749760931.645818949,0.000115621,-0.006200715,-1.277300000,-1.259661812,-0.516602000,-0.032817300,-0.558233855,1.265010000,,,,,
1749760931.655772,-0.000427364,-0.006414460,0.005270290,-0.023653900,-0.005536890,0.042731400,0.011792800,0.007387650,1749760931.655771971,-0.000217981,-0.006424984,-1.277350000,-1.259822941,-0.516695000,-0.032612700,-0.558070697,1.265050000,,,,,
1749760931.665817,-0.000699421,-0.006588490,0.005242700,-0.025709100,-0.004995590,0.043516000,0.012099700,0.006852530,1749760931.665817022,-0.000485292,-0.006607714,-1.277400000,-1.259960664,-0.516785000,-0.032450200,-0.557957544,1.265100000,,,,,
1749760931.675743,-0.001021070,-0.006762850,0.005225020,-0.027150700,-0.004570690,0.043445400,0.012122700,0.006386010,1749760931.675743103,-0.000801960,-0.006792318,-1.277450000,-1.260077097,-0.516876000,-0.032325800,-0.557893369,1.265150000,,,,,
1749760931.685728,-0.001306970,-0.006944200,0.005141490,-0.028603500,-0.004133270,0.043465800,0.011497600,0.005903430,1749760931.685728073,-0.001082062,-0.006982781,-1.277500000,-1.260140995,-0.516970000,-0.032295400,-0.557950627,1.265190000,,,,,
1749760931.695690,-0.001622000,-0.007051390,0.005093160,-0.029071400,-0.003503550,0.044808400,0.010739300,0.005549420,1749760931.695689917,-0.001393500,-0.007100080,-1.277560000,-1.260200898,-0.517055000,-0.032290600,-0.558031472,1.265240000,,,,,
1749760931.705685,-0.001980410,-0.007155560,0.005027170,-0.028819900,-0.002795780,0.046595900,0.010165000,0.005295240,1749760931.705684900,-0.001748533,-0.007215726,-1.277630000,-1.260281456,-0.517140000,-0.032266700,-0.558088567,1.265280000,,,,,
1749760931.715775,-0.002280250,-0.007212670,0.004955450,-0.027871800,-0.002080260,0.048313700,0.009729870,0.005144790,1749760931.715775013,-0.002046655,-0.007282400,-1.277690000,-1.260360332,-0.517220000,-0.032228200,-0.558121937,1.265320000,,,,,
1749760931.725992,-0.002642510,-0.007327510,0.004749630,-0.027502100,-0.001524390,0.048814300,0.007626980,0.004919780,1749760931.725991964,-0.002403484,-0.007409354,-1.277770000,-1.260321176,-0.517309000,-0.032436400,-0.558475880,1.265340000,,,,,
1749760931.735671,-0.003117170,-0.007439960,0.004532770,-0.026600300,-0.000865005,0.049993000,0.004935650,0.004775770,1749760931.735671043,-0.002871874,-0.007538043,-1.277860000,-1.260232310,-0.517399000,-0.032751200,-0.558965500,1.265350000,,,,,
1749760931.745650,-0.003474240,-0.007589290,0.004242650,-0.025417700,-0.000321512,0.050292800,0.002585520,0.004681570,1749760931.745650053,-0.003221615,-0.007699926,-1.277950000,-1.260155817,-0.517495000,-0.033043200,-0.559432385,1.265360000,,,,,
1749760931.755646,-0.003742680,-0.007686150,0.003937290,-0.024018900,-0.000151751,0.047999600,0.001105190,0.004630620,1749760931.755645990,-0.003485231,-0.007806261,-1.278020000,-1.260116921,-0.517585000,-0.033232400,-0.559763073,1.265360000,,,,,
1749760931.766013,-0.003888860,-0.007892280,0.003727880,-0.024008100,0.000073060,0.046243100,0.000272617,0.004392000,1749760931.766012907,-0.003623600,-0.008017533,-1.278080000,-1.260111739,-0.517692000,-0.033342400,-0.560010623,1.265360000,,,,,
1749760931.776081,-0.003964270,-0.008064660,0.003523380,-0.023094400,0.000066928,0.043017900,0.000288899,0.004284660,1749760931.776081085,-0.003693263,-0.008192313,-1.278130000,-1.260161101,-0.517796000,-0.033337300,-0.560109805,1.265370000,,,,,
1749760931.785574,-0.003890890,-0.008200080,0.003249480,-0.020915500,-0.000111519,0.038828600,0.000830536,0.004370280,1749760931.785573959,-0.003616090,-0.008324916,-1.278160000,-1.260233460,-0.517896000,-0.033255700,-0.560107916,1.265370000,,,,,
1749760931.796081,-0.003839890,-0.008450730,0.002902030,-0.018328400,-0.000286253,0.034953300,0.000961229,0.004536980,1749760931.796081066,-0.003557018,-0.008573635,-1.278190000,-1.260274814,-0.518014000,-0.033228400,-0.560192443,1.265350000,,,,,
1749760931.806066,-0.003883910,-0.008646190,0.002513830,-0.015015800,-0.000493542,0.031120600,0.000942551,0.004834950,1749760931.806066036,-0.003594580,-0.008770425,-1.278240000,-1.260324898,-0.518127000,-0.033221500,-0.560298346,1.265320000,,,,,
1749760931.816010,-0.004027000,-0.008827500,0.002199870,-0.011666600,-0.000774967,0.027041400,-0.000573644,0.005171370,1749760931.816009998,-0.003729681,-0.008957174,-1.278290000,-1.260252954,-0.518240000,-0.033432300,-0.560678618,1.265300000,,,,,
1749760931.826038,-0.004178520,-0.008968120,0.001868600,-0.008053430,-0.001117710,0.022821000,-0.001330930,0.005579640,1749760931.826037884,-0.003875362,-0.009103229,-1.278360000,-1.260254324,-0.518349000,-0.033548100,-0.560935838,1.265280000,,,,,
1749760931.835800,-0.004345650,-0.009119490,0.001534380,-0.005501410,-0.001294610,0.020032500,-0.002876030,0.005869870,1749760931.835799932,-0.004035118,-0.009261079,-1.278420000,-1.260177114,-0.518460000,-0.033785900,-0.561348474,1.265250000,,,,,
1749760931.846079,-0.004287470,-0.009388560,0.001142370,-0.004083620,-0.001369470,0.018138400,-0.004342550,0.006020830,1749760931.846079111,-0.003965579,-0.009528990,-1.278460000,-1.260076863,-0.518591000,-0.034027700,-0.561785453,1.265200000,,,,,
1749760931.855981,-0.004181500,-0.009622380,0.000825404,-0.003259970,-0.001529360,0.015789300,-0.005227990,0.006099660,1749760931.855981112,-0.003850036,-0.009759732,-1.278490000,-1.260005801,-0.518718000,-0.034199800,-0.562130256,1.265170000,,,,,
1749760931.865782,-0.003941080,-0.009790260,0.000416076,-0.002638430,-0.001984440,0.011570100,-0.005578850,0.006157360,1749760931.865782022,-0.003602992,-0.009919665,-1.278490000,-1.259943633,-0.518839000,-0.034303000,-0.562381214,1.265120000,,,,,
1749760931.875985,-0.003671560,-0.009904730,0.000019200,-0.002547120,-0.002506590,0.007179660,-0.004970300,0.006144240,1749760931.875984907,-0.003330032,-0.010024715,-1.278490000,-1.259958025,-0.518954000,-0.034270400,-0.562455072,1.265060000,,,,,
1749760931.885738,-0.003475670,-0.009944370,-0.000356872,-0.002261850,-0.002985880,0.003386450,-0.004946540,0.006160210,1749760931.885737896,-0.003132434,-0.010057765,-1.278500000,-1.259938465,-0.519058000,-0.034316600,-0.562617564,1.265010000,,,,,
1749760931.895684,-0.003337760,-0.009912070,-0.000687418,-0.001943520,-0.003403750,0.000277130,-0.005602370,0.006183840,1749760931.895684004,-0.002994262,-0.010021186,-1.278520000,-1.259873699,-0.519153000,-0.034461400,-0.562895629,1.264960000,,,,,
1749760931.905730,-0.003345960,-0.009846550,-0.000979272,-0.001081160,-0.003650450,-0.001440030,-0.005822810,0.006289690,1749760931.905730009,-0.003003839,-0.009956252,-1.278550000,-1.259851033,-0.519243000,-0.034549400,-0.563097479,1.264910000,,,,,
1749760931.915724,-0.003471790,-0.009729190,-0.001260480,-0.000339166,-0.003791410,-0.002311170,-0.005841410,0.006386680,1749760931.915724039,-0.003133047,-0.009843499,-1.278600000,-1.259863849,-0.519324000,-0.034610400,-0.563257010,1.264860000,,,,,
1749760931.925747,-0.003640000,-0.009645280,-0.001595690,0.000340456,-0.003839430,-0.002482600,-0.005733030,0.006482020,1749760931.925746918,-0.003303644,-0.009765601,-1.278660000,-1.259896872,-0.519409000,-0.034653000,-0.563397708,1.264800000,,,,,
1749760931.935842,-0.003847340,-0.009498470,-0.001962010,0.000898399,-0.003878010,-0.002577270,-0.006127230,0.006566490,1749760931.935842037,-0.003514842,-0.009626466,-1.278730000,-1.259899649,-0.519484000,-0.034767600,-0.563619476,1.264730000,,,,,
1749760931.945703,-0.004152600,-0.009518780,-0.002368650,0.001772990,-0.003667910,-0.000953738,-0.007385630,0.006702530,1749760931.945703030,-0.003816855,-0.009658306,-1.278810000,-1.259838552,-0.519582000,-0.035011700,-0.564027741,1.264650000,,,,,
1749760931.955726,-0.004452440,-0.009528250,-0.002797000,0.003266110,-0.003411960,0.000873658,-0.008651640,0.006937190,1749760931.955725908,-0.004113684,-0.009679327,-1.278900000,-1.259779628,-0.519679000,-0.035269500,-0.564452622,1.264560000,,,,,
1749760931.965553,-0.004669730,-0.009552670,-0.003264670,0.005469010,-0.003422220,0.000742900,-0.010186900,0.007289890,1749760931.965553045,-0.004326971,-0.009712734,-1.278970000,-1.259671247,-0.519778000,-0.035579100,-0.564944050,1.264470000,,,,,
1749760931.975721,-0.004806740,-0.009576820,-0.003754310,0.007332050,-0.003421610,0.000695915,-0.011310700,0.007615240,1749760931.975720882,-0.004460453,-0.009742925,-1.279040000,-1.259587843,-0.519877000,-0.035844200,-0.565379414,1.264360000,,,,,
1749760931.985764,-0.004881010,-0.009574750,-0.004181270,0.009515460,-0.003483730,0.000220481,-0.011682200,0.008005780,1749760931.985764027,-0.004533121,-0.009744276,-1.279100000,-1.259549892,-0.519972000,-0.036011300,-0.565686982,1.264260000,,,,,
1749760931.995741,-0.004872740,-0.009529230,-0.004539400,0.012240800,-0.003694040,-0.001242310,-0.011599400,0.008496880,1749760931.995740891,-0.004525479,-0.009698962,-1.279140000,-1.259527361,-0.520061000,-0.036116100,-0.565909366,1.264170000,,,,,
1749760932.005778,-0.004814360,-0.009553500,-0.004849050,0.014729300,-0.004081270,-0.003822200,-0.009822420,0.008980810,1749760932.005778074,-0.004467643,-0.009720473,-1.279180000,-1.259644234,-0.520160000,-0.035973900,-0.565830630,1.264080000,,,,,
1749760932.015895,-0.004636720,-0.009561570,-0.005105790,0.015955300,-0.004445330,-0.006064930,-0.007788100,0.009306230,1749760932.015894890,-0.004291745,-0.009721302,-1.279210000,-1.259782359,-0.520257000,-0.035776600,-0.565680102,1.263990000,,,,,
1749760932.025812,-0.004303430,-0.009625860,-0.005348790,0.017167500,-0.004917220,-0.008895580,-0.005052710,0.009641890,1749760932.025811911,-0.003959492,-0.009772365,-1.279210000,-1.259959307,-0.520362000,-0.035457100,-0.565382507,1.263910000,,,,,
1749760932.035803,-0.003799240,-0.009698560,-0.005596560,0.018504100,-0.005516920,-0.012411100,-0.002392820,0.010007700,1749760932.035803080,-0.003456342,-0.009825985,-1.279170000,-1.260105416,-0.520469000,-0.035121200,-0.565064784,1.263820000,,,,,
1749760932.046107,-0.003262830,-0.009837480,-0.005917230,0.019893500,-0.005849260,-0.013844400,-0.000851081,0.010394600,1749760932.046107054,-0.002917375,-0.009945401,-1.279140000,-1.260184393,-0.520586000,-0.034921100,-0.564928507,1.263720000,,,,,
1749760932.055853,-0.002876540,-0.009940990,-0.006283380,0.021263100,-0.006113830,-0.014712500,0.001228160,0.010792600,1749760932.055852890,-0.002530653,-0.010034618,-1.279110000,-1.260316308,-0.520699000,-0.034627500,-0.564670386,1.263600000,,,,,
1749760932.065841,-0.002445220,-0.010048500,-0.006751680,0.021668600,-0.006265390,-0.014743100,0.002648230,0.011064100,1749760932.065840960,-0.002098082,-0.010126673,-1.279080000,-1.260405720,-0.520814000,-0.034409000,-0.564508893,1.263470000,,,,,
1749760932.075753,-0.001934040,-0.010118000,-0.007182390,0.020902600,-0.006471030,-0.015143800,0.003219610,0.011169500,1749760932.075752974,-0.001585928,-0.010178372,-1.279030000,-1.260413749,-0.520925000,-0.034299500,-0.564480096,1.263340000,,,,,
1749760932.085977,-0.001412180,-0.010172400,-0.007704270,0.018053900,-0.006787220,-0.016277800,0.002276810,0.010964700,1749760932.085977077,-0.001061440,-0.010214956,-1.278970000,-1.260290927,-0.521034000,-0.034404200,-0.564718929,1.263190000,,,,,
1749760932.095683,-0.001012620,-0.010189000,-0.008172060,0.014434800,-0.007206090,-0.018040500,0.002134110,0.010619400,1749760932.095683098,-0.000661566,-0.010217801,-1.278930000,-1.260248503,-0.521138000,-0.034402200,-0.564818972,1.263050000,,,,,
1749760932.105699,-0.000881720,-0.010175000,-0.008576450,0.010837700,-0.007491250,-0.018761600,0.003045760,0.010241200,1749760932.105699062,-0.000532794,-0.010199225,-1.278920000,-1.260321939,-0.521238000,-0.034248400,-0.564724738,1.262910000,,,,,
1749760932.115520,-0.000819503,-0.010206700,-0.008993480,0.007875000,-0.007555140,-0.017909900,0.004508140,0.009919110,1749760932.115520000,-0.000472012,-0.010228661,-1.278920000,-1.260455470,-0.521344000,-0.034005500,-0.564524527,1.262760000,,,,,
1749760932.125771,-0.000696699,-0.010242600,-0.009379190,0.005237140,-0.007566110,-0.016752600,0.005810570,0.009614630,1749760932.125771046,-0.000350463,-0.010260284,-1.278910000,-1.260574062,-0.521452000,-0.033771200,-0.564336788,1.262620000,,,,,
1749760932.135683,-0.000600943,-0.010241300,-0.009735780,0.002780580,-0.007402460,-0.014473100,0.006245720,0.009310110,1749760932.135683060,-0.000256049,-0.010255720,-1.278900000,-1.260629081,-0.521554000,-0.033649900,-0.564285482,1.262470000,,,,,
1749760932.145674,-0.000619862,-0.010178700,-0.010005800,0.000451341,-0.007175980,-0.011918000,0.006914430,0.008999520,1749760932.145673990,-0.000278690,-0.010193748,-1.278910000,-1.260726005,-0.521647000,-0.033490300,-0.564177561,1.262330000,,,,,
1749760932.155722,-0.000624736,-0.010064000,-0.010288300,0.000462632,-0.006851560,-0.008864650,0.008866310,0.009005670,1749760932.155721903,-0.000290958,-0.010079173,-1.278920000,-1.260932147,-0.521732000,-0.033137500,-0.563818027,1.262190000,,,,,
1749760932.165695,-0.000634324,-0.009959310,-0.010548900,0.002590570,-0.006667920,-0.006990460,0.011059000,0.009319450,1749760932.165694952,-0.000308071,-0.009974734,-1.278930000,-1.261168809,-0.521818000,-0.032730300,-0.563390809,1.262050000,,,,,
1749760932.175773,-0.000536244,-0.009889820,-0.010874900,0.005871200,-0.006458180,-0.005065630,0.013734400,0.009821970,1749760932.175772905,-0.000217262,-0.009901964,-1.278920000,-1.261437090,-0.521907000,-0.032231000,-0.562849669,1.261900000,,,,,
1749760932.185683,-0.000450152,-0.009861720,-0.011162900,0.008110030,-0.006220530,-0.003081160,0.015939800,0.010205900,1749760932.185683012,-0.000136638,-0.009871043,-1.278910000,-1.261681562,-0.522002000,-0.031773300,-0.562366885,1.261750000,,,,,
1749760932.195740,-0.000481783,-0.009860220,-0.011469600,0.010943300,-0.005691780,0.000770394,0.016931500,0.010698700,1749760932.195739985,-0.000171297,-0.009870497,-1.278920000,-1.261859093,-0.522100000,-0.031469800,-0.562082205,1.261590000,,,,,
1749760932.205735,-0.000540232,-0.009811930,-0.011698500,0.013070200,-0.005133110,0.004562810,0.017579800,0.011117100,1749760932.205734968,-0.000233825,-0.009824009,-1.278930000,-1.262014283,-0.522192000,-0.031206300,-0.561841953,1.261450000,,,,,
1749760932.215791,-0.000695532,-0.009761550,-0.011943400,0.012611900,-0.004706160,0.007187520,0.016261700,0.011181200,1749760932.215790987,-0.000390467,-0.009778505,-1.278960000,-1.262032606,-0.522283000,-0.031222000,-0.561953658,1.261290000,,,,,
1749760932.225657,-0.000667188,-0.009754300,-0.012287100,0.012082100,-0.004629740,0.007218780,0.015108600,0.011230400,1749760932.225656986,-0.000362316,-0.009770375,-1.278960000,-1.262026856,-0.522379000,-0.031226900,-0.562055795,1.261120000,,,,,
1749760932.235691,-0.000646400,-0.009846290,-0.012570000,0.011741600,-0.004633120,0.006698650,0.014562300,0.011301700,1749760932.235691071,-0.000339373,-0.009861647,-1.278970000,-1.262073689,-0.522490000,-0.031155200,-0.562076564,1.260960000,,,,,
1749760932.245642,-0.000630269,-0.009871770,-0.012818200,0.010347300,-0.004563220,0.006718720,0.013103500,0.011216600,1749760932.245641947,-0.000321800,-0.009886634,-1.278970000,-1.262033237,-0.522592000,-0.031221500,-0.562262189,1.260800000,,,,,
1749760932.255702,-0.000610631,-0.009806540,-0.012920900,0.009040770,-0.004502130,0.006676710,0.011716400,0.011130200,1749760932.255702019,-0.000303516,-0.009820844,-1.278970000,-1.261990778,-0.522682000,-0.031292000,-0.562441117,1.260650000,,,,,
1749760932.265644,-0.000424273,-0.009746480,-0.013169400,0.007176120,-0.004439510,0.006648170,0.010224300,0.010949700,1749760932.265644073,-0.000118157,-0.009754995,-1.278950000,-1.261911969,-0.522771000,-0.031391600,-0.562655137,1.260490000,,,,,
1749760932.275634,-0.000409834,-0.009709070,-0.013414400,0.006032980,-0.004454730,0.006085820,0.008814070,0.010855400,1749760932.275634050,-0.000103901,-0.009717161,-1.278960000,-1.261861276,-0.522863000,-0.031494300,-0.562877001,1.260320000,,,,,
1749760932.285760,-0.000404073,-0.009640110,-0.013597800,0.004391540,-0.004596570,0.004690610,0.007101050,0.010677300,1749760932.285759926,-0.000098764,-0.009648069,-1.278960000,-1.261768052,-0.522950000,-0.031655000,-0.563166732,1.260160000,,,,,
1749760932.295808,-0.000316723,-0.009538730,-0.013765200,0.002043680,-0.004630840,0.004131880,0.005129640,0.010380100,1749760932.295808077,-0.000012610,-0.009543978,-1.278950000,-1.261634109,-0.523032000,-0.031870400,-0.563520143,1.260000000,,,,,
1749760932.305703,-0.000191040,-0.009431950,-0.013904400,0.000501385,-0.004684030,0.003481320,0.004441840,0.010176500,1749760932.305702925,0.000110065,-0.009433242,-1.278940000,-1.261594172,-0.523112000,-0.031919000,-0.563661098,1.259840000,,,,,
1749760932.315768,-0.000191419,-0.009329180,-0.013930400,-0.000002201,-0.004754410,0.002757300,0.004878140,0.010108300,1749760932.315768003,0.000105400,-0.009330548,-1.278940000,-1.261652415,-0.523191000,-0.031811200,-0.563604055,1.259700000,,,,,
1749760932.325744,-0.000348721,-0.009157120,-0.013881500,-0.000678952,-0.004746090,0.002624740,0.005956860,0.010010000,1749760932.325743914,-0.000059178,-0.009163567,-1.278960000,-1.261786050,-0.523259000,-0.031605700,-0.563413371,1.259570000,,,,,
1749760932.335896,-0.000457677,-0.008958880,-0.013872600,-0.002122100,-0.004478380,0.004286800,0.006779070,0.009793520,1749760932.335896015,-0.000175949,-0.008968837,-1.278980000,-1.261904891,-0.523322000,-0.031426700,-0.563251100,1.259430000,,,,,
1749760932.345727,-0.000513621,-0.008792320,-0.013933100,-0.003504280,-0.004087540,0.006681950,0.006778720,0.009571490,1749760932.345726967,-0.000237696,-0.008804101,-1.278990000,-1.261951002,-0.523388000,-0.031358900,-0.563231823,1.259280000,,,,,
1749760932.355573,-0.000545255,-0.008580730,-0.013984000,-0.005510670,-0.003801680,0.008189660,0.005995020,0.009244950,1749760932.355572939,-0.000275553,-0.008593620,-1.279000000,-1.261933241,-0.523445000,-0.031405000,-0.563347284,1.259140000,,,,,
1749760932.365859,-0.000492195,-0.008382710,-0.014112500,-0.008003360,-0.003834060,0.007403030,0.005459920,0.008827700,1749760932.365859032,-0.000228587,-0.008394035,-1.279000000,-1.261921423,-0.523502000,-0.031422800,-0.563426718,1.258980000,,,,,
1749760932.375784,-0.000360633,-0.008215320,-0.014262300,-0.009160480,-0.004143680,0.004762320,0.005937710,0.008579560,1749760932.375783920,-0.000103369,-0.008222582,-1.278990000,-1.261979437,-0.523561000,-0.031298800,-0.563328894,1.258810000,,,,,
1749760932.385796,-0.000298226,-0.008045010,-0.014352300,-0.010046500,-0.004460130,0.002256350,0.007082110,0.008359230,1749760932.385796070,-0.000048138,-0.008050392,-1.278980000,-1.262094694,-0.523619000,-0.031073200,-0.563101838,1.258660000,,,,,
1749760932.395730,-0.000207848,-0.007932460,-0.014455600,-0.011985700,-0.004401940,0.002501570,0.007804990,0.007977030,1749760932.395730019,0.000037304,-0.007935095,-1.278970000,-1.262181752,-0.523683000,-0.030897300,-0.562943487,1.258500000,,,,,
1749760932.405652,-0.000117650,-0.007834300,-0.014472200,-0.013508600,-0.004386510,0.002435580,0.008526170,0.007635930,1749760932.405652046,0.000122994,-0.007834218,-1.278960000,-1.262272646,-0.523748000,-0.030714500,-0.562777413,1.258350000,,,,,
1749760932.415688,-0.000085942,-0.007761950,-0.014562800,-0.015230700,-0.004300250,0.002861670,0.009161930,0.007250650,1749760932.415688038,0.000151087,-0.007760955,-1.278960000,-1.262370499,-0.523816000,-0.030536900,-0.562621193,1.258200000,,,,,
1749760932.425761,-0.000103369,-0.007703110,-0.014690400,-0.016812100,-0.004312660,0.002579300,0.009744030,0.006868600,1749760932.425760984,0.000130515,-0.007702698,-1.278960000,-1.262467519,-0.523885000,-0.030360700,-0.562467723,1.258030000,,,,,
1749760932.436037,0.000003658,-0.007662690,-0.014823700,-0.019428200,-0.004170490,0.003380300,0.009793800,0.006320410,1749760932.436037064,0.000235463,-0.007659072,-1.278950000,-1.262514259,-0.523956000,-0.030256000,-0.562406205,1.257870000,,,,,
1749760932.445572,0.000115568,-0.007580580,-0.014818200,-0.021449600,-0.004010470,0.004249120,0.009412290,0.005832450,1749760932.445571899,0.000344516,-0.007573629,-1.278930000,-1.262516205,-0.524021000,-0.030213500,-0.562416913,1.257720000,,,,,
1749760932.455687,0.000149879,-0.007468180,-0.014753700,-0.023579400,-0.003798950,0.005412520,0.008116820,0.005308530,1749760932.455687046,0.000376118,-0.007460209,-1.278920000,-1.262451493,-0.524080000,-0.030307600,-0.562594383,1.257580000,,,,,
1749760932.465744,0.000140233,-0.007363860,-0.014646900,-0.025813500,-0.003529530,0.006894480,0.007256740,0.004748160,1749760932.465744019,0.000363638,-0.007356213,-1.278920000,-1.262425029,-0.524140000,-0.030351400,-0.562709651,1.257450000,,,,,
1749760932.475721,0.000052044,-0.007277000,-0.014497500,-0.027096800,-0.003358910,0.007594330,0.007293220,0.004303580,1749760932.475720882,0.000272287,-0.007272090,-1.278930000,-1.262477010,-0.524201000,-0.030273500,-0.562672581,1.257320000,,,,,
1749760932.485801,-0.000035500,-0.007205020,-0.014315300,-0.027087500,-0.003337010,0.007222360,0.007909680,0.004033970,1749760932.485800982,0.000181434,-0.007202823,-1.278950000,-1.262586552,-0.524263000,-0.030111000,-0.562529995,1.257200000,,,,,
1749760932.495541,-0.000047281,-0.007138880,-0.014131800,-0.025567500,-0.003194700,0.007704730,0.008876960,0.003983920,1749760932.495541096,0.000166099,-0.007137104,-1.278950000,-1.262708200,-0.524325000,-0.029891400,-0.562314690,1.257090000,,,,,
1749760932.505868,-0.000124902,-0.007037870,-0.014087300,-0.023505700,-0.003041230,0.008230770,0.008302530,0.004027790,1749760932.505867958,0.000085457,-0.007038459,-1.278960000,-1.262719472,-0.524382000,-0.029886100,-0.562365271,1.256950000,,,,,
1749760932.515810,-0.000350414,-0.006873600,-0.014145200,-0.019810500,-0.002939940,0.008361400,0.006253540,0.004329590,1749760932.515810013,-0.000143386,-0.006881032,-1.278990000,-1.262627332,-0.524429000,-0.030100700,-0.562684119,1.256800000,,,,,
1749760932.525758,-0.000546871,-0.006695090,-0.014311300,-0.016757900,-0.002700840,0.009431650,0.002662170,0.004574960,1749760932.525758028,-0.000342046,-0.006708674,-1.279030000,-1.262407512,-0.524471000,-0.030559900,-0.563307061,1.256640000,,,,,
1749760932.535702,-0.000629812,-0.006506390,-0.014459500,-0.014746200,-0.002430070,0.010646300,-0.001055050,0.004699650,1749760932.535701990,-0.000427365,-0.006522816,-1.279040000,-1.262126840,-0.524511000,-0.031073400,-0.563995524,1.256470000,,,,,
1749760932.545529,-0.000656284,-0.006313110,-0.014565000,-0.013661700,-0.002200970,0.011490400,-0.003431160,0.004709740,1749760932.545528889,-0.000457577,-0.006330615,-1.279050000,-1.261934979,-0.524548000,-0.031429100,-0.564481723,1.256310000,,,,,
1749760932.555799,-0.000545486,-0.006110590,-0.014603600,-0.013264200,-0.002009750,0.012015600,-0.005312230,0.004630880,1749760932.555799007,-0.000351314,-0.006124822,-1.279050000,-1.261760206,-0.524582000,-0.031736700,-0.564903850,1.256160000,,,,,
1749760932.565959,-0.000429017,-0.005871890,-0.014549500,-0.011548900,-0.001925610,0.011767800,-0.006047440,0.004747440,1749760932.565958977,-0.000241537,-0.005882585,-1.279030000,-1.261648986,-0.524608000,-0.031896700,-0.565131073,1.256020000,,,,,
1749760932.575749,-0.000287417,-0.005611470,-0.014427000,-0.010127100,-0.001795000,0.011856800,-0.005989840,0.004838510,1749760932.575748920,-0.000108021,-0.005617787,-1.279020000,-1.261608875,-0.524629000,-0.031948800,-0.565217474,1.255900000,,,,,
1749760932.585953,-0.000093506,-0.005372610,-0.014418400,-0.007098470,-0.001718540,0.011567000,-0.005735480,0.005177240,1749760932.585952997,0.000078284,-0.005372853,-1.278990000,-1.261565276,-0.524650000,-0.031971700,-0.565266395,1.255750000,,,,,
1749760932.595534,0.000017169,-0.005130520,-0.014527700,-0.003273230,-0.001645910,0.011270700,-0.006241220,0.005662000,1749760932.595534086,0.000181834,-0.005127325,-1.278980000,-1.261480723,-0.524669000,-0.032102500,-0.565450073,1.255590000,,,,,
1749760932.605747,0.000162225,-0.004833180,-0.014655200,-0.000063221,-0.001669090,0.010335300,-0.006497450,0.006095620,1749760932.605746984,0.000317753,-0.004825451,-1.278960000,-1.261404095,-0.524677000,-0.032202200,-0.565583191,1.255430000,,,,,
1749760932.615709,0.000206212,-0.004570090,-0.014738100,0.002562020,-0.001570020,0.010305900,-0.008523940,0.006476390,1749760932.615709066,0.000354886,-0.004560954,-1.278950000,-1.261190422,-0.524687000,-0.032561600,-0.566046173,1.255270000,,,,,
1749760932.625663,0.000223395,-0.004319850,-0.014809100,0.005658910,-0.001475330,0.010248300,-0.010000600,0.006951930,1749760932.625663042,0.000365205,-0.004310178,-1.278940000,-1.261010431,-0.524696000,-0.032861300,-0.566432792,1.255110000,,,,,
1749760932.635495,0.000175583,-0.004052790,-0.014797100,0.008899470,-0.001424000,0.009896200,-0.011179000,0.007479320,1749760932.635494947,0.000309741,-0.004044749,-1.278950000,-1.260866597,-0.524701000,-0.033132500,-0.566780086,1.254970000,,,,,
1749760932.645669,0.000216926,-0.003780550,-0.014766500,0.012688200,-0.001453930,0.009009020,-0.010722300,0.008118740,1749760932.645668983,0.000342215,-0.003771274,-1.278940000,-1.260830780,-0.524702000,-0.033178000,-0.566838123,1.254820000,,,,,
1749760932.655645,0.000359869,-0.003550130,-0.014679500,0.015550600,-0.001399790,0.008761570,-0.010103600,0.008661480,1749760932.655644894,0.000477497,-0.003536230,-1.278920000,-1.260800851,-0.524706000,-0.033195300,-0.566863269,1.254690000,,,,,
1749760932.665705,0.000561992,-0.003303880,-0.014601800,0.017075400,-0.001396810,0.008178980,-0.009681890,0.009038520,1749760932.665704966,0.000671466,-0.003283381,-1.278880000,-1.260738311,-0.524706000,-0.033235100,-0.566912119,1.254550000,,,,,
1749760932.675709,0.000712338,-0.003058950,-0.014439800,0.017955700,-0.001398400,0.007605070,-0.009487450,0.009337170,1749760932.675709009,0.000813799,-0.003033535,-1.278860000,-1.260679529,-0.524703000,-0.033303700,-0.566994940,1.254430000,,,,,
1749760932.685751,0.000830382,-0.002825560,-0.014324600,0.019551400,-0.001585540,0.005793500,-0.008516850,0.009748540,1749760932.685750961,0.000923877,-0.002796386,-1.278830000,-1.260675839,-0.524700000,-0.033257500,-0.566932700,1.254300000,,,,,
1749760932.695681,0.000937076,-0.002632750,-0.014179300,0.020082800,-0.001791780,0.003975120,-0.007863350,0.010021300,1749760932.695681095,0.001024075,-0.002600145,-1.278810000,-1.260661406,-0.524700000,-0.033247700,-0.566919681,1.254180000,,,,,
1749760932.705683,0.001222220,-0.002524890,-0.013975200,0.020261900,-0.001924270,0.002789520,-0.006980070,0.010248100,1749760932.705682993,0.001305353,-0.002482931,-1.278760000,-1.260639186,-0.524711000,-0.033198100,-0.566866486,1.254070000,,,,,
1749760932.715688,0.001623790,-0.002503760,-0.013728900,0.019888100,-0.002177840,0.000852182,-0.004971120,0.010396400,1749760932.715687990,0.001705456,-0.002448862,-1.278690000,-1.260694369,-0.524733000,-0.032976000,-0.566606164,1.253960000,,,,,
1749760932.725753,0.002184920,-0.002540460,-0.013478100,0.018568600,-0.002485230,-0.001322310,-0.002151400,0.010403600,1749760932.725753069,0.002266603,-0.002467858,-1.278590000,-1.260797284,-0.524763000,-0.032616100,-0.566179126,1.253860000,,,,,
1749760932.735406,0.002880210,-0.002604200,-0.013357700,0.015605900,-0.002996460,-0.004750130,-0.000228736,0.010158900,1749760932.735405922,0.002962955,-0.002509655,-1.278470000,-1.260822190,-0.524798000,-0.032358200,-0.565885047,1.253750000,,,,,
1749760932.745548,0.003611070,-0.002646810,-0.013218600,0.012184400,-0.003539370,-0.008160170,0.001144860,0.009817840,1749760932.745548010,0.003694312,-0.002529326,-1.278330000,-1.260792801,-0.524830000,-0.032161000,-0.565663884,1.253630000,,,,,
1749760932.755669,0.004240320,-0.002646980,-0.013065200,0.009555210,-0.003998840,-0.010761100,0.002496610,0.009557710,1749760932.755669117,0.004322720,-0.002510161,-1.278200000,-1.260779580,-0.524857000,-0.031953100,-0.565424586,1.253520000,,,,,
1749760932.765644,0.004752010,-0.002583840,-0.012905600,0.007221830,-0.004398130,-0.012768700,0.003808380,0.009314260,1749760932.765644073,0.004831608,-0.002431747,-1.278090000,-1.260790915,-0.524874000,-0.031737600,-0.565166376,1.253420000,,,,,
1749760932.775659,0.005170560,-0.002446090,-0.012695300,0.004897090,-0.004746620,-0.014288600,0.005552260,0.009048740,1749760932.775659084,0.005244911,-0.002282313,-1.277980000,-1.260845417,-0.524880000,-0.031446200,-0.564801496,1.253320000,,,,,
1749760932.785503,0.005547860,-0.002252990,-0.012450700,0.002697660,-0.004960450,-0.014776900,0.007739360,0.008778170,1749760932.785502911,0.005615178,-0.002079542,-1.277870000,-1.260946347,-0.524876000,-0.031072900,-0.564323367,1.253230000,,,,,
1749760932.795696,0.005801520,-0.002011360,-0.012131100,0.001145450,-0.005206730,-0.015455000,0.009398380,0.008579640,1749760932.795696020,0.005860625,-0.001832014,-1.277780000,-1.261036375,-0.524864000,-0.030754500,-0.563907092,1.253150000,,,,,
1749760932.805717,0.006017820,-0.001777470,-0.011815300,0.000707844,-0.005122950,-0.013814500,0.010996100,0.008527520,1749760932.805716991,0.006069112,-0.001593563,-1.277690000,-1.261130666,-0.524850000,-0.030428400,-0.563479106,1.253070000,,,,,
1749760932.815705,0.006146670,-0.001518130,-0.011446600,0.000160350,-0.005028000,-0.012210100,0.012367900,0.008455060,1749760932.815705061,0.006189600,-0.001332337,-1.277610000,-1.261225528,-0.524830000,-0.030119100,-0.563066611,1.253010000,,,,,
1749760932.825677,0.006204520,-0.001278710,-0.011023900,-0.000318126,-0.004931290,-0.010704000,0.013453600,0.008387150,1749760932.825676918,0.006239906,-0.001093040,-1.277540000,-1.261314553,-0.524810000,-0.029837700,-0.562689601,1.252950000,,,,,
1749760932.835512,0.006327920,-0.001132720,-0.010793200,-0.001300090,-0.004993100,-0.010392600,0.013961500,0.008241300,1749760932.835511923,0.006358699,-0.000944758,-1.277460000,-1.261352006,-0.524802000,-0.029629400,-0.562416490,1.252880000,,,,,
1749760932.845743,0.006647650,-0.000942904,-0.010726800,-0.003114340,-0.005139170,-0.010682700,0.014665900,0.007964720,1749760932.845742941,0.006672485,-0.000747168,-1.277350000,-1.261378591,-0.524786000,-0.029387400,-0.562092001,1.252780000,,,,,
1749760932.855718,0.007232750,-0.000832978,-0.010820300,-0.005760990,-0.005039360,-0.009260390,0.014570300,0.007549070,1749760932.855717897,0.007254020,-0.000621061,-1.277200000,-1.261303495,-0.524779000,-0.029254600,-0.561913101,1.252660000,,,,,
1749760932.865679,0.007976850,-0.000804348,-0.010969400,-0.008796590,-0.004971570,-0.008156410,0.012950700,0.007050440,1749760932.865679026,0.007997015,-0.000569961,-1.277020000,-1.261073103,-0.524783000,-0.029344200,-0.562024828,1.252530000,,,,,
1749760932.875643,0.008819130,-0.000816563,-0.011156200,-0.010419400,-0.004983610,-0.007677830,0.011753500,0.006726710,1749760932.875643015,0.008839316,-0.000557065,-1.276820000,-1.260847884,-0.524793000,-0.029388700,-0.562085064,1.252390000,,,,,
1749760932.885632,0.009564570,-0.000835177,-0.011288500,-0.010954800,-0.004999890,-0.007261380,0.011208000,0.006544740,1749760932.885632038,0.009584960,-0.000554134,-1.276620000,-1.260669174,-0.524804000,-0.029350400,-0.562041899,1.252260000,,,,,
1749760932.895643,0.010222100,-0.000790109,-0.011321300,-0.010257800,-0.005092710,-0.007400470,0.011159400,0.006536440,1749760932.895642996,0.010240833,-0.000490864,-1.276430000,-1.260538204,-0.524806000,-0.029245400,-0.561905969,1.252140000,,,,,
1749760932.905767,0.010747900,-0.000695704,-0.011241400,-0.009442030,-0.005247550,-0.007956880,0.010291000,0.006552390,1749760932.905766964,0.010763653,-0.000380969,-1.276250000,-1.260350309,-0.524800000,-0.029259900,-0.561912984,1.252040000,,,,,
1749760932.915765,0.011116900,-0.000600316,-0.011078400,-0.008576830,-0.005343820,-0.008071820,0.009023610,0.006583660,1749760932.915765047,0.011129726,-0.000273922,-1.276090000,-1.260144952,-0.524793000,-0.029341100,-0.562003631,1.251950000,,,,,
1749760932.925892,0.011457600,-0.000531150,-0.010830800,-0.007811980,-0.005456670,-0.008293010,0.007226840,0.006609010,1749760932.925892115,0.011468284,-0.000192832,-1.275930000,-1.259889131,-0.524789000,-0.029511900,-0.562210136,1.251880000,,,,,
1749760932.935433,0.011892600,-0.000470296,-0.010684300,-0.008829950,-0.005736970,-0.009651530,0.005351840,0.006383000,1749760932.935432911,0.011901322,-0.000116786,-1.275750000,-1.259596720,-0.524786000,-0.029712100,-0.562454009,1.251790000,,,,,
1749760932.945647,0.012292900,-0.000438760,-0.010467000,-0.009158230,-0.006133530,-0.011716800,0.003738390,0.006247010,1749760932.945647001,0.012300522,-0.000071147,-1.275580000,-1.259325027,-0.524786000,-0.029893000,-0.562676780,1.251720000,,,,,
1749760932.955757,0.012626200,-0.000398738,-0.010244600,-0.009296160,-0.006687780,-0.014725300,0.001488860,0.006135390,1749760932.955756903,0.012632482,-0.000017525,-1.275400000,-1.258982278,-0.524784000,-0.030182400,-0.563033774,1.251640000,,,,,
1749760932.965831,0.012829600,-0.000340911,-0.009972470,-0.009455260,-0.007278620,-0.017778600,0.000078433,0.006019310,1749760932.965831041,0.012834036,0.000048852,-1.275250000,-1.258725470,-0.524780000,-0.030372400,-0.563264417,1.251580000,,,,,
1749760932.975405,0.012928900,-0.000269452,-0.009661830,-0.010054100,-0.007890590,-0.020767200,-0.001983450,0.005837760,1749760932.975404978,0.012931082,0.000127157,-1.275110000,-1.258417390,-0.524773000,-0.030671200,-0.563629209,1.251530000,,,,,
1749760932.985766,0.012962200,-0.000132963,-0.009435240,-0.010316200,-0.008652750,-0.024583800,-0.004265830,0.005699150,1749760932.985765934,0.012960087,0.000269158,-1.274970000,-1.258079848,-0.524756000,-0.031022600,-0.564050048,1.251460000,,,,,
1749760932.995700,0.012992800,0.000064260,-0.009267200,-0.010378500,-0.009639060,-0.029680600,-0.005140760,0.005586930,1749760932.995699883,0.012984476,0.000469440,-1.274840000,-1.257854991,-0.524728000,-0.031192400,-0.564231621,1.251390000,,,,,
1749760933.005766,0.012996400,0.000277239,-0.009068800,-0.010486500,-0.010666100,-0.034707000,-0.005255920,0.005467450,1749760933.005765915,0.012981385,0.000683311,-1.274710000,-1.257687596,-0.524697000,-0.031260500,-0.564282231,1.251330000,,,,,
1749760933.015751,0.012995400,0.000411168,-0.008849080,-0.011266400,-0.011689900,-0.039364800,-0.005790180,0.005249290,1749760933.015750885,0.012976093,0.000818833,-1.274580000,-1.257484870,-0.524675000,-0.031390700,-0.564419908,1.251270000,,,,,
1749760933.025815,0.013039600,0.000411163,-0.008592460,-0.012685100,-0.012622200,-0.043072800,-0.006770960,0.004930500,1749760933.025815010,0.013020107,0.000822825,-1.274440000,-1.257231932,-0.524671000,-0.031591100,-0.564663477,1.251220000,,,,,
1749760933.035563,0.013166600,0.000339428,-0.008397800,-0.013504400,-0.013425800,-0.045638900,-0.006898210,0.004684620,1749760933.035562992,0.013149244,0.000756270,-1.274290000,-1.257033138,-0.524677000,-0.031677300,-0.564773094,1.251160000,,,,,
1749760933.046057,0.013296500,0.000327491,-0.008239330,-0.011260500,-0.014385800,-0.049105800,-0.004350430,0.004875580,1749760933.046056986,0.013279682,0.000744454,-1.274140000,-1.257053327,-0.524675000,-0.031376100,-0.564387745,1.251100000,,,,,
1749760933.055969,0.013372900,0.000257130,-0.008214080,-0.009063400,-0.015421000,-0.052850800,-0.002090090,0.005082170,1749760933.055969000,0.013358444,0.000672718,-1.274000000,-1.257073921,-0.524682000,-0.031091200,-0.564032233,1.251020000,,,,,
1749760933.066030,0.013488700,0.000173224,-0.008248130,-0.006016640,-0.016341700,-0.055550800,0.000167807,0.005434180,1749760933.066030025,0.013476977,0.000588314,-1.273850000,-1.257096839,-0.524692000,-0.030784100,-0.563651537,1.250930000,,,,,
1749760933.075414,0.013723600,0.000059308,-0.008379680,-0.001201380,-0.017463700,-0.059450000,0.003575610,0.006073580,1749760933.075413942,0.013715510,0.000474868,-1.273680000,-1.257206329,-0.524707000,-0.030287300,-0.563036787,1.250830000,,,,,
1749760933.085813,0.013858700,-0.000017306,-0.008572120,0.003564320,-0.018380000,-0.061665100,0.007275410,0.006753940,1749760933.085813046,0.013853097,0.000394440,-1.273520000,-1.257368629,-0.524717000,-0.029714100,-0.562321306,1.250720000,,,,,
1749760933.095719,0.013937700,-0.000061741,-0.008698620,0.007806510,-0.019201000,-0.063071600,0.009520480,0.007405900,1749760933.095719099,0.013933521,0.000346813,-1.273370000,-1.257442698,-0.524724000,-0.029315200,-0.561822297,1.250620000,,,,,
1749760933.106210,0.013834800,-0.000107355,-0.008776670,0.011571800,-0.019852000,-0.063210800,0.010459800,0.008030980,1749760933.106209993,0.013832071,0.000294998,-1.273250000,-1.257452686,-0.524731000,-0.029083500,-0.561534440,1.250520000,,,,,
1749760933.115731,0.013660400,-0.000217776,-0.008884780,0.015041300,-0.020350400,-0.062290500,0.011157200,0.008650770,1749760933.115731001,0.013660993,0.000176740,-1.273130000,-1.257447838,-0.524748000,-0.028877600,-0.561289047,1.250410000,,,,,
1749760933.125544,0.013404000,-0.000335604,-0.008971870,0.018205800,-0.020691900,-0.060353700,0.011969900,0.009260920,1749760933.125544071,0.013408113,0.000048478,-1.273030000,-1.257476230,-0.524767000,-0.028647900,-0.561016324,1.250310000,,,,,
1749760933.135813,0.013026400,-0.000376553,-0.009071660,0.020874600,-0.020805800,-0.056983700,0.012500300,0.009830710,1749760933.135812998,0.013031840,-0.000005834,-1.272950000,-1.257506306,-0.524777000,-0.028451200,-0.560776688,1.250210000,,,,,
1749760933.146284,0.012541900,-0.000369998,-0.009166940,0.023410800,-0.020746800,-0.052655400,0.012678900,0.010407900,1749760933.146284103,0.012547348,-0.000014959,-1.272890000,-1.257530908,-0.524780000,-0.028300200,-0.560588099,1.250100000,,,,,
1749760933.155819,0.012016400,-0.000314718,-0.009220420,0.025629900,-0.020632000,-0.048240300,0.013385200,0.010964400,1749760933.155818939,0.012020499,0.000022672,-1.272850000,-1.257619630,-0.524775000,-0.028070800,-0.560293486,1.250000000,,,,,
1749760933.165575,0.011596200,-0.000239062,-0.009309720,0.026419800,-0.020698000,-0.045374400,0.013063100,0.011335500,1749760933.165575027,0.011598349,0.000085495,-1.272790000,-1.257608618,-0.524767000,-0.027983800,-0.560174395,1.249900000,,,,,
1749760933.175784,0.011189800,-0.000216098,-0.009415820,0.027076700,-0.020899100,-0.043635000,0.012715000,0.011695100,1749760933.175784111,0.011191473,0.000096182,-1.272730000,-1.257593535,-0.524766000,-0.027903700,-0.560070985,1.249790000,,,,,
1749760933.185781,0.010874100,-0.000241575,-0.009630220,0.025779900,-0.021235900,-0.042950200,0.011816600,0.011777500,1749760933.185781002,0.010876607,0.000061944,-1.272660000,-1.257521491,-0.524772000,-0.027907100,-0.560079305,1.249670000,,,,,
1749760933.195803,0.010574700,-0.000258415,-0.009854950,0.023696300,-0.021475300,-0.041641400,0.011375300,0.011732600,1749760933.195802927,0.010577795,0.000036184,-1.272600000,-1.257491673,-0.524777000,-0.027853000,-0.560014600,1.249540000,,,,,
1749760933.205402,0.010225900,-0.000332556,-0.009987040,0.021761300,-0.021621100,-0.039778800,0.010307700,0.011688400,1749760933.205401897,0.010231197,-0.000047218,-1.272540000,-1.257408148,-0.524790000,-0.027894400,-0.560077981,1.249420000,,,,,
1749760933.215789,0.009813760,-0.000454809,-0.010057700,0.019694200,-0.021663300,-0.037331600,0.008867000,0.011605700,1749760933.215789080,0.009822646,-0.000179875,-1.272500000,-1.257308060,-0.524812000,-0.028000600,-0.560232386,1.249310000,,,,,
1749760933.225815,0.009272760,-0.000597580,-0.010101800,0.017616300,-0.021600100,-0.034326900,0.007257160,0.011500800,1749760933.225815058,0.009285905,-0.000336389,-1.272480000,-1.257206006,-0.524837000,-0.028145800,-0.560439369,1.249200000,,,,,
1749760933.235780,0.008679240,-0.000738912,-0.010167500,0.015304000,-0.021324600,-0.030067800,0.005900590,0.011341000,1749760933.235780001,0.008696658,-0.000493285,-1.272470000,-1.257125490,-0.524863000,-0.028270300,-0.560621593,1.249090000,,,,,
1749760933.245828,0.008125540,-0.000843061,-0.010219200,0.013406200,-0.021048200,-0.026095600,0.004802310,0.011218300,1749760933.245827913,0.008146185,-0.000612224,-1.272470000,-1.257068433,-0.524886000,-0.028370900,-0.560771048,1.248980000,,,,,
1749760933.255817,0.007495220,-0.000932309,-0.010231100,0.012081000,-0.020784200,-0.022482300,0.003861060,0.011159900,1749760933.255816936,0.007518714,-0.000718649,-1.272480000,-1.257028086,-0.524907000,-0.028459600,-0.560903824,1.248880000,,,,,
1749760933.265637,0.006954040,-0.000987725,-0.010213400,0.010656200,-0.020429000,-0.018490000,0.002829150,0.011073700,1749760933.265636921,0.006979418,-0.000788666,-1.272480000,-1.256965136,-0.524925000,-0.028570900,-0.561061720,1.248780000,,,,,
1749760933.275645,0.006418900,-0.001058570,-0.010131000,0.008667530,-0.019931000,-0.013789100,0.001997750,0.010891300,1749760933.275645018,0.006446601,-0.000874173,-1.272490000,-1.256922655,-0.524945000,-0.028663400,-0.561198265,1.248690000,,,,,
1749760933.285883,0.005913400,-0.001125910,-0.010065200,0.006792340,-0.019398200,-0.009172610,0.002011950,0.010705600,1749760933.285882950,0.005943218,-0.000956103,-1.272500000,-1.256944424,-0.524965000,-0.028641400,-0.561190891,1.248600000,,,,,
1749760933.295799,0.005370950,-0.001113180,-0.009965310,0.005526940,-0.018882700,-0.004993210,0.002217490,0.010589600,1749760933.295799017,0.005400578,-0.000959183,-1.272520000,-1.256992188,-0.524975000,-0.028591400,-0.561138611,1.248510000,,,,,
1749760933.305445,0.004826230,-0.001041080,-0.009840800,0.003508560,-0.018289000,-0.000562745,0.003028280,0.010351700,1749760933.305444956,0.004853893,-0.000903364,-1.272550000,-1.257100723,-0.524975000,-0.028451400,-0.560963480,1.248430000,,,,,
1749760933.315665,0.004269910,-0.001000920,-0.009682110,0.001211570,-0.017619100,0.004086790,0.003646440,0.010053100,1749760933.315665007,0.004296550,-0.000879562,-1.272580000,-1.257197932,-0.524980000,-0.028331300,-0.560818346,1.248350000,,,,,
1749760933.325826,0.003711550,-0.000974532,-0.009514690,-0.000731305,-0.016985000,0.008170300,0.003967850,0.009782900,1749760933.325825930,0.003737594,-0.000869313,-1.272620000,-1.257284346,-0.524986000,-0.028248200,-0.560720998,1.248280000,,,,,
1749760933.336390,0.003308500,-0.000932723,-0.009380180,-0.001785550,-0.016436500,0.011382900,0.004708620,0.009622430,1749760933.336390018,0.003333401,-0.000839395,-1.272640000,-1.257386806,-0.524990000,-0.028100900,-0.560540355,1.248210000,,,,,
1749760933.346077,0.002821700,-0.000930788,-0.009224470,-0.004323700,-0.015803000,0.014960500,0.004615290,0.009235830,1749760933.346076965,0.002846710,-0.000851234,-1.272680000,-1.257445371,-0.524999000,-0.028067300,-0.560508225,1.248130000,,,,,
1749760933.355594,0.002425010,-0.000923446,-0.009171890,-0.008179760,-0.015473900,0.016195400,0.004202480,0.008632370,1749760933.355593920,0.002449982,-0.000854994,-1.272700000,-1.257457348,-0.525007000,-0.028081200,-0.560534262,1.248050000,,,,,
1749760933.366156,0.001999500,-0.000949513,-0.009087180,-0.012816600,-0.015318300,0.016151800,0.003638940,0.007876930,1749760933.366156101,0.002025407,-0.000892917,-1.272740000,-1.257474656,-0.525020000,-0.028121000,-0.560598428,1.247970000,,,,,
1749760933.375880,0.001663500,-0.001003300,-0.008993070,-0.016511600,-0.015190100,0.015922700,0.003414200,0.007211940,1749760933.375880003,0.001691049,-0.000956136,-1.272770000,-1.257506241,-0.525037000,-0.028117300,-0.560611612,1.247890000,,,,,
1749760933.385821,0.001357680,-0.001071900,-0.008856460,-0.019079600,-0.015282800,0.014188200,0.003842120,0.006673740,1749760933.385821104,0.001387179,-0.001033441,-1.272800000,-1.257589649,-0.525057000,-0.028021000,-0.560511344,1.247820000,,,,,
1749760933.395764,0.000993566,-0.001109190,-0.008736470,-0.020200400,-0.015486500,0.011809700,0.004332970,0.006320110,1749760933.395764112,0.001024134,-0.001081030,-1.272840000,-1.257690724,-0.525073000,-0.027911200,-0.560390367,1.247750000,,,,,
1749760933.405518,0.000628125,-0.001138200,-0.008570710,-0.020979600,-0.015607700,0.010162600,0.004342690,0.006004910,1749760933.405518055,0.000659595,-0.001120257,-1.272880000,-1.257755311,-0.525089000,-0.027866500,-0.560351256,1.247690000,,,,,
1749760933.415782,0.000192766,-0.001081720,-0.008377500,-0.021323000,-0.015758200,0.008427180,0.004588690,0.005745220,1749760933.415781975,0.000222746,-0.001075947,-1.272940000,-1.257859580,-0.525092000,-0.027787300,-0.560256306,1.247630000,,,,,
1749760933.425776,-0.000266937,-0.000999327,-0.008185430,-0.020960500,-0.015840700,0.007279150,0.004592770,0.005584660,1749760933.425776005,-0.000239116,-0.001006347,-1.273000000,-1.257945635,-0.525091000,-0.027740800,-0.560198480,1.247580000,,,,,
1749760933.435733,-0.000712321,-0.000903433,-0.007956130,-0.019856700,-0.015922700,0.006213910,0.004371470,0.005535410,1749760933.435733080,-0.000687001,-0.000922834,-1.273070000,-1.258023394,-0.525087000,-0.027727100,-0.560179188,1.247530000,,,,,
1749760933.445756,-0.001064010,-0.000806651,-0.007662240,-0.019063100,-0.016031200,0.005039570,0.003813960,0.005452140,1749760933.445755959,-0.001041207,-0.000835878,-1.273130000,-1.258062670,-0.525082000,-0.027764300,-0.560222654,1.247490000,,,,,
1749760933.455775,-0.001323240,-0.000726841,-0.007358880,-0.017020700,-0.016172100,0.003722910,0.003411540,0.005558230,1749760933.455775023,-0.001302537,-0.000763322,-1.273180000,-1.258101333,-0.525078000,-0.027784700,-0.560245709,1.247460000,,,,,
1749760933.465839,-0.001602630,-0.000654928,-0.007072040,-0.014860900,-0.016327500,0.002396670,0.003213430,0.005701800,1749760933.465838909,-0.001583821,-0.000699190,-1.273230000,-1.258154422,-0.525075000,-0.027779300,-0.560237305,1.247430000,,,,,
1749760933.476002,-0.002017270,-0.000580397,-0.006706380,-0.010670300,-0.016148300,0.003465110,0.003634620,0.006162020,1749760933.476001978,-0.002000430,-0.000636018,-1.273310000,-1.258286767,-0.525071000,-0.027686000,-0.560118133,1.247410000,,,,,
1749760933.485769,-0.002361430,-0.000503928,-0.006338500,-0.006655140,-0.015845000,0.005314620,0.004053150,0.006638640,1749760933.485769033,-0.002346630,-0.000568877,-1.273380000,-1.258411260,-0.525066000,-0.027588900,-0.559992883,1.247390000,,,,,
1749760933.495731,-0.002683580,-0.000380895,-0.005905450,-0.004022360,-0.015333300,0.008470660,0.002710230,0.006954590,1749760933.495731115,-0.002671981,-0.000455191,-1.273450000,-1.258395060,-0.525053000,-0.027743400,-0.560176248,1.247390000,,,,,
1749760933.505737,-0.002954990,-0.000264196,-0.005484900,-0.001374250,-0.014774000,0.011737200,0.001296700,0.007299090,1749760933.505737066,-0.002946462,-0.000346591,-1.273510000,-1.258355500,-0.525040000,-0.027921700,-0.560389291,1.247400000,,,,,
1749760933.515745,-0.003190110,-0.000123592,-0.005036100,0.000096933,-0.014211300,0.014802400,-0.000441488,0.007499080,1749760933.515744925,-0.003185365,-0.000213368,-1.273580000,-1.258291730,-0.525022000,-0.028161200,-0.560674629,1.247410000,,,,,
1749760933.525781,-0.003433880,0.000069796,-0.004566240,0.002893530,-0.013578700,0.018138100,-0.001287580,0.007906350,1749760933.525780916,-0.003434480,-0.000027359,-1.273640000,-1.258281029,-0.524995000,-0.028288600,-0.560809639,1.247420000,,,,,
1749760933.535720,-0.003670660,0.000209816,-0.004100550,0.004796200,-0.012801800,0.022237500,-0.003318390,0.008211700,1749760933.535720110,-0.003675158,0.000104776,-1.273710000,-1.258178868,-0.524974000,-0.028596500,-0.561178047,1.247450000,,,,,
1749760933.545753,-0.003897780,0.000376044,-0.003499700,0.010228800,-0.011662800,0.028546300,-0.004385390,0.009048920,1749760933.545753002,-0.003906988,0.000263707,-1.273780000,-1.258143951,-0.524948000,-0.028784700,-0.561390852,1.247490000,,,,,
1749760933.555763,-0.004112790,0.000580631,-0.002840440,0.016073500,-0.010714300,0.033110200,-0.003493750,0.010000300,1749760933.555763006,-0.004127758,0.000462375,-1.273850000,-1.258263005,-0.524914000,-0.028699000,-0.561251050,1.247550000,,,,,
1749760933.565760,-0.004314290,0.000807383,-0.002241360,0.021244500,-0.009811210,0.037047300,-0.002991960,0.010912300,1749760933.565759897,-0.004335655,0.000683416,-1.273920000,-1.258355420,-0.524875000,-0.028661000,-0.561166257,1.247610000,,,,,
1749760933.575752,-0.004568510,0.000886282,-0.001538100,0.025043300,-0.008908330,0.040712000,-0.003512300,0.011676700,1749760933.575752020,-0.004592112,0.000754513,-1.274000000,-1.258376668,-0.524856000,-0.028766600,-0.561282445,1.247690000,,,,,
1749760933.585457,-0.004803730,0.001033110,-0.000714399,0.028866600,-0.008180530,0.042919300,-0.003501760,0.012482600,1749760933.585457087,-0.004831488,0.000894352,-1.274080000,-1.258438638,-0.524826000,-0.028800200,-0.561297043,1.247800000,,,,,
1749760933.595515,-0.005023890,0.001146680,0.000100551,0.031254700,-0.007631800,0.043742100,-0.003464390,0.013118200,1749760933.595515013,-0.005054856,0.001001386,-1.274160000,-1.258502825,-0.524799000,-0.028829700,-0.561309484,1.247910000,,,,,
1749760933.605514,-0.005287040,0.001325740,0.000941511,0.033116300,-0.007323410,0.042854000,-0.002675220,0.013701200,1749760933.605514050,-0.005322965,0.001173212,-1.274250000,-1.258638781,-0.524761000,-0.028749700,-0.561173404,1.248030000,,,,,
1749760933.615709,-0.005504570,0.001427740,0.001799160,0.034683100,-0.007184970,0.040857200,-0.001772170,0.014260000,1749760933.615709066,-0.005543204,0.001269496,-1.274340000,-1.258788125,-0.524733000,-0.028645300,-0.561016589,1.248160000,,,,,
1749760933.625876,-0.005649690,0.001548470,0.002670210,0.037287200,-0.007182770,0.038060000,-0.000789984,0.014985100,1749760933.625875950,-0.005691549,0.001386731,-1.274410000,-1.258929127,-0.524701000,-0.028520300,-0.560829245,1.248310000,,,,,
1749760933.635502,-0.005728540,0.001696020,0.003495480,0.040152600,-0.007302600,0.034615500,-0.000254942,0.015774300,1749760933.635502100,-0.005774468,0.001532376,-1.274480000,-1.259039294,-0.524664000,-0.028450500,-0.560706377,1.248460000,,,,,
1749760933.645691,-0.005743660,0.001760100,0.004337330,0.042649100,-0.007276770,0.032410600,0.000820646,0.016538500,1749760933.645690918,-0.005791159,0.001596890,-1.274540000,-1.259186171,-0.524638000,-0.028296800,-0.560488564,1.248610000,,,,,
1749760933.655673,-0.005776810,0.001773540,0.005213610,0.044448400,-0.007391510,0.029390000,0.002051420,0.017226400,1749760933.655673027,-0.005824375,0.001610476,-1.274600000,-1.259351470,-0.524619000,-0.028109800,-0.560235780,1.248780000,,,,,
1749760933.665671,-0.005603470,0.001728210,0.006036870,0.045634100,-0.007548110,0.026289100,0.003160010,0.017843200,1749760933.665671110,-0.005649544,0.001571062,-1.274640000,-1.259493480,-0.524608000,-0.027928200,-0.559997194,1.248950000,,,,,
1749760933.675744,-0.005435120,0.001667080,0.006846330,0.045696100,-0.007616940,0.024005800,0.002284730,0.018308500,1749760933.675744057,-0.005479698,0.001514133,-1.274670000,-1.259470235,-0.524599000,-0.028023700,-0.560109317,1.249130000,,,,,
1749760933.685647,-0.005257290,0.001512330,0.007841400,0.047766300,-0.007692610,0.021832600,0.001742360,0.019066200,1749760933.685647011,-0.005297678,0.001364130,-1.274700000,-1.259468687,-0.524605000,-0.028079700,-0.560186686,1.249350000,,,,,
1749760933.695681,-0.005064750,0.001269130,0.008854990,0.049589900,-0.007946580,0.018581700,0.002123070,0.019808800,1749760933.695681095,-0.005098304,0.001126802,-1.274720000,-1.259528841,-0.524625000,-0.028007000,-0.560115674,1.249570000,,,,,
1749760933.705805,-0.004801360,0.000969824,0.009935290,0.051113200,-0.008616870,0.012689000,0.002258900,0.020526000,1749760933.705805063,-0.004826601,0.000835187,-1.274730000,-1.259560934,-0.524656000,-0.027966000,-0.560095300,1.249820000,,,,,
1749760933.715820,-0.004554570,0.000689771,0.011053500,0.050052300,-0.009542790,0.005442290,0.002795120,0.020883000,1749760933.715820074,-0.004572020,0.000562604,-1.274740000,-1.259626350,-0.524687000,-0.027865500,-0.559999978,1.250080000,,,,,
1749760933.725724,-0.004363060,0.000249303,0.012288700,0.045805800,-0.010511100,-0.001597300,0.002698790,0.020766600,1749760933.725723982,-0.004368310,0.000127704,-1.274760000,-1.259652594,-0.524744000,-0.027851500,-0.560039878,1.250370000,,,,,
1749760933.735496,-0.004022430,-0.000184155,0.013495700,0.039433100,-0.011221800,-0.006379310,0.001876680,0.020298800,1749760933.735496044,-0.004015714,-0.000296471,-1.274760000,-1.259599081,-0.524805000,-0.027944000,-0.560217369,1.250670000,,,,,
1749760933.745668,-0.003592140,-0.000712602,0.014678300,0.034124100,-0.011527200,-0.008042240,0.001165280,0.019921900,1749760933.745667934,-0.003570758,-0.000812992,-1.274730000,-1.259519508,-0.524883000,-0.028028600,-0.560401058,1.250970000,,,,,
1749760933.755667,-0.003239230,-0.001256110,0.015868600,0.030164600,-0.011794300,-0.009327510,0.000724030,0.019687900,1749760933.755666971,-0.003202685,-0.001346564,-1.274720000,-1.259477730,-0.524969000,-0.028081000,-0.560552742,1.251290000,,,,,
1749760933.765668,-0.003114290,-0.001820290,0.017089600,0.027843600,-0.011883300,-0.009297960,0.000249636,0.019652300,1749760933.765667915,-0.003061836,-0.001907202,-1.274730000,-1.259450465,-0.525064000,-0.028142700,-0.560725694,1.251630000,,,,,
1749760933.775707,-0.003189500,-0.002395620,0.018300000,0.023680200,-0.012226000,-0.011016800,-0.001771150,0.019325900,1749760933.775707006,-0.003120103,-0.002485329,-1.274780000,-1.259334264,-0.525166000,-0.028433800,-0.561195677,1.251980000,,,,,
1749760933.785525,-0.003204090,-0.002885120,0.019442300,0.017815900,-0.012437800,-0.011716500,-0.003691590,0.018710700,1749760933.785525084,-0.003119888,-0.002975972,-1.274810000,-1.259194960,-0.525261000,-0.028730500,-0.561665119,1.252330000,,,,,
1749760933.795766,-0.002945210,-0.003443330,0.020518100,0.012666500,-0.012657700,-0.012423100,-0.005063080,0.018140800,1749760933.795766115,-0.002844247,-0.003527187,-1.274800000,-1.259049078,-0.525371000,-0.028966700,-0.562072189,1.252680000,,,,,
1749760933.805807,-0.002651750,-0.004120610,0.021629700,0.005801960,-0.012760000,-0.012272700,-0.007031350,0.017270100,1749760933.805807114,-0.002529881,-0.004196535,-1.274790000,-1.258845950,-0.525503000,-0.029303300,-0.562627604,1.253040000,,,,,
1749760933.815861,-0.002225400,-0.004706570,0.022824200,0.000747258,-0.012869800,-0.012183500,-0.006511730,0.016593800,1749760933.815860987,-0.002086571,-0.004769741,-1.274750000,-1.258805173,-0.525630000,-0.029298100,-0.562746831,1.253430000,,,,,
1749760933.825527,-0.001822900,-0.005143780,0.023907800,-0.002860660,-0.013106500,-0.012973800,-0.004902790,0.016077100,1749760933.825526953,-0.001672312,-0.005194690,-1.274720000,-1.258866843,-0.525740000,-0.029129500,-0.562643668,1.253820000,,,,,
1749760933.835553,-0.001579550,-0.005524960,0.024874900,-0.005192260,-0.013098100,-0.012023000,-0.004475670,0.015709700,1749760933.835552931,-0.001418036,-0.005568603,-1.274700000,-1.258851107,-0.525847000,-0.029116400,-0.562733550,1.254200000,,,,,
1749760933.846008,-0.001371790,-0.005981460,0.025911300,-0.008855020,-0.013312100,-0.012668600,-0.005432420,0.015125700,1749760933.846008062,-0.001195968,-0.006019081,-1.274690000,-1.258734085,-0.525969000,-0.029300200,-0.563086572,1.254600000,,,,,
1749760933.855812,-0.000891995,-0.006522460,0.026840900,-0.011203500,-0.013433100,-0.012629800,-0.005958150,0.014695900,1749760933.855812073,-0.000699675,-0.006545884,-1.274630000,-1.258596444,-0.526107000,-0.029430900,-0.563387258,1.254990000,,,,,
1749760933.865913,-0.000192190,-0.007147010,0.027643200,-0.012369400,-0.013385100,-0.011429600,-0.006316070,0.014414500,1749760933.865912914,0.000019004,-0.007149568,-1.274540000,-1.258438994,-0.526263000,-0.029542500,-0.563680987,1.255380000,,,,,
1749760933.875689,0.000406299,-0.007703140,0.028368900,-0.014385300,-0.013674100,-0.012632000,-0.005739150,0.013998000,1749760933.875689030,0.000633499,-0.007687791,-1.274450000,-1.258356214,-0.526415000,-0.029521800,-0.563804215,1.255760000,,,,,
1749760933.885539,0.000913001,-0.008289200,0.029130800,-0.018149800,-0.014265900,-0.015836300,-0.004880670,0.013307200,1749760933.885539055,0.001156724,-0.008258716,-1.274380000,-1.258319415,-0.526577000,-0.029454500,-0.563879394,1.256150000,,,,,
1749760933.895711,0.001295230,-0.008798400,0.029873200,-0.021404800,-0.014840100,-0.018698500,-0.003278890,0.012652800,1749760933.895710945,0.001552173,-0.008756724,-1.274310000,-1.258348526,-0.526734000,-0.029270600,-0.563802864,1.256550000,,,,,
1749760933.905782,0.001435550,-0.009165130,0.030649400,-0.024740000,-0.015315700,-0.020685200,-0.002148030,0.011954200,1749760933.905781984,0.001701966,-0.009119415,-1.274280000,-1.258388531,-0.526876000,-0.029139100,-0.563778452,1.256960000,,,,,
1749760933.915831,0.001587440,-0.009473870,0.031321600,-0.028142700,-0.015726700,-0.022090000,-0.001681990,0.011212500,1749760933.915831089,0.001862352,-0.009423684,-1.274240000,-1.258370637,-0.527012000,-0.029092900,-0.563855093,1.257370000,,,,,
1749760933.925394,0.001547910,-0.009862580,0.031984200,-0.031287900,-0.015964500,-0.022206700,-0.002170470,0.010474100,1749760933.925394058,0.001835006,-0.009813219,-1.274230000,-1.258306781,-0.527163000,-0.029180600,-0.564116094,1.257780000,,,,,
1749760933.935694,0.001612920,-0.010231100,0.032536100,-0.033321900,-0.016222900,-0.022456500,-0.003206350,0.009865720,1749760933.935693979,0.001912494,-0.010179356,-1.274210000,-1.258185140,-0.527316000,-0.029352800,-0.564485113,1.258180000,,,,,
