__time,filtered_pose/dx,filtered_pose/dy,filtered_pose/dz,filtered_pose/p,filtered_pose/pitch,filtered_pose/q,filtered_pose/r,filtered_pose/roll,filtered_pose/timestamp,filtered_pose/vxb,filtered_pose/vyb,filtered_pose/x,filtered_pose/xb,filtered_pose/y,filtered_pose/yaw,filtered_pose/yb,filtered_pose/z,u_control/timestamp,u_control/ux,u_control/uy,u_control/uyaw,u_control/uz
1749762194.388902,0.004904940,-0.015321100,-0.029117300,-0.000453783,-0.005408900,-0.014719000,0.005243790,-0.019194500,1749762194.388901949,0.015165075,0.005367964,0.124701000,0.750580846,-0.754716000,-1.601170000,0.147563455,1.346930000,,,,,
1749762194.397001,,,,,,,,,,,,,,,,,,1749762194.397001028,0.000000000,0.000000000,0.000000000,0.000000000
1749762194.399112,0.004721250,-0.015476200,-0.029526500,0.000420847,-0.005103090,-0.011601000,0.003950540,-0.019071900,1749762194.399111986,0.015325007,0.005191061,0.124723000,0.750736904,-0.754892000,-1.601300000,0.147688387,1.346580000,,,,,
1749762194.408928,0.004653070,-0.015618900,-0.029866500,0.000468050,-0.004805850,-0.008756480,0.003189850,-0.019060900,1749762194.408927917,0.015469361,0.005128348,0.124760000,0.750901351,-0.755068000,-1.601370000,0.147783301,1.346230000,,,,,
1749762194.417086,,,,,,,,,,,,,,,,,,1749762194.417085886,0.000000000,0.000000000,0.009491870,0.000000000
1749762194.419172,0.004529830,-0.015686200,-0.030200300,0.002527150,-0.004558510,-0.006451250,0.000944867,-0.018757100,1749762194.419172049,0.015538894,0.005011885,0.124789000,0.751022007,-0.755234000,-1.601670000,0.148042675,1.345880000,,,,,
1749762194.428962,0.004341700,-0.015858300,-0.030700300,0.006541470,-0.004697320,-0.006962680,-0.000402864,-0.018148600,1749762194.428961992,0.015715850,0.004831986,0.124807000,0.751176701,-0.755416000,-1.601850000,0.148201499,1.345510000,,,,,
1749762194.437068,,,,,,,,,,,,,,,,,,1749762194.437067986,0.000000000,0.000000000,0.018967400,0.000000000
1749762194.439115,0.004613120,-0.016179500,-0.031254400,0.013702700,-0.005168490,-0.009726590,-0.003821320,-0.017042800,1749762194.439115047,0.016025858,0.005121422,0.124890000,0.751303299,-0.755621000,-1.602360000,0.148674008,1.345120000,,,,,
1749762194.449047,0.005176070,-0.016417200,-0.031733800,0.019339500,-0.005799520,-0.013400500,-0.007321990,-0.016086800,1749762194.449047089,0.016242598,0.005700365,0.125018000,0.751414696,-0.755817000,-1.602900000,0.149213915,1.344740000,,,,,
1749762194.457099,,,,,,,,,,,,,,,,,,1749762194.457098961,0.000000000,0.000000000,0.028410500,0.000000000
1749762194.459110,0.005651970,-0.016590000,-0.032054700,0.023622200,-0.006371840,-0.016417500,-0.009260210,-0.015271200,1749762194.459110022,0.016397807,0.006187470,0.125138000,0.751545936,-0.756006000,-1.603260000,0.149610486,1.344380000,,,,,
1749762194.469149,0.006006390,-0.016703300,-0.032230400,0.027101900,-0.007011240,-0.019688600,-0.010448400,-0.014529500,1749762194.469149113,0.016497841,0.006549670,0.125246000,0.751686380,-0.756189000,-1.603520000,0.149919812,1.344030000,,,,,
1749762194.477063,,,,,,,,,,,,,,,,,,1749762194.477062941,0.000000000,0.000000000,0.037804800,0.000000000
1749762194.478941,0.006262020,-0.016654000,-0.032098100,0.029894000,-0.007596890,-0.022364500,-0.011391100,-0.013852800,1749762194.478940964,0.016438571,0.006807496,0.125344000,0.751807061,-0.756349000,-1.603760000,0.150203433,1.343730000,,,,,
1749762194.489168,0.006138330,-0.016639700,-0.031940300,0.028548500,-0.008054810,-0.023977000,-0.009420260,-0.013749300,1749762194.489167929,0.016429491,0.006680609,0.125388000,0.751995054,-0.756513000,-1.603590000,0.150124977,1.343430000,,,,,
1749762194.497069,,,,,,,,,,,,,,,,,,1749762194.497068882,0.000000000,0.000000000,0.047134300,0.000000000
1749762194.499109,0.005809410,-0.016722900,-0.031681900,0.027396600,-0.008360720,-0.024432300,-0.006478800,-0.013631200,1749762194.499109030,0.016525527,0.006349140,0.125402000,0.752223005,-0.756692000,-1.603260000,0.149896613,1.343150000,,,,,
1749762194.509062,0.005515480,-0.016712100,-0.031349600,0.025375800,-0.008654490,-0.024772700,-0.004464850,-0.013650800,1749762194.509062052,0.016525665,0.006051214,0.125417000,0.752421893,-0.756857000,-1.603030000,0.149743908,1.342880000,,,,,
1749762194.517071,,,,,,,,,,,,,,,,,,1749762194.517071009,0.000000000,0.000000000,0.056383400,0.000000000
1749762194.519200,0.005253770,-0.016620300,-0.031076900,0.022934300,-0.009170380,-0.026618500,-0.001340020,-0.013751800,1749762194.519200087,0.016444719,0.005779940,0.125434000,0.752636605,-0.757011000,-1.602620000,0.149457294,1.342600000,,,,,
1749762194.528942,0.004864100,-0.016518400,-0.030739300,0.020811200,-0.009697830,-0.028416800,0.002499430,-0.013830900,1749762194.528942108,0.016358176,0.005378392,0.125430000,0.752868254,-0.757162000,-1.602080000,0.149051573,1.342340000,,,,,
1749762194.537081,,,,,,,,,,,,,,,,,,1749762194.537081003,0.000000000,0.000000000,0.065536400,0.000000000
1749762194.539192,0.004284570,-0.016458700,-0.030336200,0.017898400,-0.010111300,-0.029307000,0.006739380,-0.014045900,1749762194.539191961,0.016319699,0.004786835,0.125395000,0.753121491,-0.757319000,-1.601440000,0.148539534,1.342090000,,,,,
1749762194.549076,0.003811560,-0.016464600,-0.029859300,0.014864000,-0.010461500,-0.029699800,0.009254240,-0.014307800,1749762194.549076080,0.016341985,0.004307037,0.125369000,0.753352486,-0.757484000,-1.601000000,0.148187140,1.341860000,,,,,
1749762194.557092,,,,,,,,,,,,,,,,,,1749762194.557091951,0.000000000,0.000000000,0.074578100,0.000000000
1749762194.559089,0.003118710,-0.016469500,-0.029316200,0.011848300,-0.010648600,-0.028943500,0.010756100,-0.014597300,1749762194.559088945,0.016368926,0.003609577,0.125306000,0.753566196,-0.757650000,-1.600690000,0.147895584,1.341640000,,,,,
1749762194.569191,0.002519640,-0.016438300,-0.028816100,0.006870140,-0.010507600,-0.025981000,0.011851600,-0.015202000,1749762194.569190979,0.016356428,0.003005590,0.125251000,0.753766183,-0.757810000,-1.600430000,0.147649416,1.341420000,,,,,
1749762194.577060,,,,,,,,,,,,,,,,,,1749762194.577059984,0.000000000,0.000000000,0.083493500,0.000000000
1749762194.578926,0.001859920,-0.016460200,-0.028267500,0.002099990,-0.010224000,-0.022240500,0.011364500,-0.015826400,1749762194.578926086,0.016397982,0.002345988,0.125180000,0.753942592,-0.757977000,-1.600380000,0.147545699,1.341210000,,,,,
1749762194.589062,0.001386850,-0.016489400,-0.027724300,-0.003456060,-0.009836150,-0.018040000,0.010084700,-0.016612500,1749762194.589061975,0.016441031,0.001875140,0.125130000,0.754102670,-0.758146000,-1.600450000,0.147553507,1.341010000,,,,,
1749762194.597065,,,,,,,,,,,,,,,,,,1749762194.597064972,0.000000000,0.000000000,0.092268200,0.000000000
1749762194.599100,0.000988272,-0.016536900,-0.027234800,-0.008534950,-0.009282670,-0.012988600,0.007628100,-0.017385000,1749762194.599100113,0.016499943,0.001482436,0.125086000,0.754237520,-0.758318000,-1.600710000,0.147710733,1.340800000,,,,,
1749762194.609064,0.000495799,-0.016571700,-0.026710400,-0.013552800,-0.008662770,-0.007827650,0.006038530,-0.018199300,1749762194.609064102,0.016549308,0.000993706,0.125024000,0.754387141,-0.758488000,-1.600860000,0.147767005,1.340610000,,,,,
1749762194.617068,,,,,,,,,,,,,,,,,,1749762194.617068052,0.000000000,0.000000000,0.100888000,0.000000000
1749762194.619112,0.000062294,-0.016455300,-0.026017000,-0.017805100,-0.008077640,-0.003261360,0.004599990,-0.018952600,1749762194.619112015,0.016445908,0.000559365,0.124966000,0.754515652,-0.758637000,-1.601010000,0.147826689,1.340440000,,,,,
1749762194.629074,-0.000492635,-0.016575300,-0.025435200,-0.021699600,-0.007662630,-0.000180245,0.004546970,-0.019696500,1749762194.629074097,0.016582617,0.000007651,0.124886000,0.754705895,-0.758819000,-1.600970000,0.147722035,1.340260000,,,,,
1749762194.637069,,,,,,,,,,,,,,,,,,1749762194.637068987,0.000000000,0.000000000,0.109339000,0.000000000
1749762194.639105,-0.001091680,-0.016768700,-0.024875000,-0.024093400,-0.007232260,0.002794460,0.003358980,-0.020261300,1749762194.639105082,0.016794078,-0.000583103,0.124794000,0.754883383,-0.759013000,-1.601100000,0.147734066,1.340090000,,,,,
1749762194.649147,-0.001617650,-0.016930300,-0.024295100,-0.025340400,-0.006773260,0.005761440,0.001151990,-0.020683400,1749762194.649147034,0.016971849,-0.001099183,0.124707000,0.755035559,-0.759204000,-1.601380000,0.147864309,1.339930000,,,,,
1749762194.657067,,,,,,,,,,,,,,,,,,1749762194.657067060,0.000000000,0.000000000,0.117609000,0.000000000
1749762194.659162,-0.002076960,-0.017002200,-0.023700400,-0.025391000,-0.006449230,0.007595260,-0.001140740,-0.020944100,1749762194.659162045,0.017058273,-0.001550451,0.124624000,0.755169202,-0.759384000,-1.601710000,0.148036066,1.339770000,,,,,
1749762194.669090,-0.002547260,-0.017027900,-0.023086900,-0.023894500,-0.006287190,0.008187780,-0.004892800,-0.020980600,1749762194.669090033,0.017099605,-0.002010327,0.124535000,0.755264382,-0.759558000,-1.602260000,0.148367904,1.339620000,,,,,
1749762194.677085,,,,,,,,,,,,,,,,,,1749762194.677084923,0.000000000,0.000000000,0.125684000,0.000000000
1749762194.679111,-0.002806930,-0.016991900,-0.022554400,-0.020007200,-0.006376110,0.007012150,-0.010241300,-0.020654800,1749762194.679111004,0.017073671,-0.002256831,0.124472000,0.755307925,-0.759723000,-1.603090000,0.148937083,1.339470000,,,,,
1749762194.689123,-0.002835820,-0.016894600,-0.021961300,-0.014741000,-0.006704510,0.004269080,-0.016796400,-0.020089800,1749762194.689122915,0.016979748,-0.002271020,0.124439000,0.755308138,-0.759879000,-1.604140000,0.149702293,1.339330000,,,,,
1749762194.697069,,,,,,,,,,,,,,,,,,1749762194.697068930,0.000000000,0.000000000,0.133554000,0.000000000
1749762194.699082,-0.002835870,-0.016660200,-0.021250100,-0.010021800,-0.007014560,0.001841120,-0.022359400,-0.019551600,1749762194.699081898,0.016747706,-0.002262473,0.124411000,0.755296948,-0.760014000,-1.605120000,0.150419072,1.339210000,,,,,
1749762194.709061,-0.003154900,-0.016632000,-0.020718600,-0.007910120,-0.007343230,-0.000547892,-0.026812300,-0.019345000,1749762194.709060907,0.016732711,-0.002567726,0.124336000,0.755330336,-0.760176000,-1.605990000,0.151006870,1.339080000,,,,,
1749762194.717067,,,,,,,,,,,,,,,,,,1749762194.717067003,0.000000000,0.000000000,0.141206000,0.000000000
1749762194.718818,-0.003360080,-0.016567500,-0.020132400,-0.007079860,-0.007539220,-0.001859210,-0.030772300,-0.019303500,1749762194.718817949,0.016677795,-0.002761040,0.124275000,0.755362320,-0.760333000,-1.606830000,0.151585990,1.338960000,,,,,
1749762194.729134,-0.003509110,-0.016364600,-0.019443300,-0.006293720,-0.007721420,-0.002985360,-0.033950300,-0.019260100,1749762194.729134083,0.016482637,-0.002904592,0.124220000,0.755383306,-0.760469000,-1.607600000,0.152117615,1.338850000,,,,,
1749762194.737072,,,,,,,,,,,,,,,,,,1749762194.737071991,0.000000000,0.000000000,0.148629000,0.000000000
1749762194.739180,-0.003743360,-0.016388300,-0.018894100,-0.005910010,-0.007881440,-0.003881360,-0.037548500,-0.019267300,1749762194.739180088,0.016517664,-0.003123442,0.124151000,0.755420158,-0.760636000,-1.608470000,0.152712080,1.338740000,,,,,
1749762194.749090,-0.003924160,-0.016342600,-0.018357300,-0.006022810,-0.008088540,-0.005039670,-0.041214900,-0.019342800,1749762194.749089956,0.016481775,-0.003291003,0.124087000,0.755442762,-0.760794000,-1.609370000,0.153334037,1.338630000,,,,,
1749762194.757081,,,,,,,,,,,,,,,,,,1749762194.757081032,0.000000000,0.000000000,0.155815000,0.000000000
1749762194.759107,-0.004046960,-0.016158000,-0.017727100,-0.006067760,-0.008279080,-0.006004320,-0.044044700,-0.019409500,1749762194.759107113,0.016304882,-0.003407299,0.124030000,0.755453375,-0.760930000,-1.610200000,0.153909404,1.338540000,,,,,
1749762194.768831,-0.004102790,-0.016163300,-0.017143900,-0.006254300,-0.008367400,-0.006198960,-0.049710200,-0.019497300,1749762194.768831015,0.016316727,-0.003442320,0.123981000,0.755422707,-0.761092000,-1.611460000,0.154818779,1.338440000,,,,,
1749762194.777067,,,,,,,,,,,,,,,,,,1749762194.777066946,0.000000000,0.000000000,0.162753000,0.000000000
1749762194.779169,-0.004223250,-0.016245000,-0.016679500,-0.006109530,-0.008383660,-0.005884160,-0.056052000,-0.019538800,1749762194.779169083,0.016408294,-0.003536063,0.123923000,0.755378389,-0.761266000,-1.612880000,0.155840694,1.338340000,,,,,
1749762194.789088,-0.004494550,-0.016417500,-0.016193400,-0.007461770,-0.008329040,-0.005103190,-0.062064500,-0.019796400,1749762194.789088011,0.016597472,-0.003776135,0.123841000,0.755345155,-0.761453000,-1.614310000,0.156846938,1.338240000,,,,,
1749762194.797074,,,,,,,,,,,,,,,,,,1749762194.797074080,0.000000000,0.000000000,0.169435000,0.000000000
1749762194.799118,-0.004994780,-0.016575400,-0.015748500,-0.010438400,-0.008086880,-0.003085080,-0.067352400,-0.020303400,1749762194.799118042,0.016782901,-0.004245699,0.123723000,0.755319515,-0.761641000,-1.615700000,0.157787274,1.338150000,,,,,
1749762194.809068,-0.005584040,-0.016677500,-0.015350500,-0.013317000,-0.007781660,-0.000771902,-0.072541400,-0.020826000,1749762194.809067965,0.016918238,-0.004805594,0.123588000,0.755279167,-0.761821000,-1.617130000,0.158740701,1.338050000,,,,,
1749762194.817062,,,,,,,,,,,,,,,,,,1749762194.817061901,0.000000000,0.000000000,0.175853000,0.000000000
1749762194.818923,-0.006125180,-0.016831500,-0.014945100,-0.015898800,-0.007529440,0.001017350,-0.078573600,-0.021334300,1749762194.818922997,0.017105657,-0.005311658,0.123453000,0.755219466,-0.762010000,-1.618730000,0.159823155,1.337950000,,,,,
1749762194.829094,-0.006693090,-0.016975100,-0.014545900,-0.018967400,-0.007263720,0.002776330,-0.083093900,-0.021939100,1749762194.829093933,0.017284742,-0.005847151,0.123310000,0.755185364,-0.762200000,-1.620170000,0.160777056,1.337860000,,,,,
1749762194.837073,,,,,,,,,,,,,,,,,,1749762194.837073088,0.000000000,0.000000000,0.182001000,0.000000000
1749762194.839075,-0.007109090,-0.017145700,-0.014140900,-0.020981900,-0.007044960,0.004090970,-0.086870100,-0.022421400,1749762194.839075089,0.017484279,-0.006230102,0.123182000,0.755163017,-0.762394000,-1.621550000,0.161701065,1.337770000,,,,,
1749762194.849069,-0.007469210,-0.017315600,-0.013900300,-0.022948300,-0.006841420,0.005210400,-0.091497200,-0.022916900,1749762194.849069118,0.017682344,-0.006553916,0.123059000,0.755115263,-0.762590000,-1.623090000,0.162751237,1.337670000,,,,,
1749762194.857080,,,,,,,,,,,,,,,,,,1749762194.857079983,0.000000000,0.000000000,0.187872000,0.000000000
1749762194.859109,-0.007699380,-0.017472600,-0.013693200,-0.025174500,-0.006653480,0.006145370,-0.096589200,-0.023469800,1749762194.859108925,0.017862383,-0.006745923,0.122951000,0.755045595,-0.762786000,-1.624750000,0.163907231,1.337560000,,,,,
1749762194.869068,-0.007814270,-0.017587400,-0.013526700,-0.028365200,-0.006443940,0.007164660,-0.101802000,-0.024185100,1749762194.869067907,0.017994975,-0.006823513,0.122857000,0.754959491,-0.762978000,-1.626470000,0.165122495,1.337450000,,,,,
1749762194.877069,,,,,,,,,,,,,,,,,,1749762194.877068996,0.000000000,0.000000000,0.193460000,0.000000000
1749762194.879084,-0.007898890,-0.017694500,-0.013325900,-0.031983300,-0.006273670,0.007843520,-0.106253000,-0.024994400,1749762194.879084110,0.018118119,-0.006871795,0.122767000,0.754878528,-0.763169000,-1.628140000,0.166304142,1.337340000,,,,,
1749762194.889094,-0.007918310,-0.017790800,-0.013052600,-0.033460100,-0.006071620,0.008694360,-0.109887000,-0.025528800,1749762194.889094114,0.018226299,-0.006856693,0.122685000,0.754808648,-0.763360000,-1.629730000,0.167433580,1.337250000,,,,,
1749762194.897072,,,,,,,,,,,,,,,,,,1749762194.897072077,0.000000000,0.000000000,0.198762000,0.000000000
1749762194.899077,-0.007941410,-0.017872600,-0.012820200,-0.034014400,-0.005897100,0.009297150,-0.113904000,-0.025943900,1749762194.899076939,0.018320841,-0.006844165,0.122602000,0.754720973,-0.763550000,-1.631410000,0.168630084,1.337150000,,,,,
1749762194.909077,-0.008053210,-0.018102000,-0.012719900,-0.031246400,-0.005912800,0.008549140,-0.115607000,-0.025881900,1749762194.909076929,0.018566224,-0.006916063,0.122507000,0.754703328,-0.763762000,-1.632800000,0.169597301,1.337040000,,,,,
1749762194.917072,,,,,,,,,,,,,,,,,,1749762194.917072058,0.000000000,0.000000000,0.203772000,0.000000000
1749762194.919101,-0.007968790,-0.018345000,-0.012646300,-0.026765900,-0.006135720,0.006426300,-0.116200000,-0.025543500,1749762194.919101000,0.018811964,-0.006793427,0.122438000,0.754712376,-0.763978000,-1.634040000,0.170477792,1.336920000,,,,,
1749762194.929063,-0.007767920,-0.018615100,-0.012555900,-0.021219900,-0.006421930,0.004013940,-0.117221000,-0.025005400,1749762194.929063082,0.019077427,-0.006550902,0.122388000,0.754714164,-0.764201000,-1.635350000,0.171430809,1.336810000,,,,,
1749762194.937067,,,,,,,,,,,,,,,,,,1749762194.937067032,0.000000000,0.000000000,0.208490000,0.000000000
1749762194.939130,-0.007642680,-0.018885800,-0.012582200,-0.015633000,-0.006888480,0.000526342,-0.119483000,-0.024405900,1749762194.939130068,0.019349075,-0.006379444,0.122328000,0.754684638,-0.764426000,-1.636850000,0.172517669,1.336680000,,,,,
1749762194.949071,-0.007382670,-0.019164700,-0.012612600,-0.009048830,-0.007461580,-0.003454660,-0.123120000,-0.023605700,1749762194.949070930,0.019620670,-0.006067853,0.122290000,0.754618837,-0.764656000,-1.638570000,0.173793134,1.336550000,,,,,
1749762194.957057,,,,,,,,,,,,,,,,,,1749762194.957056999,0.000000000,0.000000000,0.212912000,0.000000000
1749762194.958829,-0.007086560,-0.019358600,-0.012509200,-0.002390400,-0.008031720,-0.007141200,-0.124648000,-0.022728800,1749762194.958828926,0.019802459,-0.005730386,0.122259000,0.754584915,-0.764875000,-1.640030000,0.174878916,1.336440000,,,,,
1749762194.969063,-0.006976920,-0.019628200,-0.012541800,0.001036980,-0.008543290,-0.010170900,-0.127177000,-0.022254800,1749762194.969063044,0.020072823,-0.005570048,0.122204000,0.754538690,-0.765108000,-1.641640000,0.176055201,1.336310000,,,,,
1749762194.977075,,,,,,,,,,,,,,,,,,1749762194.977075100,0.000000000,0.000000000,0.217037000,0.000000000
1749762194.979164,-0.007130870,-0.019812500,-0.012547900,0.003455580,-0.009006710,-0.012660600,-0.130553000,-0.021893100,1749762194.979163885,0.020277577,-0.005674887,0.122112000,0.754456751,-0.765331000,-1.643400000,0.177307335,1.336180000,,,,,
1749762194.989086,-0.007202960,-0.019879700,-0.012600900,0.004744150,-0.009466950,-0.014957100,-0.134155000,-0.021671300,1749762194.989085913,0.020360303,-0.005704663,0.122030000,0.754344537,-0.765539000,-1.645230000,0.178621388,1.336050000,,,,,
1749762194.997066,,,,,,,,,,,,,,,,,,1749762194.997066021,0.000000000,0.000000000,0.220865000,0.000000000
1749762194.999109,-0.007341170,-0.019916400,-0.012738000,0.007554540,-0.009797280,-0.016201300,-0.137215000,-0.021215600,1749762194.999109030,0.020417600,-0.005803222,0.121938000,0.754234010,-0.765743000,-1.647020000,0.179895179,1.335900000,,,,,
1749762195.008851,-0.007396590,-0.019772000,-0.012744600,0.009936450,-0.010096000,-0.017142000,-0.138666000,-0.020794000,1749762195.008851051,0.020287088,-0.005837431,0.121856000,0.754132670,-0.765921000,-1.648600000,0.181018727,1.335770000,,,,,
1749762195.017076,,,,,,,,,,,,,,,,,,1749762195.017076015,0.000000000,0.000000000,0.224396000,0.000000000
1749762195.019122,-0.007442530,-0.019845000,-0.012768600,0.011231000,-0.010247900,-0.017008200,-0.141671000,-0.020506500,1749762195.019121885,0.020374101,-0.005840487,0.121776000,0.754016668,-0.766130000,-1.650420000,0.182327825,1.335640000,,,,,
1749762195.029088,-0.007303070,-0.019935600,-0.012757600,0.012068700,-0.010496100,-0.017545300,-0.143889000,-0.020272500,1749762195.029088020,0.020463198,-0.005658665,0.121722000,0.753912967,-0.766341000,-1.652160000,0.183602865,1.335510000,,,,,
1749762195.037069,,,,,,,,,,,,,,,,,,1749762195.037069082,0.000000000,0.000000000,0.227632000,0.000000000
1749762195.039111,-0.007116880,-0.019838000,-0.012634900,0.012691800,-0.010716900,-0.017858000,-0.144546000,-0.020061300,1749762195.039110899,0.020359205,-0.005449677,0.121676000,0.753818495,-0.766527000,-1.653700000,0.184733233,1.335400000,,,,,
1749762195.049132,-0.007061190,-0.020064700,-0.012706500,0.012624800,-0.010864400,-0.017643600,-0.149161000,-0.019944100,1749762195.049132109,0.020591811,-0.005331969,0.121613000,0.753662545,-0.766758000,-1.655810000,0.186280220,1.335270000,,,,,
1749762195.057061,,,,,,,,,,,,,,,,,,1749762195.057060957,0.000000000,0.000000000,0.230575000,0.000000000
1749762195.058916,-0.007080890,-0.020272200,-0.012712900,0.012573800,-0.011028500,-0.017558600,-0.152531000,-0.019825300,1749762195.058916092,0.020810755,-0.005292784,0.121539000,0.753528789,-0.766989000,-1.657790000,0.187718456,1.335140000,,,,,
1749762195.068943,-0.007035340,-0.020273500,-0.012606000,0.012418000,-0.011170700,-0.017329100,-0.154117000,-0.019722200,1749762195.068943024,0.020817296,-0.005210663,0.121475000,0.753405112,-0.767192000,-1.659550000,0.188998620,1.335030000,,,,,
1749762195.077082,,,,,,,,,,,,,,,,,,1749762195.077081919,0.000000000,0.000000000,0.233228000,0.000000000
1749762195.079221,-0.007054780,-0.020528500,-0.012647800,0.013437000,-0.011211600,-0.016417600,-0.158919000,-0.019449900,1749762195.079221010,0.021084627,-0.005160207,0.121402000,0.753224509,-0.767431000,-1.661790000,0.190634792,1.334900000,,,,,
1749762195.089111,-0.007086670,-0.020744700,-0.012629100,0.014618500,-0.011046500,-0.014151000,-0.163675000,-0.019143900,1749762195.089111090,0.021314568,-0.005123735,0.121327000,0.753030860,-0.767668000,-1.664070000,0.192299046,1.334770000,,,,,
1749762195.097076,,,,,,,,,,,,,,,,,,1749762195.097075939,0.000000000,0.000000000,0.235594000,0.000000000
1749762195.099155,-0.007051690,-0.020749400,-0.012500900,0.015518600,-0.010882800,-0.012050800,-0.166370000,-0.018867000,1749762195.099154949,0.021326275,-0.005045188,0.121261000,0.752852278,-0.767876000,-1.666100000,0.193781394,1.334670000,,,,,
1749762195.108956,-0.007070160,-0.020950000,-0.012471200,0.016890000,-0.010661900,-0.009700590,-0.170994000,-0.018512500,1749762195.108956099,0.021539418,-0.004994312,0.121188000,0.752641712,-0.768113000,-1.668430000,0.195485463,1.334540000,,,,,
1749762195.117071,,,,,,,,,,,,,,,,,,1749762195.117070913,0.000000000,0.000000000,0.237678000,0.000000000
1749762195.119111,-0.006987010,-0.021133400,-0.012443900,0.016717600,-0.010398400,-0.007219200,-0.175332000,-0.018368700,1749762195.119111061,0.021725231,-0.004842856,0.121129000,0.752422926,-0.768349000,-1.670770000,0.197210957,1.334420000,,,,,
1749762195.129267,-0.006852690,-0.021106200,-0.012310000,0.016419300,-0.010147200,-0.004993120,-0.177560000,-0.018244800,1749762195.129266977,0.021694514,-0.004666807,0.121079000,0.752222116,-0.768556000,-1.672850000,0.198746917,1.334320000,,,,,
1749762195.137065,,,,,,,,,,,,,,,,,,1749762195.137064934,0.000000000,0.000000000,0.239484000,0.000000000
1749762195.138900,-0.006689920,-0.021308700,-0.012356600,0.012353200,-0.009866480,-0.002717250,-0.182172000,-0.018671400,1749762195.138900042,0.021890255,-0.004430855,0.121034000,0.751979314,-0.768797000,-1.675290000,0.200562128,1.334190000,,,,,
1749762195.148978,-0.006456180,-0.021450700,-0.012389500,0.009316270,-0.009492390,0.000044719,-0.185878000,-0.018989100,1749762195.148977995,0.022016912,-0.004131631,0.121001000,0.751740079,-0.769031000,-1.677650000,0.202328384,1.334060000,,,,,
1749762195.157079,,,,,,,,,,,,,,,,,,1749762195.157078981,0.000000000,0.000000000,0.241020000,0.000000000
1749762195.159121,-0.006195340,-0.021384400,-0.012308600,0.006587530,-0.009142360,0.002450950,-0.187461000,-0.019292300,1749762195.159121037,0.021931231,-0.003833522,0.120974000,0.751521297,-0.769235000,-1.679740000,0.203894418,1.333950000,,,,,
1749762195.169113,-0.006070620,-0.021603200,-0.012277100,0.006175570,-0.008667360,0.005551730,-0.190393000,-0.019286300,1749762195.169112921,0.022143592,-0.003634831,0.120930000,0.751299717,-0.769481000,-1.682040000,0.205605958,1.333830000,,,,,
1749762195.177069,,,,,,,,,,,,,,,,,,1749762195.177068949,0.000000000,0.000000000,0.242291000,0.000000000
1749762195.179266,-0.005871230,-0.021828900,-0.012217300,0.005719870,-0.008418410,0.006883160,-0.192993000,-0.019290800,1749762195.179265976,0.022353516,-0.003360436,0.120898000,0.751077932,-0.769730000,-1.684330000,0.207322309,1.333720000,,,,,
1749762195.189079,-0.005675170,-0.021989400,-0.012179000,0.004630120,-0.008217730,0.007790700,-0.194533000,-0.019391900,1749762195.189079046,0.022497486,-0.003099093,0.120868000,0.750874299,-0.769972000,-1.686480000,0.208934779,1.333600000,,,,,
1749762195.197073,,,,,,,,,,,,,,,,,,1749762195.197072983,0.000000000,0.000000000,0.243305000,0.000000000
1749762195.199194,-0.005765650,-0.022116800,-0.012180400,0.003584780,-0.008103640,0.008039710,-0.195199000,-0.019497500,1749762195.199193954,0.022640907,-0.003128082,0.120798000,0.750691084,-0.770210000,-1.688520000,0.210424565,1.333480000,,,,,
1749762195.208942,-0.005849290,-0.022135200,-0.012220200,0.003322650,-0.008110560,0.007438690,-0.194743000,-0.019499700,1749762195.208941936,0.022675028,-0.003166132,0.120729000,0.750522674,-0.770434000,-1.690410000,0.211801217,1.333350000,,,,,
1749762195.217074,,,,,,,,,,,,,,,,,,1749762195.217073917,0.000000000,0.000000000,0.244069000,0.000000000
1749762195.219130,-0.005844480,-0.022217700,-0.012266300,0.006190300,-0.008323090,0.005463850,-0.194729000,-0.019049800,1749762195.219130039,0.022762435,-0.003107359,0.120671000,0.750348681,-0.770667000,-1.692350000,0.213227512,1.333220000,,,,,
1749762195.229073,-0.005673630,-0.022380700,-0.012237900,0.008352720,-0.008585990,0.003278140,-0.195799000,-0.018673800,1749762195.229073048,0.022909622,-0.002869672,0.120637000,0.750145416,-0.770913000,-1.694460000,0.214806875,1.333100000,,,,,
1749762195.237078,,,,,,,,,,,,,,,,,,1749762195.237077951,0.000000000,0.000000000,0.244593000,0.000000000
1749762195.239133,-0.005489340,-0.022555500,-0.012190400,0.010778400,-0.008889520,0.000963253,-0.197623000,-0.018237900,1749762195.239132881,0.023066215,-0.002614027,0.120607000,0.749917493,-0.771162000,-1.696680000,0.216473167,1.332990000,,,,,
1749762195.249102,-0.005459960,-0.022645200,-0.012098200,0.013819000,-0.009301480,-0.001938650,-0.199092000,-0.017688300,1749762195.249102116,0.023157098,-0.002522910,0.120557000,0.749685048,-0.771401000,-1.698870000,0.218095902,1.332880000,,,,,
1749762195.257064,,,,,,,,,,,,,,,,,,1749762195.257064104,0.000000000,0.000000000,0.244884000,0.000000000
1749762195.258924,-0.005265840,-0.022694000,-0.011986100,0.016718200,-0.009766600,-0.005006650,-0.201915000,-0.017128900,1749762195.258924007,0.023186215,-0.002268507,0.120530000,0.749393991,-0.771634000,-1.701270000,0.219898060,1.332770000,,,,,
1749762195.269102,-0.005189070,-0.022788000,-0.011881800,0.020068100,-0.010278100,-0.008182710,-0.206633000,-0.016475100,1749762195.269102097,0.023275230,-0.002117324,0.120489000,0.749041846,-0.771875000,-1.703970000,0.221911982,1.332670000,,,,,
1749762195.277074,,,,,,,,,,,,,,,,,,1749762195.277074099,0.000000000,0.000000000,0.244953000,0.000000000
1749762195.279151,-0.005145440,-0.022890300,-0.011790700,0.022949800,-0.010862500,-0.011642400,-0.211507000,-0.015855700,1749762195.279150963,0.023376469,-0.001995518,0.120443000,0.748669029,-0.772118000,-1.706750000,0.223980818,1.332560000,,,,,
1749762195.289103,-0.005127830,-0.022977400,-0.011632500,0.025588900,-0.011376600,-0.014379200,-0.215778000,-0.015242800,1749762195.289103031,0.023465659,-0.001902211,0.120394000,0.748300232,-0.772359000,-1.709480000,0.226008634,1.332470000,,,,,
1749762195.297070,,,,,,,,,,,,,,,,,,1749762195.297070026,0.000000000,0.000000000,0.244809000,0.000000000
1749762195.299253,-0.005036120,-0.022987600,-0.011431400,0.026598700,-0.011950700,-0.017341500,-0.219660000,-0.014840200,1749762195.299252987,0.023467937,-0.001745911,0.120356000,0.747914491,-0.772590000,-1.712210000,0.228045586,1.332380000,,,,,
1749762195.309063,-0.004986530,-0.022950700,-0.011239800,0.028194700,-0.012470300,-0.019724000,-0.221991000,-0.014342400,1749762195.309062958,0.023428647,-0.001642748,0.120313000,0.747563984,-0.772815000,-1.714740000,0.229926798,1.332290000,,,,,
1749762195.317079,,,,,,,,,,,,,,,,,,1749762195.317079067,0.000000000,0.000000000,0.244463000,0.000000000
1749762195.319185,-0.005067520,-0.022858100,-0.011076500,0.029665700,-0.012811400,-0.020714200,-0.223645000,-0.013846700,1749762195.319185019,0.023352823,-0.001678740,0.120251000,0.747218836,-0.773031000,-1.717200000,0.231735281,1.332210000,,,,,
1749762195.329142,-0.005260190,-0.022700700,-0.010945700,0.030151300,-0.012989800,-0.020516600,-0.226020000,-0.013479500,1749762195.329142094,0.023230018,-0.001832384,0.120173000,0.746833769,-0.773237000,-1.719780000,0.233615774,1.332110000,,,,,
1749762195.337080,,,,,,,,,,,,,,,,,,1749762195.337080002,0.000000000,0.000000000,0.243926000,0.000000000
1749762195.339111,-0.005670290,-0.022571300,-0.010860600,0.028402400,-0.013207300,-0.020601400,-0.228693000,-0.013432100,1749762195.339111090,0.023168824,-0.002195758,0.120061000,0.746434597,-0.773445000,-1.722430000,0.235514765,1.332020000,,,,,
1749762195.349336,-0.005965130,-0.022414900,-0.010690100,0.026485600,-0.013373800,-0.020329200,-0.231411000,-0.013426500,1749762195.349335909,0.023065402,-0.002449034,0.119961000,0.746016695,-0.773648000,-1.725110000,0.237446751,1.331930000,,,,,
1749762195.357064,,,,,,,,,,,,,,,,,,1749762195.357064009,0.000000000,0.000000000,0.243209000,0.000000000
1749762195.358956,-0.006154690,-0.022250500,-0.010530600,0.024388800,-0.013605400,-0.020524100,-0.233828000,-0.013466300,1749762195.358956099,0.022939116,-0.002600372,0.119874000,0.745591196,-0.773848000,-1.727780000,0.239383105,1.331850000,,,,,
1749762195.369171,-0.006289290,-0.022085000,-0.010306400,0.022210600,-0.013829900,-0.020656800,-0.235418000,-0.013538900,1749762195.369170904,0.022803710,-0.002700594,0.119793000,0.745182862,-0.774047000,-1.730350000,0.241250127,1.331780000,,,,,
1749762195.377068,,,,,,,,,,,,,,,,,,1749762195.377068043,0.000000000,0.000000000,0.242324000,0.000000000
1749762195.379071,-0.006404210,-0.021933900,-0.010070300,0.019731800,-0.014070000,-0.020887900,-0.236913000,-0.013676900,1749762195.379070997,0.022680006,-0.002779783,0.119713000,0.744769692,-0.774246000,-1.732920000,0.243117618,1.331710000,,,,,
1749762195.389097,-0.006469150,-0.021803400,-0.009791780,0.017591600,-0.014308200,-0.021089700,-0.238669000,-0.013790500,1749762195.389096975,0.022569128,-0.002805814,0.119640000,0.744339433,-0.774446000,-1.735540000,0.245028867,1.331650000,,,,,
1749762195.397066,,,,,,,,,,,,,,,,,,1749762195.397066116,0.000000000,0.000000000,0.241281000,0.000000000
1749762195.399081,-0.006781190,-0.021707700,-0.009570280,0.015144800,-0.014471500,-0.020761500,-0.238694000,-0.013970100,1749762195.399080992,0.022533313,-0.003075478,0.119530000,0.743971145,-0.774650000,-1.737930000,0.246732606,1.331580000,,,,,
1749762195.409072,-0.007196050,-0.021651900,-0.009364630,0.011993300,-0.014667200,-0.020679500,-0.238550000,-0.014276500,1749762195.409071922,0.022555523,-0.003440393,0.119402000,0.743611897,-0.774859000,-1.740300000,0.248404214,1.331520000,,,,,
1749762195.417067,,,,,,,,,,,,,,,,,,1749762195.417067051,0.000000000,0.000000000,0.240094000,0.000000000
1749762195.419331,-0.007702580,-0.021583100,-0.009129310,0.009728360,-0.014834900,-0.020411000,-0.239420000,-0.014485600,1749762195.419331074,0.022583003,-0.003894599,0.119256000,0.743214996,-0.775066000,-1.742810000,0.250161482,1.331460000,,,,,
1749762195.429092,-0.008070410,-0.021405000,-0.008877210,0.007170550,-0.015233800,-0.021751500,-0.238807000,-0.014759900,1749762195.429091930,0.022480336,-0.004235567,0.119126000,0.742843824,-0.775255000,-1.745120000,0.251782390,1.331400000,,,,,
1749762195.437078,,,,,,,,,,,,,,,,,,1749762195.437077999,0.000000000,0.000000000,0.238773000,0.000000000
1749762195.439240,-0.008449890,-0.021153500,-0.008556980,0.004169600,-0.015580600,-0.022641400,-0.236619000,-0.015124200,1749762195.439239979,0.022308049,-0.004606749,0.118990000,0.742520147,-0.775433000,-1.747190000,0.253216882,1.331360000,,,,,
1749762195.449180,-0.008672920,-0.020828800,-0.008243230,0.000411541,-0.015856400,-0.022981300,-0.234486000,-0.015628500,1749762195.449179888,0.022037490,-0.004838130,0.118873000,0.742181655,-0.775597000,-1.749240000,0.254652483,1.331320000,,,,,
1749762195.457069,,,,,,,,,,,,,,,,,,1749762195.457068920,0.000000000,0.000000000,0.237333000,0.000000000
1749762195.459091,-0.008804000,-0.020495400,-0.007951320,-0.001088660,-0.016139200,-0.023346100,-0.232502000,-0.015842300,1749762195.459090948,0.021742958,-0.004981526,0.118767000,0.741831927,-0.775757000,-1.751300000,0.256105282,1.331280000,,,,,
1749762195.469155,-0.008875050,-0.020142500,-0.007618320,-0.001910280,-0.016419500,-0.023668700,-0.231331000,-0.015972600,1749762195.469155073,0.021419494,-0.005068736,0.118669000,0.741448825,-0.775911000,-1.753450000,0.257631230,1.331250000,,,,,
1749762195.477066,,,,,,,,,,,,,,,,,,1749762195.477066040,0.000000000,0.000000000,0.235784000,0.000000000
1749762195.479171,-0.008916700,-0.019812600,-0.007248240,-0.003114070,-0.016456800,-0.022296000,-0.229174000,-0.016166500,1749762195.479171038,0.021112944,-0.005127401,0.118574000,0.741099922,-0.776064000,-1.755450000,0.259048318,1.331230000,,,,,
1749762195.489123,-0.008945410,-0.019480300,-0.006740710,-0.003077330,-0.016354300,-0.020055700,-0.226789000,-0.016192300,1749762195.489123106,0.020801698,-0.005176082,0.118481000,0.740758019,-0.776214000,-1.757400000,0.260429413,1.331230000,,,,,
1749762195.497075,,,,,,,,,,,,,,,,,,1749762195.497075081,0.000000000,0.000000000,0.234140000,0.000000000
1749762195.499141,-0.008891210,-0.019018300,-0.006238790,-0.003018060,-0.016245400,-0.017926000,-0.222702000,-0.016214500,1749762195.499140978,0.020346333,-0.005174563,0.118399000,0.740463154,-0.776342000,-1.759070000,0.261609521,1.331230000,,,,,
1749762195.509111,-0.008828560,-0.018726900,-0.005835290,-0.002740040,-0.016279100,-0.016923900,-0.221730000,-0.016204300,1749762195.509110928,0.020059113,-0.005125647,0.118319000,0.740075237,-0.776490000,-1.761160000,0.263105965,1.331230000,,,,,
1749762195.517069,,,,,,,,,,,,,,,,,,1749762195.517069101,0.000000000,0.000000000,0.232412000,0.000000000
1749762195.519083,-0.008836650,-0.018365900,-0.005493250,-0.002680710,-0.016292000,-0.015847500,-0.220073000,-0.016223100,1749762195.519083023,0.019716426,-0.005162870,0.118230000,0.739702361,-0.776625000,-1.763140000,0.264509245,1.331220000,,,,,
1749762195.529038,-0.008765440,-0.017888700,-0.005146580,-0.002605270,-0.016293800,-0.014769300,-0.216680000,-0.016238900,1749762195.529037952,0.019243199,-0.005151488,0.118152000,0.739378528,-0.776739000,-1.764840000,0.265711803,1.331220000,,,,,
1749762195.537068,,,,,,,,,,,,,,,,,,1749762195.537067890,0.000000000,0.000000000,0.230613000,0.000000000
1749762195.539098,-0.008635820,-0.017467500,-0.004776020,-0.002759990,-0.016265800,-0.013559900,-0.216082000,-0.016287500,1749762195.539098024,0.018815488,-0.005066395,0.118083000,0.738953432,-0.776857000,-1.766920000,0.267204452,1.331220000,,,,,
1749762195.548816,-0.008433180,-0.017013500,-0.004532880,-0.000838077,-0.016217300,-0.012292900,-0.215971000,-0.016035800,1749762195.548815966,0.018341316,-0.004916688,0.118026000,0.738494347,-0.776965000,-1.769070000,0.268757973,1.331210000,,,,,
1749762195.557079,,,,,,,,,,,,,,,,,,1749762195.557079077,0.000000000,0.000000000,0.228755000,0.000000000
1749762195.559166,-0.008209540,-0.016519100,-0.004321210,0.000816982,-0.016116700,-0.010754400,-0.216606000,-0.015803800,1749762195.559165955,0.017823294,-0.004754724,0.117974000,0.737995146,-0.777064000,-1.771320000,0.270387665,1.331190000,,,,,
1749762195.569067,-0.008070750,-0.015967300,-0.004088260,0.002199690,-0.015914000,-0.008618620,-0.216924000,-0.015594700,1749762195.569067001,0.017265314,-0.004690479,0.117912000,0.737491530,-0.777149000,-1.773530000,0.271974357,1.331180000,,,,,
1749762195.577066,,,,,,,,,,,,,,,,,,1749762195.577065945,0.000000000,0.000000000,0.226851000,0.000000000
1749762195.579113,-0.007869430,-0.015337500,-0.003883700,0.003699580,-0.015625300,-0.006038560,-0.216815000,-0.015354800,1749762195.579113007,0.016617818,-0.004584208,0.117861000,0.736979300,-0.777217000,-1.775690000,0.273530605,1.331170000,,,,,
1749762195.589077,-0.007694400,-0.014708300,-0.003744120,0.005288930,-0.015464500,-0.004515940,-0.217116000,-0.015086900,1749762195.589076996,0.015976163,-0.004505561,0.117807000,0.736444777,-0.777279000,-1.777900000,0.275118563,1.331150000,,,,,
1749762195.597076,,,,,,,,,,,,,,,,,,1749762195.597075939,0.000000000,0.000000000,0.224912000,0.000000000
1749762195.598934,-0.007540310,-0.014065600,-0.003607920,0.007210780,-0.015139100,-0.001965350,-0.218614000,-0.014754800,1749762195.598933935,0.015326193,-0.004450303,0.117753000,0.735849190,-0.777333000,-1.780290000,0.276836289,1.331130000,,,,,
1749762195.609181,-0.007450400,-0.013444000,-0.003447690,0.007555750,-0.014815800,0.000395442,-0.218717000,-0.014632600,1749762195.609180927,0.014709331,-0.004459280,0.117691000,0.735300281,-0.777383000,-1.782490000,0.278404376,1.331120000,,,,,
1749762195.617083,,,,,,,,,,,,,,,,,,1749762195.617083073,0.000000000,0.000000000,0.222950000,0.000000000
1749762195.619124,-0.007291840,-0.012864400,-0.003358090,0.009549700,-0.014689600,0.001236650,-0.217517000,-0.014267300,1749762195.619123936,0.014118221,-0.004397674,0.117639000,0.734799094,-0.777433000,-1.784500000,0.279841553,1.331100000,,,,,
1749762195.629205,-0.007231630,-0.012232500,-0.003272760,0.009917590,-0.014606800,0.001721700,-0.215320000,-0.014118400,1749762195.629204988,0.013496223,-0.004447753,0.117575000,0.734327151,-0.777470000,-1.786360000,0.281153190,1.331080000,,,,,
1749762195.637074,,,,,,,,,,,,,,,,,,1749762195.637073994,0.000000000,0.000000000,0.220976000,0.000000000
1749762195.639145,-0.007063980,-0.011619300,-0.003173130,0.012762000,-0.014526800,0.002153640,-0.213882000,-0.013606000,1749762195.639144897,0.012869896,-0.004390186,0.117527000,0.733822913,-0.777503000,-1.788300000,0.282537507,1.331060000,,,,,
1749762195.648930,-0.006923520,-0.011079200,-0.003142030,0.013143400,-0.014364700,0.003120960,-0.214543000,-0.013423000,1749762195.648930073,0.012321968,-0.004341994,0.117477000,0.733236174,-0.777541000,-1.790540000,0.284140045,1.331030000,,,,,
1749762195.657064,,,,,,,,,,,,,,,,,,1749762195.657063961,0.000000000,0.000000000,0.219002000,0.000000000
1749762195.659256,-0.006731200,-0.010552300,-0.003181590,0.012769900,-0.014176000,0.004205200,-0.215107000,-0.013345800,1749762195.659255981,0.011775264,-0.004243022,0.117435000,0.732645989,-0.777575000,-1.792760000,0.285733643,1.331000000,,,,,
1749762195.669105,-0.006581810,-0.009941350,-0.003172050,0.012007800,-0.013826700,0.006320290,-0.215005000,-0.013328800,1749762195.669105053,0.011155446,-0.004207932,0.117390000,0.732059417,-0.777592000,-1.794900000,0.287260754,1.330970000,,,,,
1749762195.677097,,,,,,,,,,,,,,,,,,1749762195.677097082,0.000000000,0.000000000,0.217038000,0.000000000
1749762195.679121,-0.006430280,-0.009341860,-0.003157710,0.011062100,-0.013519400,0.008000590,-0.215617000,-0.013346100,1749762195.679121017,0.010546639,-0.004169803,0.117346000,0.731435685,-0.777604000,-1.797140000,0.288859660,1.330940000,,,,,
1749762195.689109,-0.006311680,-0.008780010,-0.003231590,0.010603200,-0.013163100,0.009902110,-0.215609000,-0.013302200,1749762195.689109087,0.009981469,-0.004158866,0.117299000,0.730835281,-0.777616000,-1.799290000,0.290388518,1.330890000,,,,,
1749762195.697071,,,,,,,,,,,,,,,,,,1749762195.697071075,0.000000000,0.000000000,0.215095000,0.000000000
1749762195.699240,-0.006177050,-0.008153940,-0.003307450,0.011829200,-0.012676400,0.012570400,-0.216312000,-0.013018000,1749762195.699239969,0.009350575,-0.004148425,0.117255000,0.730184280,-0.777613000,-1.801550000,0.291995942,1.330850000,,,,,
1749762195.709097,-0.006158550,-0.007521960,-0.003390610,0.013384500,-0.012260000,0.014571400,-0.215481000,-0.012673800,1749762195.709096909,0.008739818,-0.004257136,0.117196000,0.729590970,-0.777603000,-1.803590000,0.293425194,1.330810000,,,,,
1749762195.717077,,,,,,,,,,,,,,,,,,1749762195.717077017,0.000000000,0.000000000,0.213183000,0.000000000
1749762195.719123,-0.006012340,-0.006864190,-0.003442550,0.015605900,-0.011813600,0.016641300,-0.214580000,-0.012217200,1749762195.719122887,0.008074705,-0.004250232,0.117156000,0.728982697,-0.777582000,-1.805620000,0.294861870,1.330760000,,,,,
1749762195.729108,-0.005874280,-0.006162480,-0.003531530,0.018145900,-0.011361100,0.018610300,-0.213539000,-0.011692100,1749762195.729108095,0.007368632,-0.004264574,0.117116000,0.728371784,-0.777549000,-1.807610000,0.296265335,1.330720000,,,,,
1749762195.737077,,,,,,,,,,,,,,,,,,1749762195.737076998,0.000000000,0.000000000,0.211310000,0.000000000
1749762195.739100,-0.005698180,-0.005507250,-0.003664780,0.019194900,-0.010938600,0.020237600,-0.211842000,-0.011358300,1749762195.739099979,0.006698390,-0.004234458,0.117083000,0.727785309,-0.777515000,-1.809500000,0.297601324,1.330660000,,,,,
1749762195.749135,-0.005616030,-0.004880110,-0.003733750,0.020149400,-0.010512000,0.021781100,-0.210054000,-0.011027600,1749762195.749135017,0.006077601,-0.004291623,0.117038000,0.727206270,-0.777479000,-1.811360000,0.298902208,1.330620000,,,,,
1749762195.757066,,,,,,,,,,,,,,,,,,1749762195.757066011,0.000000000,0.000000000,0.209488000,0.000000000
1749762195.759116,-0.005589910,-0.004231420,-0.003798690,0.019114700,-0.010278600,0.021888400,-0.207442000,-0.010976500,1749762195.759115934,0.005448964,-0.004411440,0.116985000,0.726660113,-0.777434000,-1.813080000,0.300090312,1.330570000,,,,,
1749762195.769074,-0.005329590,-0.003614050,-0.003785210,0.017846700,-0.009987660,0.022384100,-0.206416000,-0.010969500,1749762195.769073963,0.004795473,-0.004297596,0.116967000,0.726038332,-0.777387000,-1.815010000,0.301463376,1.330530000,,,,,
1749762195.777075,,,,,,,,,,,,,,,,,,1749762195.777075052,0.000000000,0.000000000,0.207723000,0.000000000
1749762195.779083,-0.005154190,-0.003007990,-0.003754620,0.015911100,-0.009692490,0.022875100,-0.204861000,-0.011072300,1749762195.779083014,0.004172800,-0.004266312,0.116939000,0.725441825,-0.777335000,-1.816840000,0.302751698,1.330500000,,,,,
1749762195.788925,-0.005045530,-0.002478450,-0.003717200,0.013685300,-0.009513550,0.022532200,-0.202162000,-0.011236500,1749762195.788924932,0.003639858,-0.004283868,0.116904000,0.724901273,-0.777288000,-1.818500000,0.303910059,1.330470000,,,,,
1749762195.797069,,,,,,,,,,,,,,,,,,1749762195.797069073,0.000000000,0.000000000,0.206024000,0.000000000
1749762195.799219,-0.004851220,-0.002031460,-0.003636690,0.011280700,-0.009127900,0.023635800,-0.200218000,-0.011449000,1749762195.799218893,0.003166182,-0.004199578,0.116881000,0.724338289,-0.777248000,-1.820240000,0.305138764,1.330440000,,,,,
1749762195.809134,-0.004665460,-0.001595850,-0.003529050,0.010048700,-0.008877380,0.023733300,-0.197636000,-0.011515200,1749762195.809134007,0.002704920,-0.004122701,0.116860000,0.723803516,-0.777205000,-1.821870000,0.306288005,1.330420000,,,,,
1749762195.817067,,,,,,,,,,,,,,,,,,1749762195.817066908,0.000000000,0.000000000,0.204398000,0.000000000
1749762195.819119,-0.004517430,-0.001199570,-0.003415520,0.008994610,-0.008618280,0.023883100,-0.195006000,-0.011567900,1749762195.819118977,0.002290769,-0.004074128,0.116835000,0.723281187,-0.777163000,-1.823460000,0.307403759,1.330400000,,,,,
1749762195.829177,-0.004294540,-0.000801522,-0.003256990,0.006769520,-0.008330710,0.024218600,-0.193072000,-0.011801200,1749762195.829176903,0.001856247,-0.003954726,0.116822000,0.722725564,-0.777117000,-1.825130000,0.308587054,1.330390000,,,,,
1749762195.837073,,,,,,,,,,,,,,,,,,1749762195.837073088,0.000000000,0.000000000,0.202853000,0.000000000
1749762195.839182,-0.004002550,-0.000423733,-0.003047590,0.004942590,-0.008112930,0.024050600,-0.191822000,-0.011998900,1749762195.839181900,0.001423736,-0.003764695,0.116821000,0.722139217,-0.777070000,-1.826880000,0.309838478,1.330390000,,,,,
1749762195.849116,-0.003593260,-0.000116026,-0.002904530,0.003940540,-0.007999500,0.023175900,-0.190887000,-0.012095100,1749762195.849116087,0.001028527,-0.003444868,0.116841000,0.721542783,-0.777030000,-1.828660000,0.311132533,1.330380000,,,,,
1749762195.857078,,,,,,,,,,,,,,,,,,1749762195.857078075,0.000000000,0.000000000,0.201395000,0.000000000
1749762195.859126,-0.003256700,0.000155812,-0.002777070,0.003350110,-0.007956460,0.021876900,-0.191307000,-0.012141400,1749762195.859126091,0.000686129,-0.003187413,0.116854000,0.720888388,-0.776992000,-1.830630000,0.312556168,1.330370000,,,,,
1749762195.869143,-0.002955530,0.000440174,-0.002632130,0.002550290,-0.007963960,0.020319500,-0.191771000,-0.012224100,1749762195.869143009,0.000339814,-0.002968743,0.116865000,0.720223732,-0.776949000,-1.832610000,0.313982409,1.330360000,,,,,
1749762195.877095,,,,,,,,,,,,,,,,,,1749762195.877094984,0.000000000,0.000000000,0.200029000,0.000000000
1749762195.879176,-0.002863490,0.000802552,-0.002468900,0.001352030,-0.007918240,0.019235500,-0.191591000,-0.012372700,1749762195.879175901,-0.000028417,-0.002973694,0.116849000,0.719578160,-0.776892000,-1.834500000,0.315312766,1.330360000,,,,,
1749762195.889117,-0.002740510,0.001122230,-0.002310520,0.001001270,-0.007865110,0.018277200,-0.191191000,-0.012410200,1749762195.889117002,-0.000363634,-0.002938974,0.116838000,0.718940249,-0.776837000,-1.836360000,0.316625585,1.330360000,,,,,
1749762195.897067,,,,,,,,,,,,,,,,,,1749762195.897067070,0.000000000,0.000000000,0.198762000,0.000000000
1749762195.899157,-0.002690210,0.001431170,-0.002085120,0.000411183,-0.007918310,0.016653000,-0.189674000,-0.012485900,1749762195.899157047,-0.000669923,-0.002972656,0.116818000,0.718355395,-0.776781000,-1.838050000,0.317806063,1.330370000,,,,,
1749762195.909177,-0.002679300,0.001832210,-0.001834670,0.000103529,-0.007811740,0.016240300,-0.189058000,-0.012526500,1749762195.909177065,-0.001054052,-0.003069954,0.116793000,0.717715262,-0.776708000,-1.839860000,0.319062259,1.330380000,,,,,
1749762195.917089,,,,,,,,,,,,,,,,,,1749762195.917088985,0.000000000,0.000000000,0.197596000,0.000000000
1749762195.919228,-0.002632700,0.002255530,-0.001587960,-0.000991005,-0.007697890,0.015906100,-0.188711000,-0.012684400,1749762195.919228077,-0.001468753,-0.003140269,0.116773000,0.717056206,-0.776629000,-1.841700000,0.320341903,1.330400000,,,,,
1749762195.928827,-0.002621750,0.002641740,-0.001278480,-0.000889123,-0.007756450,0.014408200,-0.188052000,-0.012679500,1749762195.928827047,-0.001838018,-0.003236364,0.116748000,0.716412298,-0.776550000,-1.843490000,0.321579567,1.330430000,,,,,
1749762195.937065,,,,,,,,,,,,,,,,,,1749762195.937064886,0.000000000,0.000000000,0.196537000,0.000000000
1749762195.939139,-0.002522460,0.002992380,-0.001055770,-0.000461538,-0.007840220,0.012839800,-0.186843000,-0.012626300,1749762195.939138889,-0.002196907,-0.003238941,0.116736000,0.715790482,-0.776473000,-1.845200000,0.322771745,1.330450000,,,,,
1749762195.949094,-0.002413610,0.003271420,-0.000852366,-0.000084878,-0.007926880,0.011359500,-0.184136000,-0.012576200,1749762195.949094057,-0.002490282,-0.003213440,0.116727000,0.715249370,-0.776402000,-1.846670000,0.323795609,1.330470000,,,,,
1749762195.957075,,,,,,,,,,,,,,,,,,1749762195.957075119,0.000000000,0.000000000,0.195587000,0.000000000
1749762195.959154,-0.002387420,0.003542230,-0.000544701,-0.000113018,-0.008031890,0.009854860,-0.182767000,-0.012581100,1749762195.959153891,-0.002752633,-0.003266524,0.116706000,0.714653892,-0.776330000,-1.848310000,0.324928260,1.330500000,,,,,
1749762195.969159,-0.002413440,0.003757960,-0.000194732,-0.000333729,-0.008153940,0.008336390,-0.181328000,-0.012614300,1749762195.969158888,-0.002947548,-0.003355431,0.116679000,0.714069603,-0.776263000,-1.849930000,0.326041157,1.330550000,,,,,
1749762195.977070,,,,,,,,,,,,,,,,,,1749762195.977070093,0.000000000,0.000000000,0.194749000,0.000000000
1749762195.979141,-0.002414730,0.003912660,0.000111937,-0.000523089,-0.008273530,0.006939460,-0.178469000,-0.012645200,1749762195.979140997,-0.003091143,-0.003403625,0.116654000,0.713561713,-0.776203000,-1.851330000,0.326999900,1.330590000,,,,,
1749762195.988938,-0.002441550,0.004114830,0.000506106,-0.002152400,-0.008264130,0.006526520,-0.177539000,-0.012887100,1749762195.988938093,-0.003272229,-0.003490775,0.116626000,0.712963678,-0.776135000,-1.852980000,0.328131004,1.330650000,,,,,
1749762195.997070,,,,,,,,,,,,,,,,,,1749762195.997070074,0.000000000,0.000000000,0.194026000,0.000000000
1749762195.999098,-0.002414370,0.004299210,0.000927107,-0.003524600,-0.008210820,0.006444240,-0.175989000,-0.013108000,1749762195.999098063,-0.003451431,-0.003521365,0.116606000,0.712394537,-0.776067000,-1.854530000,0.329197466,1.330720000,,,,,
1749762196.009082,-0.002369310,0.004421800,0.001285730,-0.004689050,-0.008165080,0.006315480,-0.173080000,-0.013312400,1749762196.009082079,-0.003577024,-0.003517222,0.116588000,0.711899297,-0.776006000,-1.855870000,0.330117351,1.330780000,,,,,
1749762196.017083,,,,,,,,,,,,,,,,,,1749762196.017082930,0.000000000,0.000000000,0.193417000,0.000000000
1749762196.019148,-0.002273220,0.004608700,0.001806730,-0.005678440,-0.008243890,0.005338340,-0.173271000,-0.013503100,1749762196.019148111,-0.003777277,-0.003484225,0.116579000,0.711251635,-0.775935000,-1.857630000,0.331341062,1.330870000,,,,,
1749762196.028943,-0.002219390,0.004740030,0.002284500,-0.007800960,-0.008291820,0.004640960,-0.173113000,-0.013868200,1749762196.028943062,-0.003912532,-0.003476445,0.116564000,0.710624999,-0.775869000,-1.859340000,0.332523657,1.330950000,,,,,
1749762196.037076,,,,,,,,,,,,,,,,,,1749762196.037075996,0.000000000,0.000000000,0.192925000,0.000000000
1749762196.039277,-0.002152840,0.004812480,0.002680570,-0.009581330,-0.008339660,0.003992210,-0.171443000,-0.014204900,1749762196.039277077,-0.003995804,-0.003439220,0.116551000,0.710077848,-0.775812000,-1.860830000,0.333553360,1.331030000,,,,,
1749762196.049090,-0.002021320,0.004792360,0.003061690,-0.011029900,-0.008449710,0.002959930,-0.169729000,-0.014511100,1749762196.049089909,-0.004009304,-0.003313296,0.116549000,0.709546619,-0.775766000,-1.862290000,0.334574583,1.331120000,,,,,
1749762196.057072,,,,,,,,,,,,,,,,,,1749762196.057071924,0.000000000,0.000000000,0.192550000,0.000000000
1749762196.059219,-0.001936830,0.004719080,0.003462210,-0.012366600,-0.008627460,0.001532730,-0.168063000,-0.014815600,1749762196.059218884,-0.003958704,-0.003217094,0.116541000,0.709024271,-0.775729000,-1.863750000,0.335591820,1.331210000,,,,,
1749762196.069210,-0.001846050,0.004613440,0.003780530,-0.013421800,-0.008794780,0.000275564,-0.165124000,-0.015092600,1749762196.069210052,-0.003879902,-0.003104527,0.116535000,0.708575342,-0.775697000,-1.865000000,0.336462816,1.331290000,,,,,
1749762196.077083,,,,,,,,,,,,,,,,,,1749762196.077083111,0.000000000,0.000000000,0.192290000,0.000000000
1749762196.078822,-0.001765590,0.004504660,0.004210230,-0.014790800,-0.008949260,-0.000806720,-0.164632000,-0.015425700,1749762196.078821898,-0.003794390,-0.003001979,0.116528000,0.708016190,-0.775667000,-1.866580000,0.337566504,1.331390000,,,,,
1749762196.088914,-0.001721610,0.004375000,0.004661050,-0.016436900,-0.009013730,-0.001194960,-0.162456000,-0.015812800,1749762196.088913918,-0.003679290,-0.002927010,0.116517000,0.707544960,-0.775641000,-1.867910000,0.338489737,1.331490000,,,,,
1749762196.097059,,,,,,,,,,,,,,,,,,1749762196.097059011,0.000000000,0.000000000,0.192144000,0.000000000
1749762196.098855,-0.001615370,0.004181150,0.005086170,-0.017144400,-0.009023870,-0.001182530,-0.160128000,-0.016079900,1749762196.098855019,-0.003521462,-0.002773218,0.116515000,0.707093014,-0.775625000,-1.869200000,0.339395573,1.331600000,,,,,
1749762196.108949,-0.001560310,0.004032590,0.005562520,-0.015870500,-0.008907260,-0.000298494,-0.158249000,-0.016066300,1749762196.108948946,-0.003392118,-0.002681396,0.116507000,0.706627650,-0.775605000,-1.870520000,0.340315091,1.331720000,,,,,
1749762196.117099,,,,,,,,,,,,,,,,,,1749762196.117099047,0.000000000,0.000000000,0.192112000,0.000000000
1749762196.119213,-0.001369430,0.003874990,0.005991980,-0.015177600,-0.008885660,-0.000129223,-0.157406000,-0.016124300,1749762196.119213104,-0.003294319,-0.002457305,0.116519000,0.706109288,-0.775587000,-1.871980000,0.341352524,1.331840000,,,,,
1749762196.129082,-0.001133540,0.003799300,0.006455640,-0.010756300,-0.008611980,0.001763450,-0.157293000,-0.015633800,1749762196.129081964,-0.003288562,-0.002214713,0.116539000,0.705544184,-0.775560000,-1.873540000,0.342464680,1.331970000,,,,,
1749762196.137070,,,,,,,,,,,,,,,,,,1749762196.137069941,0.000000000,0.000000000,0.192190000,0.000000000
1749762196.139119,-0.000823985,0.003733810,0.006881020,-0.006868610,-0.008395300,0.003133450,-0.156636000,-0.015176500,1749762196.139118910,-0.003315526,-0.001904620,0.116573000,0.704998710,-0.775531000,-1.875020000,0.343532261,1.332090000,,,,,
1749762196.149087,-0.000468994,0.003625090,0.007276040,-0.001416670,-0.008417350,0.002766010,-0.155627000,-0.014453100,1749762196.149086952,-0.003315956,-0.001538073,0.116616000,0.704477218,-0.775510000,-1.876440000,0.344567701,1.332220000,,,,,
1749762196.157070,,,,,,,,,,,,,,,,,,1749762196.157069921,0.000000000,0.000000000,0.192376000,0.000000000
1749762196.159173,-0.000175025,0.003541070,0.007704650,0.003645440,-0.008421110,0.002549770,-0.153997000,-0.013731900,1749762196.159173012,-0.003322658,-0.001236833,0.116654000,0.703987415,-0.775486000,-1.877760000,0.345526282,1.332360000,,,,,
1749762196.169141,0.000221045,0.003492930,0.008200020,0.008924930,-0.008353770,0.002837740,-0.153649000,-0.012928400,1749762196.169141054,-0.003395184,-0.000849791,0.116710000,0.703427167,-0.775457000,-1.879250000,0.346619393,1.332500000,,,,,
1749762196.177068,,,,,,,,,,,,,,,,,,1749762196.177067995,0.000000000,0.000000000,0.192666000,0.000000000
1749762196.178883,0.000595441,0.003391540,0.008698270,0.015595200,-0.008157370,0.003994310,-0.152765000,-0.011870100,1749762196.178883076,-0.003411586,-0.000467095,0.116767000,0.702901306,-0.775437000,-1.880660000,0.347659067,1.332660000,,,,,
1749762196.188907,0.000868358,0.003331070,0.009207950,0.021155900,-0.007988700,0.004880330,-0.150715000,-0.010906300,1749762196.188906908,-0.003436981,-0.000192964,0.116812000,0.702435580,-0.775412000,-1.881890000,0.348558560,1.332820000,,,,,
1749762196.197071,,,,,,,,,,,,,,,,,,1749762196.197071075,0.000000000,0.000000000,0.193058000,0.000000000
1749762196.199128,0.001130140,0.003323510,0.009624760,0.025209500,-0.007738040,0.006269790,-0.148915000,-0.010105800,1749762196.199127913,-0.003509985,0.000054214,0.116859000,0.701957933,-0.775380000,-1.883130000,0.349464205,1.332970000,,,,,
1749762196.209075,0.001561140,0.003343920,0.009968600,0.027855700,-0.007589930,0.006857630,-0.148443000,-0.009469250,1749762196.209074974,-0.003662492,0.000452890,0.116933000,0.701402954,-0.775343000,-1.884550000,0.350519600,1.333120000,,,,,
1749762196.217098,,,,,,,,,,,,,,,,,,1749762196.217097998,0.000000000,0.000000000,0.193545000,0.000000000
1749762196.219255,0.002045520,0.003437980,0.010331500,0.030321900,-0.007356990,0.007989030,-0.148611000,-0.008832400,1749762196.219254971,-0.003902787,0.000878701,0.117019000,0.700801521,-0.775296000,-1.886060000,0.351645507,1.333270000,,,,,
1749762196.228912,0.002535120,0.003515770,0.010665600,0.031988100,-0.007265530,0.008068620,-0.148779000,-0.008287120,1749762196.228912115,-0.004130540,0.001313815,0.117111000,0.700198318,-0.775251000,-1.887570000,0.352776721,1.333420000,,,,,
1749762196.237069,,,,,,,,,,,,,,,,,,1749762196.237068892,0.000000000,0.000000000,0.194125000,0.000000000
1749762196.239169,0.003019420,0.003573170,0.010956800,0.034193200,-0.007259470,0.007555000,-0.147270000,-0.007646880,1749762196.239168882,-0.004338172,0.001750631,0.117206000,0.699678226,-0.775207000,-1.888840000,0.353742165,1.333570000,,,,,
1749762196.249225,0.003427340,0.003662060,0.011317700,0.035757400,-0.007358130,0.006355860,-0.144222000,-0.007077690,1749762196.249224901,-0.004552335,0.002105609,0.117296000,0.699239692,-0.775159000,-1.889870000,0.354533046,1.333730000,,,,,
1749762196.257069,,,,,,,,,,,,,,,,,,1749762196.257069111,0.000000000,0.000000000,0.194791000,0.000000000
1749762196.259246,0.003647380,0.003710460,0.011669300,0.037506800,-0.007531350,0.004726060,-0.141600000,-0.006465970,1749762196.259246111,-0.004669751,0.002294411,0.117362000,0.698800960,-0.775115000,-1.890930000,0.355322841,1.333900000,,,,,
1749762196.269101,0.003876350,0.003789240,0.012062700,0.039103300,-0.007793780,0.002594410,-0.138082000,-0.005858950,1749762196.269100904,-0.004818845,0.002482573,0.117432000,0.698408741,-0.775066000,-1.891840000,0.356009564,1.334070000,,,,,
1749762196.277098,,,,,,,,,,,,,,,,,,1749762196.277097940,0.000000000,0.000000000,0.195537000,0.000000000
1749762196.279103,0.004048350,0.003882120,0.012421000,0.040057500,-0.008031000,0.000783033,-0.136118000,-0.005329290,1749762196.279103041,-0.004964104,0.002611066,0.117495000,0.697951954,-0.775015000,-1.892930000,0.356814231,1.334240000,,,,,
1749762196.289115,0.004027290,0.004020150,0.012669000,0.040405800,-0.008187220,-0.000346154,-0.134855000,-0.004878110,1749762196.289114952,-0.005091369,0.002541384,0.117533000,0.697462411,-0.774956000,-1.894110000,0.357654852,1.334410000,,,,,
1749762196.297066,,,,,,,,,,,,,,,,,,1749762196.297065973,0.000000000,0.000000000,0.196359000,0.000000000
1749762196.299124,0.004200580,0.004196980,0.012923000,0.040782200,-0.008198750,-0.000401698,-0.135175000,-0.004419370,1749762196.299124002,-0.005317771,0.002642126,0.117598000,0.696881309,-0.774890000,-1.895500000,0.358664526,1.334570000,,,,,
1749762196.309154,0.004362100,0.004318700,0.013125900,0.041599900,-0.008277180,-0.000913908,-0.135350000,-0.003892750,1749762196.309154034,-0.005488458,0.002748802,0.117664000,0.696308656,-0.774831000,-1.896880000,0.359669503,1.334730000,,,,,
1749762196.317072,,,,,,,,,,,,,,,,,,1749762196.317071915,0.000000000,0.000000000,0.197250000,0.000000000
1749762196.318904,0.004464220,0.004386510,0.013186400,0.041944000,-0.008349990,-0.001352130,-0.134304000,-0.003426760,1749762196.318903923,-0.005588792,0.002817115,0.117722000,0.695806772,-0.774777000,-1.898080000,0.360542376,1.334870000,,,,,
1749762196.329176,0.004493320,0.004403690,0.013286400,0.040704300,-0.008509220,-0.002355100,-0.135877000,-0.003187430,1749762196.329175949,-0.005618865,0.002830329,0.117771000,0.695180503,-0.774731000,-1.899650000,0.361665866,1.335010000,,,,,
1749762196.337072,,,,,,,,,,,,,,,,,,1749762196.337071896,0.000000000,0.000000000,0.198203000,0.000000000
1749762196.339150,0.004551540,0.004387900,0.013424800,0.037856400,-0.008617940,-0.002941350,-0.136517000,-0.003194140,1749762196.339149952,-0.005626938,0.002882316,0.117824000,0.694594811,-0.774689000,-1.901110000,0.362716956,1.335170000,,,,,
1749762196.349264,0.004620930,0.004354230,0.013628700,0.036490700,-0.008703640,-0.003328780,-0.139426000,-0.003013970,1749762196.349263906,-0.005622852,0.002948872,0.117880000,0.693892948,-0.774650000,-1.902890000,0.363992985,1.335330000,,,,,
1749762196.357074,,,,,,,,,,,,,,,,,,1749762196.357074022,0.000000000,0.000000000,0.199212000,0.000000000
1749762196.359262,0.004688900,0.004344770,0.013907100,0.034307000,-0.008727370,-0.003262980,-0.141822000,-0.002966320,1749762196.359261990,-0.005641339,0.003006344,0.117936000,0.693196867,-0.774608000,-1.904640000,0.365245886,1.335510000,,,,,
1749762196.368970,0.004806820,0.004386040,0.014140800,0.031837500,-0.008736130,-0.003098650,-0.143735000,-0.002982020,1749762196.368969917,-0.005724208,0.003094561,0.118000000,0.692511271,-0.774559000,-1.906330000,0.366461163,1.335680000,,,,,
1749762196.377077,,,,,,,,,,,,,,,,,,1749762196.377077103,0.000000000,0.000000000,0.200269000,0.000000000
1749762196.379360,0.004867000,0.004383150,0.014219200,0.029403800,-0.008742320,-0.002928010,-0.144128000,-0.003017220,1749762196.379359961,-0.005746017,0.003143721,0.118057000,0.691900427,-0.774515000,-1.907830000,0.367538760,1.335830000,,,,,
