__time,filtered_pose/dx,filtered_pose/dy,filtered_pose/dz,filtered_pose/p,filtered_pose/pitch,filtered_pose/q,filtered_pose/r,filtered_pose/roll,filtered_pose/timestamp,filtered_pose/vxb,filtered_pose/vyb,filtered_pose/x,filtered_pose/xb,filtered_pose/y,filtered_pose/yaw,filtered_pose/yb,filtered_pose/z,u_control/timestamp,u_control/ux,u_control/uy,u_control/uyaw,u_control/uz
1749761518.345673,-0.011278800,-0.031090400,-0.001030120,0.007164140,-0.015277200,0.029704800,0.017998200,-0.016894000,1749761518.345673084,0.031987837,-0.008402533,0.942429000,0.967442993,-1.057600000,-1.661930000,1.034767721,1.245640000,,,,,
1749761518.355855,-0.012072500,-0.031255000,0.000303249,0.003935870,-0.015539400,0.025855600,0.020734400,-0.017291400,1749761518.355854988,0.032218750,-0.009196326,0.942201000,0.968381921,-1.057930000,-1.661360000,1.034018890,1.245820000,,,,,
1749761518.358516,,,,,,,,,,,,,,,,,,1749761518.358515978,0.000000000,0.300000000,0.000000000,0.000000000
1749761518.365137,-0.012693400,-0.031405800,0.001727460,0.000037351,-0.015828000,0.022089400,0.023195000,-0.017818400,1749761518.365137100,0.032419495,-0.009819524,0.941990000,0.969328742,-1.058270000,-1.660790000,1.033287155,1.246030000,,,,,
1749761518.374877,-0.013363400,-0.031489400,0.003163010,-0.002584780,-0.016150800,0.018346900,0.024623700,-0.018199000,1749761518.374876976,0.032558357,-0.010493626,0.941765000,0.970122134,-1.058590000,-1.660350000,1.032665070,1.246260000,,,,,
1749761518.378594,,,,,,,,,,,,,,,,,,1749761518.378593922,0.000000000,0.300000000,0.000000000,0.000000000
1749761518.385108,-0.013988200,-0.031672300,0.004544210,-0.004785650,-0.016596400,0.014016700,0.023052500,-0.018544600,1749761518.385107994,0.032796180,-0.011100221,0.941541000,0.970501454,-1.058930000,-1.660330000,1.032452966,1.246490000,,,,,
1749761518.395092,-0.014464300,-0.031895800,0.005974120,-0.007215550,-0.017100100,0.009585190,0.018941900,-0.018945500,1749761518.395092010,0.033065628,-0.011542196,0.941332000,0.970486731,-1.059280000,-1.660700000,1.032635249,1.246740000,,,,,
1749761518.398591,,,,,,,,,,,,,,,,,,1749761518.398591042,0.000000000,0.300000000,0.000000000,0.000000000
1749761518.405135,-0.014742300,-0.032088100,0.007537600,-0.010028300,-0.017731900,0.004576560,0.015025200,-0.019426200,1749761518.405134916,0.033286593,-0.011789160,0.941147000,0.970459514,-1.059630000,-1.661080000,1.032851269,1.247030000,,,,,
1749761518.415120,-0.014824600,-0.032323300,0.009082960,-0.014081500,-0.018388500,-0.000258061,0.011952900,-0.020115400,1749761518.415119886,0.033531809,-0.011839860,0.940988000,0.970522522,-1.059990000,-1.661380000,1.033016578,1.247330000,,,,,
1749761518.418581,,,,,,,,,,,,,,,,,,1749761518.418581009,0.000000000,0.300000000,0.000000000,0.000000000
1749761518.425226,-0.014739600,-0.032643400,0.010691500,-0.020651200,-0.019338200,-0.006777330,0.009467300,-0.021210700,1749761518.425225973,0.033845721,-0.011718130,0.940852000,0.970655381,-1.060360000,-1.661620000,1.033147592,1.247650000,,,,,
1749761518.435199,-0.014793200,-0.032978200,0.012177800,-0.028301900,-0.020424900,-0.013790500,0.009492970,-0.022528700,1749761518.435199022,0.034182828,-0.011744561,0.940697000,0.971141212,-1.060730000,-1.661520000,1.032929681,1.247980000,,,,,
1749761518.438589,,,,,,,,,,,,,,,,,,1749761518.438589096,0.000000000,0.300000000,0.000000000,0.000000000
1749761518.445134,-0.015031100,-0.033269100,0.013502800,-0.034997600,-0.021578600,-0.020782600,0.011362100,-0.023784500,1749761518.445133924,0.034489659,-0.011967889,0.940514000,0.971908332,-1.061100000,-1.661150000,1.032421420,1.248290000,,,,,
1749761518.455165,-0.015264000,-0.033621200,0.014745300,-0.040072800,-0.022576000,-0.026217100,0.013750000,-0.024871800,1749761518.455164909,0.034855737,-0.012184104,0.940330000,0.972788087,-1.061490000,-1.660690000,1.031825987,1.248610000,,,,,
1749761518.458592,,,,,,,,,,,,,,,,,,1749761518.458591938,0.000000000,0.300000000,0.000000000,0.000000000
1749761518.465124,-0.015497900,-0.033985700,0.015938300,-0.043676500,-0.023650200,-0.031806700,0.014540600,-0.025796100,1749761518.465123892,0.035236666,-0.012393147,0.940143000,0.973451188,-1.061880000,-1.660440000,1.031431423,1.248930000,,,,,
1749761518.475116,-0.015828600,-0.034322500,0.017058900,-0.046442100,-0.024821600,-0.037680300,0.014387900,-0.026634600,1749761518.475116014,0.035600196,-0.012696640,0.939940000,0.973971580,-1.062260000,-1.660320000,1.031146388,1.249250000,,,,,
1749761518.478590,,,,,,,,,,,,,,,,,,1749761518.478590012,0.000000000,0.300000000,0.000000000,0.000000000
1749761518.485130,-0.015898600,-0.034607700,0.018050700,-0.049777300,-0.025998600,-0.043188000,0.014818100,-0.027583600,1749761518.485130072,0.035887835,-0.012748398,0.939772000,0.974591529,-1.062650000,-1.660110000,1.030809287,1.249560000,,,,,
1749761518.495455,-0.016058200,-0.034800000,0.018921400,-0.052035700,-0.027339900,-0.049447800,0.014177100,-0.028409500,1749761518.495455027,0.036092831,-0.012892375,0.939590000,0.975038126,-1.063020000,-1.660050000,1.030602514,1.249870000,,,,,
1749761518.498583,,,,,,,,,,,,,,,,,,1749761518.498583078,0.000000000,0.300000000,0.000000000,0.000000000
1749761518.505137,-0.016331600,-0.035002200,0.019727300,-0.052026100,-0.028661800,-0.055143400,0.013559900,-0.028928400,1749761518.505136967,0.036317938,-0.013148480,0.939389000,0.975486050,-1.063400000,-1.660000000,1.030387412,1.250180000,,,,,
1749761518.515159,-0.016399600,-0.035244900,0.020638700,-0.048179500,-0.029578000,-0.057654200,0.012895600,-0.028889800,1749761518.515158892,0.036565203,-0.013196051,0.939216000,0.975931120,-1.063790000,-1.659960000,1.030210807,1.250510000,,,,,
1749761518.518583,,,,,,,,,,,,,,,,,,1749761518.518583059,0.000000000,0.300000000,0.000000000,0.000000000
1749761518.525116,-0.016513600,-0.035488600,0.021434500,-0.043189400,-0.030535800,-0.060278000,0.010717700,-0.028646700,1749761518.525115967,0.036820610,-0.013280902,0.939036000,0.976129909,-1.064170000,-1.660150000,1.030250843,1.250830000,,,,,
1749761518.535198,-0.016452300,-0.035488200,0.022072500,-0.035467000,-0.031280600,-0.061255500,0.009597850,-0.027956600,1749761518.535197973,0.036815535,-0.013217673,0.938879000,0.976440673,-1.064530000,-1.660210000,1.030185182,1.251140000,,,,,
1749761518.538621,,,,,,,,,,,,,,,,,,1749761518.538620949,0.000000000,0.300000000,0.000000000,0.000000000
1749761518.545155,-0.016170600,-0.035540900,0.022658400,-0.027375800,-0.032156900,-0.063071100,0.008665930,-0.027135800,1749761518.545155048,0.036843388,-0.012930919,0.938756000,0.976769014,-1.064890000,-1.660250000,1.030133891,1.251440000,,,,,
1749761518.555160,-0.015836100,-0.035529000,0.023091500,-0.017633200,-0.032768800,-0.062941300,0.006992640,-0.025994100,1749761518.555160046,0.036803542,-0.012593299,0.938643000,0.976973191,-1.065240000,-1.660400000,1.030199167,1.251730000,,,,,
1749761518.558583,,,,,,,,,,,,,,,,,,1749761518.558583021,0.000000000,0.300000000,0.000000000,0.000000000
1749761518.565152,-0.015467000,-0.035470500,0.023398800,-0.004793220,-0.033359800,-0.062677200,0.003819540,-0.024305000,1749761518.565151930,0.036717016,-0.012216596,0.938538000,0.976929359,-1.065590000,-1.660790000,1.030506989,1.252010000,,,,,
1749761518.575121,-0.015162300,-0.035398700,0.023539700,0.007813800,-0.033684800,-0.060600000,0.000478581,-0.022521400,1749761518.575120926,0.036623482,-0.011903103,0.938427000,0.976824127,-1.065940000,-1.661240000,1.030867568,1.252260000,,,,,
1749761518.578585,,,,,,,,,,,,,,,,,,1749761518.578584909,0.000000000,0.300000000,0.000000000,0.000000000
1749761518.585109,-0.014897600,-0.035210300,0.023552900,0.020152200,-0.033802300,-0.057237500,-0.002042170,-0.020650700,1749761518.585108995,0.036416138,-0.011643392,0.938314000,0.976781880,-1.066260000,-1.661600000,1.031135641,1.252500000,,,,,
1749761518.595120,-0.014955900,-0.035062700,0.023411300,0.033444200,-0.033639100,-0.052174300,-0.003937500,-0.018518100,1749761518.595119953,0.036277946,-0.011703953,0.938157000,0.976815410,-1.066590000,-1.661900000,1.031302303,1.252710000,,,,,
1749761518.598583,,,,,,,,,,,,,,,,,,1749761518.598582983,0.000000000,0.300000000,0.000000000,0.000000000
1749761518.605103,-0.014877200,-0.034964700,0.023239200,0.050148100,-0.033434300,-0.047173900,-0.004730560,-0.015756900,1749761518.605103016,0.036174937,-0.011629069,0.938019000,0.977011864,-1.066930000,-1.662050000,1.031342371,1.252920000,,,,,
1749761518.615157,-0.014917500,-0.034840200,0.022990600,0.065661500,-0.033162300,-0.042054300,-0.006198860,-0.013001600,1749761518.615156889,0.036057663,-0.011671172,0.937864000,0.977086466,-1.067260000,-1.662310000,1.031472165,1.253120000,,,,,
1749761518.618593,,,,,,,,,,,,,,,,,,1749761518.618592978,0.000000000,0.300000000,0.000000000,0.000000000
1749761518.625098,-0.015066800,-0.034671300,0.022590000,0.080080400,-0.032939600,-0.037626500,-0.007176180,-0.010250200,1749761518.625097990,0.035905599,-0.011827743,0.937693000,0.977204153,-1.067580000,-1.662520000,1.031536360,1.253290000,,,,,
1749761518.635167,-0.015316900,-0.034477700,0.022174300,0.092175500,-0.032757500,-0.033783400,-0.006079990,-0.007692170,1749761518.635166883,0.035734632,-0.012097740,0.937506000,0.977632757,-1.067900000,-1.662430000,1.031291474,1.253460000,,,,,
1749761518.638597,,,,,,,,,,,,,,,,,,1749761518.638597012,0.000000000,0.300000000,0.000000000,0.000000000
1749761518.645169,-0.015707400,-0.034068900,0.021719400,0.103277000,-0.032645400,-0.030686300,-0.005069610,-0.005157620,1749761518.645169020,0.035362152,-0.012527192,0.937296000,0.978033552,-1.068190000,-1.662340000,1.031020872,1.253610000,,,,,
1749761518.655195,-0.016216600,-0.033770600,0.021126400,0.115333000,-0.032333200,-0.026425800,-0.004069560,-0.002373310,1749761518.655194998,0.035110475,-0.013064689,0.937065000,0.978446182,-1.068490000,-1.662250000,1.030730208,1.253740000,,,,,
1749761518.658628,,,,,,,,,,,,,,,,,,1749761518.658627987,0.000000000,0.300000000,0.000000000,0.000000000
1749761518.665145,-0.016843500,-0.033428700,0.020331400,0.127532000,-0.031991400,-0.022254000,-0.002519480,0.000552411,1749761518.665144920,0.034824648,-0.013726811,0.936812000,0.978943896,-1.068770000,-1.662060000,1.030317856,1.253840000,,,,,
1749761518.675220,-0.017674000,-0.033042900,0.019478700,0.137623000,-0.031551700,-0.017695900,-0.002361450,0.003293730,1749761518.675220013,0.034516289,-0.014588670,0.936523000,0.979238769,-1.069050000,-1.662070000,1.030065370,1.253920000,,,,,
1749761518.678629,,,,,,,,,,,,,,,,,,1749761518.678628922,0.000000000,0.300000000,0.000000000,0.000000000
1749761518.685153,-0.018501800,-0.032646200,0.018598700,0.145643000,-0.031031800,-0.012899200,-0.003229130,0.005835090,1749761518.685153008,0.034199009,-0.015444053,0.936226000,0.979380235,-1.069320000,-1.662220000,1.029941134,1.253990000,,,,,
1749761518.695262,-0.019784600,-0.032239600,0.017573200,0.154185000,-0.030470600,-0.008147910,-0.002455230,0.008532560,1749761518.695261955,0.033909881,-0.016761329,0.935855000,0.979765343,-1.069590000,-1.662140000,1.029517956,1.254020000,,,,,
1749761518.698601,,,,,,,,,,,,,,,,,,1749761518.698601007,0.000000000,0.300000000,0.000000000,0.000000000
1749761518.705154,-0.021023300,-0.031753900,0.016431900,0.162656000,-0.029719400,-0.002417070,-0.001548500,0.011305100,1749761518.705153942,0.033537212,-0.018042858,0.935477000,0.980161983,-1.069840000,-1.662030000,1.029056524,1.254030000,,,,,
1749761518.715266,-0.022241300,-0.031251600,0.015233100,0.170697000,-0.028915200,0.003285330,-0.001581250,0.014099900,1749761518.715265989,0.033148355,-0.019300893,0.935090000,0.980425628,-1.070090000,-1.662050000,1.028713519,1.254020000,,,,,
1749761518.718584,,,,,,,,,,,,,,,,,,1749761518.718584061,0.000000000,0.300000000,0.000000000,0.000000000
1749761518.725277,-0.023364500,-0.030782500,0.014022000,0.176717000,-0.028213200,0.007890730,-0.003287740,0.016681400,1749761518.725276947,0.032788880,-0.020453643,0.934704000,0.980432400,-1.070330000,-1.662310000,1.028605943,1.254000000,,,,,
1749761518.735353,-0.024720900,-0.030328500,0.012830700,0.181526000,-0.027589000,0.011644400,-0.004639120,0.019147200,1749761518.735352993,0.032465759,-0.021838390,0.934273000,0.980474271,-1.070570000,-1.662540000,1.028424215,1.253970000,,,,,
1749761518.738601,,,,,,,,,,,,,,,,,,1749761518.738600969,0.000000000,0.300000000,0.000000000,0.000000000
1749761518.745245,-0.026138500,-0.029786300,0.011643200,0.186349000,-0.026754500,0.016587000,-0.006257870,0.021663100,1749761518.745244980,0.032062236,-0.023290725,0.933820000,0.980456929,-1.070800000,-1.662820000,1.028268760,1.253920000,,,,,
1749761518.755193,-0.027690200,-0.029258000,0.010530000,0.189096000,-0.025838600,0.021749600,-0.006530960,0.023925800,1749761518.755192995,0.031681500,-0.024880922,0.933333000,0.980607686,-1.071020000,-1.662930000,1.027911910,1.253880000,,,,,
1749761518.758596,,,,,,,,,,,,,,,,,,1749761518.758595943,0.000000000,0.300000000,0.000000000,0.000000000
1749761518.765182,-0.029544100,-0.028768100,0.009374310,0.192085000,-0.024862500,0.026970900,-0.007489270,0.026251000,1749761518.765182018,0.031369597,-0.026765759,0.932787000,0.980671489,-1.071240000,-1.663130000,1.027584622,1.253810000,,,,,
1749761518.775250,-0.031566700,-0.028341900,0.008171040,0.195313000,-0.024103400,0.030339700,-0.007161860,0.028640900,1749761518.775249958,0.031132565,-0.028818106,0.932198000,0.980924006,-1.071470000,-1.663160000,1.027048766,1.253730000,,,,,
1749761518.778600,,,,,,,,,,,,,,,,,,1749761518.778599977,0.000000000,0.300000000,0.000000000,0.000000000
1749761518.785245,-0.034219700,-0.027778000,0.006832850,0.193177000,-0.022726800,0.037726700,-0.007464710,0.030283700,1749761518.785244942,0.030819228,-0.031508417,0.931497000,0.981074902,-1.071670000,-1.663270000,1.026477125,1.253620000,,,,,
1749761518.795257,-0.037140600,-0.027228900,0.005452940,0.188792000,-0.021283800,0.045061800,-0.007870660,0.031578300,1749761518.795257092,0.030547021,-0.034463266,0.930730000,0.981201261,-1.071870000,-1.663410000,1.025869248,1.253490000,,,,,
1749761518.798588,,,,,,,,,,,,,,,,,,1749761518.798588037,0.000000000,0.300000000,0.000000000,0.000000000
1749761518.805265,-0.040020700,-0.026920200,0.004055110,0.185014000,-0.019982400,0.050918400,-0.007751000,0.032917300,1749761518.805264950,0.030508241,-0.037357742,0.929940000,0.981431871,-1.072090000,-1.663470000,1.025161868,1.253340000,,,,,
1749761518.815214,-0.043100400,-0.026590400,0.002790330,0.180743000,-0.018842600,0.055258600,-0.004783460,0.034147000,1749761518.815213919,0.030450289,-0.040465711,0.929093000,0.982107965,-1.072320000,-1.663110000,1.023986294,1.253200000,,,,,
1749761518.818602,,,,,,,,,,,,,,,,,,1749761518.818602085,0.000000000,0.300000000,0.000000000,0.000000000
1749761518.825207,-0.045855600,-0.026327800,0.001699350,0.178827000,-0.017716000,0.059209800,-0.003659830,0.035676100,1749761518.825206995,0.030438033,-0.043236735,0.928261000,0.982516268,-1.072540000,-1.663000000,1.023070046,1.253070000,,,,,
1749761518.835267,-0.048745200,-0.026129100,0.000749521,0.175048000,-0.016502100,0.063489900,-0.004902900,0.036915400,1749761518.835267067,0.030516379,-0.046125643,0.927383000,0.982611177,-1.072780000,-1.663220000,1.022434072,1.252940000,,,,,
1749761518.838669,,,,,,,,,,,,,,,,,,1749761518.838669062,0.000000000,0.300000000,0.000000000,0.000000000
1749761518.845181,-0.051657500,-0.025921800,-0.000225362,0.171743000,-0.015477000,0.066175700,-0.005403690,0.038185600,1749761518.845180988,0.030584632,-0.049040976,0.926472000,0.982801680,-1.073010000,-1.663340000,1.021666131,1.252810000,,,,,
1749761518.855235,-0.054798800,-0.025657700,-0.001150630,0.168332000,-0.014451000,0.068682800,-0.007521170,0.039407500,1749761518.855235100,0.030630742,-0.052182216,0.925500000,0.982743041,-1.073230000,-1.663700000,1.021072475,1.252670000,,,,,
1749761518.858580,,,,,,,,,,,,,,,,,,1749761518.858580112,0.000000000,0.300000000,0.000000000,0.000000000
1749761518.865191,-0.058135900,-0.025474500,-0.001952790,0.165627000,-0.013713400,0.069032400,-0.007536170,0.040697800,1749761518.865190983,0.030762357,-0.055519460,0.924467000,0.982986272,-1.073460000,-1.663780000,1.020143909,1.252550000,,,,,
1749761518.875686,-0.061349600,-0.025344100,-0.002594340,0.162660000,-0.012965700,0.069426900,-0.006881280,0.041923000,1749761518.875685930,0.030929737,-0.058732003,0.923418000,0.983343017,-1.073700000,-1.663760000,1.019102058,1.252430000,,,,,
1749761518.878616,,,,,,,,,,,,,,,,,,1749761518.878616095,0.000000000,0.300000000,0.000000000,0.000000000
1749761518.885247,-0.064633700,-0.025259000,-0.003164890,0.158907000,-0.012365700,0.068778700,-0.005979670,0.043004400,1749761518.885246992,0.031146146,-0.062011691,0.922328000,0.983744246,-1.073940000,-1.663700000,1.017980021,1.252320000,,,,,
1749761518.895214,-0.067988400,-0.025263700,-0.003739050,0.150332000,-0.012041900,0.066272900,-0.005572270,0.043347800,1749761518.895214081,0.031462042,-0.065351488,0.921194000,0.984098369,-1.074190000,-1.663700000,1.016874104,1.252210000,,,,,
1749761518.898584,,,,,,,,,,,,,,,,,,1749761518.898583889,0.000000000,0.300000000,0.000000000,0.000000000
1749761518.905142,-0.071608100,-0.025265700,-0.004373350,0.145424000,-0.012076300,0.061474500,-0.005196570,0.044138000,1749761518.905142069,0.031799833,-0.068955393,0.919988000,0.984459171,-1.074440000,-1.663700000,1.015696497,1.252080000,,,,,
1749761518.915248,-0.075837900,-0.025268100,-0.005036160,0.138932000,-0.012010600,0.057695400,-0.004485840,0.044649000,1749761518.915247917,0.032190963,-0.073168339,0.918658000,0.984892153,-1.074700000,-1.663650000,1.014347109,1.251940000,,,,,
1749761518.918587,,,,,,,,,,,,,,,,,,1749761518.918586969,0.000000000,0.300000000,0.000000000,0.000000000
1749761518.925201,-0.080375000,-0.025296400,-0.005713610,0.129393000,-0.011730500,0.055652100,-0.004230160,0.044652500,1749761518.925200939,0.032639822,-0.077683270,0.917240000,0.985272553,-1.074950000,-1.663650000,1.012958398,1.251790000,,,,,
1749761518.935210,-0.084765900,-0.025259900,-0.006268620,0.121698000,-0.011377300,0.054252800,-0.004429240,0.044828600,1749761518.935209990,0.033016349,-0.082056328,0.915799000,0.985584276,-1.075200000,-1.663720000,1.011615779,1.251650000,,,,,
1749761518.938627,,,,,,,,,,,,,,,,,,1749761518.938627005,0.000000000,0.300000000,0.000000000,0.000000000
1749761518.945224,-0.089370200,-0.025233800,-0.006992510,0.111336000,-0.011430800,0.050150200,-0.003938250,0.044540100,1749761518.945224047,0.033415862,-0.086643854,0.914282000,0.985994162,-1.075450000,-1.663700000,1.010108801,1.251490000,,,,,
1749761518.955243,-0.093908600,-0.025187200,-0.007713790,0.100834000,-0.011583500,0.045646700,-0.005133350,0.044127700,1749761518.955243111,0.033809635,-0.091159908,0.912729000,0.986165374,-1.075690000,-1.663910000,1.008791880,1.251310000,,,,,
1749761518.958612,,,,,,,,,,,,,,,,,,1749761518.958611965,0.000000000,0.300000000,0.000000000,0.000000000
1749761518.965225,-0.098382500,-0.025180200,-0.008211350,0.091485900,-0.011919400,0.040192900,-0.005883120,0.043777900,1749761518.965224981,0.034233943,-0.095609602,0.911140000,0.986410822,-1.075950000,-1.664070000,1.007391777,1.251160000,,,,,
1749761518.975233,-0.102739000,-0.025201600,-0.008478130,0.082334000,-0.012306900,0.034759200,-0.005859250,0.043363200,1749761518.975233078,0.034667004,-0.099943092,0.909523000,0.986749990,-1.076200000,-1.664130000,1.005864297,1.251040000,,,,,
1749761518.978614,,,,,,,,,,,,,,,,,,1749761518.978614092,0.000000000,0.300000000,0.000000000,0.000000000
1749761518.985193,-0.107097000,-0.025371700,-0.008620190,0.073047100,-0.012960000,0.027871500,-0.005645960,0.042837300,1749761518.985193014,0.035244607,-0.104265566,0.907863000,0.987163395,-1.076480000,-1.664150000,1.004257361,1.250940000,,,,,
1749761518.995179,-0.111398000,-0.025673300,-0.008830960,0.068530300,-0.013771300,0.020368200,-0.005319960,0.042911600,1749761518.995178938,0.035946910,-0.108519364,0.906167000,0.987600205,-1.076770000,-1.664160000,1.002605656,1.250820000,,,,,
1749761518.998613,,,,,,,,,,,,,,,,,,1749761518.998613119,0.000000000,0.300000000,0.000000000,0.000000000
1749761519.005164,-0.115917000,-0.025992500,-0.009059710,0.062190200,-0.014023000,0.017234200,-0.004905340,0.042675800,1749761519.005163908,0.036686018,-0.112988924,0.904396000,0.988073961,-1.077080000,-1.664160000,1.000871269,1.250700000,,,,,
1749761519.015132,-0.120933000,-0.026244800,-0.009244990,0.054911900,-0.013939300,0.016623800,-0.004817100,0.042240300,1749761519.015131950,0.037408390,-0.117958435,0.902508000,0.988508742,-1.077370000,-1.664190000,0.999048184,1.250580000,,,,,
1749761519.018581,,,,,,,,,,,,,,,,,,1749761519.018580914,0.000000000,0.300000000,0.000000000,0.000000000
1749761519.025123,-0.126182000,-0.026391200,-0.009472350,0.046821400,-0.013656400,0.017427100,-0.004934080,0.041614000,1749761519.025122881,0.038052285,-0.123168243,0.900536000,0.988911583,-1.077660000,-1.664260000,0.997181049,1.250450000,,,,,
1749761519.035152,-0.131203000,-0.026660400,-0.009705560,0.039927500,-0.013567100,0.016842400,-0.006767030,0.041080600,1749761519.035151958,0.038828630,-0.128130174,0.898545000,0.989087521,-1.077960000,-1.664570000,0.995533402,1.250330000,,,,,
1749761519.038589,,,,,,,,,,,,,,,,,,1749761519.038589001,0.000000000,0.300000000,0.000000000,0.000000000
1749761519.045149,-0.136238000,-0.027040700,-0.009796730,0.033110500,-0.013560100,0.015730800,-0.006790110,0.040489500,1749761519.045149088,0.039688036,-0.133104665,0.896502000,0.989527864,-1.078280000,-1.664640000,0.993598611,1.250210000,,,,,
1749761519.055219,-0.140821000,-0.027478400,-0.009616400,0.027993000,-0.014078700,0.011078900,-0.004488330,0.040077100,1749761519.055218935,0.040517480,-0.137637024,0.894473000,0.990314283,-1.078620000,-1.664380000,0.991352951,1.250140000,,,,,
1749761519.058611,,,,,,,,,,,,,,,,,,1749761519.058610916,0.000000000,0.300000000,0.000000000,0.000000000
1749761519.065171,-0.145486000,-0.027798100,-0.009335690,0.024858600,-0.014784300,0.005458970,-0.004214120,0.039901700,1749761519.065171003,0.041271712,-0.142251736,0.892388000,0.990827720,-1.078940000,-1.664380000,0.989306977,1.250090000,,,,,
1749761519.075244,-0.150148000,-0.028122400,-0.009261250,0.020609000,-0.015757300,-0.001613670,-0.003476210,0.039532900,1749761519.075243950,0.042021432,-0.146865553,0.890255000,0.991404874,-1.079260000,-1.664320000,0.987153731,1.250010000,,,,,
1749761519.078580,,,,,,,,,,,,,,,,,,1749761519.078579903,0.000000000,0.300000000,0.000000000,0.000000000
1749761519.085166,-0.155676000,-0.028449400,-0.009422410,0.014859400,-0.016506200,-0.006657440,-0.001083480,0.038903700,1749761519.085165977,0.042814497,-0.152352565,0.887951000,0.992263710,-1.079590000,-1.664000000,0.984573144,1.249890000,,,,,
1749761519.095188,-0.161308000,-0.028587600,-0.009621700,0.008775630,-0.016767400,-0.007997290,-0.000497581,0.038168400,1749761519.095187902,0.043465205,-0.157950301,0.885576000,0.992862157,-1.079900000,-1.663930000,0.982167806,1.249770000,,,,,
1749761519.098583,,,,,,,,,,,,,,,,,,1749761519.098582983,0.000000000,0.300000000,0.000000000,0.000000000
1749761519.105175,-0.166769000,-0.028582400,-0.009648080,0.000375682,-0.017023000,-0.009205770,-0.002415060,0.037035800,1749761519.105175018,0.044013642,-0.163375801,0.883169000,0.993090410,-1.080180000,-1.664210000,0.980075381,1.249670000,,,,,
1749761519.115606,-0.171782000,-0.028750600,-0.009622250,-0.003979540,-0.017547800,-0.012184900,-0.006083840,0.036406800,1749761519.115606070,0.044742980,-0.168326226,0.880773000,0.993074874,-1.080490000,-1.664770000,0.978275018,1.249570000,,,,,
1749761519.118624,,,,,,,,,,,,,,,,,,1749761519.118623972,0.000000000,0.300000000,0.000000000,0.000000000
1749761519.125274,-0.176724000,-0.028918400,-0.009414780,-0.008563600,-0.018448300,-0.017544300,-0.009193190,0.035701000,1749761519.125273943,0.045462116,-0.173207511,0.878338000,0.993114168,-1.080800000,-1.665280000,0.976386466,1.249510000,,,,,
1749761519.135082,-0.181299000,-0.028962900,-0.009047490,-0.011961000,-0.019211100,-0.021587200,-0.011573400,0.035121800,1749761519.135082006,0.046016247,-0.177737677,0.875906000,0.993213619,-1.081100000,-1.665720000,0.974430725,1.249470000,,,,,
1749761519.138576,,,,,,,,,,,,,,,,,,1749761519.138576031,0.000000000,0.300000000,0.000000000,0.000000000
1749761519.145081,-0.186215000,-0.029046200,-0.008783090,-0.013573400,-0.019884600,-0.024737400,-0.010585200,0.034768000,1749761519.145081043,0.046559638,-0.182625048,0.873378000,0.993781033,-1.081400000,-1.665690000,0.971912727,1.249410000,,,,,
1749761519.154998,-0.191216000,-0.029188800,-0.008750240,-0.018610900,-0.020620900,-0.028102400,-0.009632980,0.033900400,1749761519.154998064,0.047169820,-0.187591452,0.870790000,0.994363935,-1.081710000,-1.665660000,0.969335913,1.249330000,,,,,
1749761519.158583,,,,,,,,,,,,,,,,,,1749761519.158582926,0.000000000,0.300000000,0.000000000,0.000000000
1749761519.165196,-0.196300000,-0.029286700,-0.008552820,-0.024895700,-0.021137100,-0.029721500,-0.010832500,0.032801200,1749761519.165195942,0.047800855,-0.192630421,0.868139000,0.994662596,-1.082020000,-1.665930000,0.966994790,1.249270000,,,,,
1749761519.175146,-0.201350000,-0.029298700,-0.008451580,-0.028677300,-0.021596500,-0.030837700,-0.010801700,0.032002800,1749761519.175146103,0.048314244,-0.197651133,0.865442000,0.995101390,-1.082310000,-1.666040000,0.964447000,1.249200000,,,,,
1749761519.178583,,,,,,,,,,,,,,,,,,1749761519.178582907,0.000000000,0.300000000,0.000000000,0.000000000
1749761519.185149,-0.206496000,-0.029371100,-0.008386800,-0.032594100,-0.022395100,-0.034212100,-0.008928130,0.031147000,1749761519.185148954,0.048841228,-0.202775230,0.862681000,0.995836035,-1.082620000,-1.665870000,0.961558716,1.249130000,,,,,
1749761519.195243,-0.211270000,-0.029460200,-0.008113790,-0.034143300,-0.023073800,-0.036528500,-0.007569120,0.030596000,1749761519.195242882,0.049360296,-0.207524643,0.859923000,0.996501965,-1.082920000,-1.665760000,0.958732041,1.249080000,,,,,
1749761519.198605,,,,,,,,,,,,,,,,,,1749761519.198605061,0.000000000,0.300000000,0.000000000,0.000000000
1749761519.205218,-0.215771000,-0.029552900,-0.008001350,-0.031140400,-0.023773700,-0.038831700,-0.007101750,0.030690800,1749761519.205218077,0.049881488,-0.211996074,0.857156000,0.997063378,-1.083230000,-1.665770000,0.956016873,1.249020000,,,,,
1749761519.215210,-0.220495000,-0.029525000,-0.007956460,-0.031538900,-0.024168700,-0.038877600,-0.005850420,0.030321500,1749761519.215209961,0.050277858,-0.216706963,0.854312000,0.997726617,-1.083520000,-1.665660000,0.953103447,1.248940000,,,,,
1749761519.218601,,,,,,,,,,,,,,,,,,1749761519.218600988,0.000000000,0.300000000,0.000000000,0.000000000
1749761519.225207,-0.225373000,-0.029522600,-0.007765700,-0.035216000,-0.024187500,-0.036331300,-0.005645420,0.029471900,1749761519.225207090,0.050744166,-0.221561735,0.851398000,0.998272780,-1.083820000,-1.665690000,0.950260914,1.248890000,,,,,
1749761519.235161,-0.229871000,-0.029466800,-0.007619500,-0.038242200,-0.024375000,-0.035120800,-0.007560490,0.028680100,1749761519.235161066,0.051189401,-0.226027906,0.848491000,0.998524222,-1.084110000,-1.666020000,0.947724035,1.248840000,,,,,
1749761519.238600,,,,,,,,,,,,,,,,,,1749761519.238600016,0.000000000,0.300000000,0.000000000,0.000000000
1749761519.245258,-0.234351000,-0.029472100,-0.007490500,-0.038543800,-0.024754300,-0.035314400,-0.007473630,0.028253900,1749761519.245258093,0.051636769,-0.230483492,0.845542000,0.999027159,-1.084400000,-1.666090000,0.944885902,1.248780000,,,,,
1749761519.255208,-0.238629000,-0.029436000,-0.007185090,-0.035458700,-0.025463200,-0.037762900,-0.006612600,0.028316700,1749761519.255208015,0.051996145,-0.234748118,0.842577000,0.999645059,-1.084690000,-1.666040000,0.941911967,1.248750000,,,,,
1749761519.258581,,,,,,,,,,,,,,,,,,1749761519.258580923,0.000000000,0.300000000,0.000000000,0.000000000
1749761519.265115,-0.242395000,-0.029449700,-0.006867380,-0.031437100,-0.026145500,-0.039860300,-0.005706170,0.028546300,1749761519.265115023,0.052351233,-0.238499411,0.839643000,1.000288451,-1.084990000,-1.665970000,0.938949777,1.248720000,,,,,
1749761519.275341,-0.247138000,-0.029120400,-0.006676780,-0.034738700,-0.026307300,-0.038230300,-0.002390390,0.027752300,1749761519.275341034,0.052371981,-0.243274258,0.836530000,1.001216172,-1.085230000,-1.665550000,0.935453244,1.248680000,,,,,
1749761519.278612,,,,,,,,,,,,,,,,,,1749761519.278611898,0.000000000,0.300000000,0.000000000,0.000000000
1749761519.285176,-0.251762000,-0.028878500,-0.006573190,-0.037610600,-0.026151600,-0.034527100,-0.003199770,0.026987700,1749761519.285176039,0.052603357,-0.247893040,0.833387000,1.001641832,-1.085490000,-1.665690000,0.932489181,1.248630000,,,,,
1749761519.295183,-0.256128000,-0.028633400,-0.006416590,-0.037922400,-0.025840500,-0.030009500,-0.005263250,0.026566300,1749761519.295182943,0.052856288,-0.252245192,0.830235000,1.001882615,-1.085740000,-1.666020000,0.929705721,1.248590000,,,,,
1749761519.298585,,,,,,,,,,,,,,,,,,1749761519.298584938,0.000000000,0.300000000,0.000000000,0.000000000
1749761519.305156,-0.260515000,-0.028381700,-0.006035620,-0.037643500,-0.025958600,-0.028756500,-0.004067530,0.026227600,1749761519.305155993,0.052992046,-0.256642610,0.827036000,1.002546821,-1.085990000,-1.665900000,0.926424685,1.248580000,,,,,
1749761519.315207,-0.264504000,-0.028146100,-0.005561110,-0.033552600,-0.026142600,-0.028043500,-0.003285460,0.026445500,1749761519.315207005,0.053115457,-0.260640206,0.823852000,1.003171904,-1.086240000,-1.665820000,0.923198562,1.248590000,,,,,
1749761519.318584,,,,,,,,,,,,,,,,,,1749761519.318583965,0.000000000,0.300000000,0.000000000,0.000000000
1749761519.325252,-0.268611000,-0.027848300,-0.005154890,-0.033896200,-0.026195400,-0.026476600,-0.006201640,0.026060000,1749761519.325252056,0.053330458,-0.264732430,0.820610000,1.003295122,-1.086480000,-1.666280000,0.920455573,1.248590000,,,,,
1749761519.335291,-0.272873000,-0.027357400,-0.004895260,-0.034757300,-0.026265500,-0.025137000,-0.007057790,0.025596000,1749761519.335290909,0.053299241,-0.269011696,0.817305000,1.003644976,-1.086690000,-1.666470000,0.917376358,1.248580000,,,,,
1749761519.338582,,,,,,,,,,,,,,,,,,1749761519.338582039,0.000000000,0.300000000,0.000000000,0.000000000
1749761519.345199,-0.277215000,-0.026849500,-0.004648160,-0.037073300,-0.026425300,-0.024506900,-0.006765460,0.024911900,1749761519.345199108,0.053216647,-0.273380761,0.813945000,1.004137613,-1.086890000,-1.666500000,0.914080954,1.248560000,,,,,
1749761519.355188,-0.281572000,-0.026323100,-0.004282120,-0.038989300,-0.026761300,-0.025132500,-0.004997510,0.024262800,1749761519.355187893,0.053056223,-0.277778210,0.810540000,1.004825134,-1.087080000,-1.666310000,0.910518791,1.248570000,,,,,
1749761519.358579,,,,,,,,,,,,,,,,,,1749761519.358578920,0.000000000,0.300000000,0.000000000,0.000000000
1749761519.365219,-0.285790000,-0.025822800,-0.003799520,-0.039365800,-0.027088300,-0.025653100,-0.002501100,0.023818200,1749761519.365219116,0.052870217,-0.282041630,0.807111000,1.005631514,-1.087270000,-1.665990000,0.906801785,1.248600000,,,,,
1749761519.375171,-0.289850000,-0.025291800,-0.003208860,-0.037404300,-0.027476300,-0.026558200,0.000081901,0.023709500,1749761519.375170946,0.052627374,-0.286152157,0.803664000,1.006454461,-1.087450000,-1.665640000,0.903035296,1.248640000,,,,,
1749761519.378597,,,,,,,,,,,,,,,,,,1749761519.378597021,0.000000000,0.300000000,0.000000000,0.000000000
1749761519.385162,-0.294075000,-0.024767800,-0.002786660,-0.039857600,-0.027374700,-0.024030600,0.000165369,0.022979100,1749761519.385162115,0.052502939,-0.290408318,0.800151000,1.006975334,-1.087630000,-1.665630000,0.899545061,1.248670000,,,,,
1749761519.395205,-0.298280000,-0.024160800,-0.002327060,-0.042717600,-0.027138900,-0.020754100,-0.000620032,0.022165000,1749761519.395205021,0.052329256,-0.294646146,0.796600000,1.007372296,-1.087790000,-1.665740000,0.896135984,1.248710000,,,,,
1749761519.398585,,,,,,,,,,,,,,,,,,1749761519.398585081,0.000000000,0.300000000,0.000000000,0.000000000
1749761519.405246,-0.301930000,-0.023600300,-0.001691570,-0.044738400,-0.027370400,-0.020918600,-0.001544710,0.021444200,1749761519.405246019,0.052159071,-0.298325544,0.793087000,1.007739630,-1.087950000,-1.665880000,0.892795066,1.248780000,,,,,
1749761519.415317,-0.305402000,-0.023031900,-0.000939394,-0.044957000,-0.027675500,-0.021579100,0.000617379,0.020965100,1749761519.415317059,0.051835337,-0.301850870,0.789563000,1.008481378,-1.088100000,-1.665590000,0.889008803,1.248870000,,,,,
1749761519.418582,,,,,,,,,,,,,,,,,,1749761519.418581963,0.000000000,0.300000000,0.000000000,0.000000000
1749761519.425187,-0.309406000,-0.022436000,-0.000564181,-0.048146500,-0.027601800,-0.019586400,0.000989469,0.020052200,1749761519.425187111,0.051602744,-0.305896394,0.785927000,1.009018025,-1.088240000,-1.665530000,0.885341839,1.248920000,,,,,
1749761519.435201,-0.313598000,-0.021808200,-0.000214827,-0.050862400,-0.027294200,-0.016120800,0.002000890,0.019176100,1749761519.435200930,0.051324668,-0.310137198,0.782224000,1.009648726,-1.088380000,-1.665370000,0.881507153,1.248960000,,,,,
1749761519.438581,,,,,,,,,,,,,,,,,,1749761519.438580990,0.000000000,0.300000000,0.000000000,0.000000000
1749761519.445245,-0.317492000,-0.021215200,0.000285409,-0.054556800,-0.027102900,-0.013694200,0.002111180,0.018130800,1749761519.445245028,0.051089476,-0.314071839,0.778522000,1.010162848,-1.088510000,-1.665330000,0.877793567,1.249030000,,,,,
1749761519.455237,-0.321206000,-0.020492100,0.000920814,-0.058866800,-0.026786800,-0.010575900,0.003533150,0.016959000,1749761519.455236912,0.050647076,-0.317849169,0.774808000,1.010823949,-1.088620000,-1.665100000,0.873874067,1.249130000,,,,,
1749761519.458583,,,,,,,,,,,,,,,,,,1749761519.458583117,0.000000000,0.300000000,0.000000000,0.000000000
1749761519.465190,-0.324394000,-0.019816900,0.001686210,-0.058190100,-0.026615800,-0.008670970,0.002423970,0.016468700,1749761519.465189934,0.050316812,-0.321080045,0.771133000,1.011156420,-1.088720000,-1.665230000,0.870356270,1.249250000,,,,,
1749761519.475218,-0.328067000,-0.019165300,0.002281200,-0.056939800,-0.026387200,-0.006501100,0.001596250,0.016068400,1749761519.475218058,0.050046934,-0.324793118,0.767355000,1.011535505,-1.088830000,-1.665330000,0.866706633,1.249350000,,,,,
1749761519.478595,,,,,,,,,,,,,,,,,,1749761519.478595018,0.000000000,0.300000000,0.000000000,0.000000000
1749761519.485184,-0.331706000,-0.018465600,0.002818600,-0.056145100,-0.026466900,-0.006602070,0.000653520,0.015614500,1749761519.485183954,0.049733272,-0.328475951,0.763546000,1.011881087,-1.088920000,-1.665450000,0.863044568,1.249450000,,,,,
1749761519.495472,-0.335036000,-0.017799000,0.003409800,-0.053804500,-0.026496400,-0.006350460,-0.001497490,0.015393100,1749761519.495471954,0.049483936,-0.331839217,0.759745000,1.012062145,-1.089000000,-1.665750000,0.859571800,1.249570000,,,,,
1749761519.498592,,,,,,,,,,,,,,,,,,1749761519.498591900,0.000000000,0.300000000,0.000000000,0.000000000
1749761519.505256,-0.338510000,-0.017108800,0.004073370,-0.053950000,-0.026750200,-0.007660300,-0.000975330,0.014833900,1749761519.505255938,0.049106097,-0.335365953,0.755890000,1.012558624,-1.089080000,-1.665690000,0.855680999,1.249700000,,,,,
1749761519.515296,-0.341632000,-0.016373400,0.004736570,-0.050949800,-0.027114700,-0.009641690,0.001207650,0.014730300,1749761519.515295982,0.048564868,-0.338558659,0.752051000,1.013256089,-1.089150000,-1.665380000,0.851551835,1.249840000,,,,,
1749761519.518582,,,,,,,,,,,,,,,,,,1749761519.518582106,0.000000000,0.300000000,0.000000000,0.000000000
1749761519.525551,-0.345057000,-0.015653800,0.005242420,-0.051364300,-0.027140600,-0.009156590,0.001579140,0.014160500,1749761519.525551081,0.048151428,-0.342039200,0.748137000,1.013736327,-1.089210000,-1.665320000,0.847600173,1.249960000,,,,,
1749761519.535251,-0.348273000,-0.014813600,0.005803030,-0.050093500,-0.027001100,-0.007566260,0.000072181,0.013831500,1749761519.535250902,0.047687578,-0.345310614,0.744219000,1.013967225,-1.089240000,-1.665520000,0.843905305,1.250090000,,,,,
1749761519.538582,,,,,,,,,,,,,,,,,,1749761519.538582087,0.000000000,0.300000000,0.000000000,0.000000000
1749761519.545312,-0.351370000,-0.013882700,0.006389080,-0.048307000,-0.026953300,-0.006716080,-0.000252885,0.013590100,1749761519.545311928,0.047071196,-0.348479424,0.740287000,1.014307076,-1.089250000,-1.665570000,0.840042594,1.250230000,,,,,
1749761519.555561,-0.354570000,-0.012836300,0.006966880,-0.048194800,-0.027147700,-0.007592410,0.002477100,0.013123400,1749761519.555561066,0.046191604,-0.351782591,0.736308000,1.015008012,-1.089240000,-1.665170000,0.835674568,1.250380000,,,,,
1749761519.558582,,,,,,,,,,,,,,,,,,1749761519.558582067,0.000000000,0.300000000,0.000000000,0.000000000
1749761519.565228,-0.357593000,-0.011936700,0.007559920,-0.050801000,-0.027064000,-0.006493730,0.004328880,0.012262800,1749761519.565227985,0.045477959,-0.354890115,0.732323000,1.015624686,-1.089240000,-1.664880000,0.831412804,1.250540000,,,,,
1749761519.575222,-0.360628000,-0.011108500,0.008073900,-0.050930000,-0.027025400,-0.005780590,0.002421360,0.011736000,1749761519.575222015,0.045020882,-0.357979152,0.728306000,1.015811731,-1.089240000,-1.665110000,0.827647229,1.250690000,,,,,
1749761519.578582,,,,,,,,,,,,,,,,,,1749761519.578582048,0.000000000,0.300000000,0.000000000,0.000000000
1749761519.585204,-0.363571000,-0.010248200,0.008500820,-0.050688700,-0.027236600,-0.006836710,0.003778650,0.011261800,1749761519.585203886,0.044362140,-0.360999859,0.724273000,1.016352797,-1.089220000,-1.664890000,0.823406691,1.250830000,,,,,
1749761519.595217,-0.366521000,-0.009258340,0.008989350,-0.050817900,-0.027625500,-0.009042610,0.006475110,0.010736100,1749761519.595216990,0.043497289,-0.364048549,0.720208000,1.017047130,-1.089180000,-1.664460000,0.818918660,1.250990000,,,,,
1749761519.598581,,,,,,,,,,,,,,,,,,1749761519.598581076,0.000000000,0.300000000,0.000000000,0.000000000
1749761519.605247,-0.368826000,-0.008443890,0.009612330,-0.050270300,-0.027863500,-0.010058600,0.005865300,0.010307500,1749761519.605247021,0.042912980,-0.366418332,0.716208000,1.017376876,-1.089160000,-1.664490000,0.814964844,1.251170000,,,,,
1749761519.615222,-0.371271000,-0.007663140,0.010151500,-0.049241800,-0.027867100,-0.009390840,0.003584720,0.009954230,1749761519.615221977,0.042464009,-0.368914200,0.712165000,1.017506267,-1.089130000,-1.664760000,0.811211527,1.251340000,,,,,
1749761519.618586,,,,,,,,,,,,,,,,,,1749761519.618586063,0.000000000,0.300000000,0.000000000,0.000000000
1749761519.625218,-0.373572000,-0.006711240,0.010506300,-0.047498100,-0.027796300,-0.008257700,-0.000736481,0.009715140,1749761519.625217915,0.041951257,-0.371269676,0.708118000,1.017339877,-1.089060000,-1.665350000,0.807776182,1.251490000,,,,,
1749761519.635285,-0.376084000,-0.005620530,0.010863800,-0.045581000,-0.028134000,-0.010013700,-0.001472120,0.009518680,1749761519.635284901,0.041147449,-0.373868497,0.704017000,1.017541016,-1.088970000,-1.665470000,0.803807115,1.251650000,,,,,
1749761519.638586,,,,,,,,,,,,,,,,,,1749761519.638586044,0.000000000,0.300000000,0.000000000,0.000000000
1749761519.645241,-0.378087000,-0.004588380,0.011484400,-0.045813600,-0.028359500,-0.010876500,-0.000897607,0.009029080,1749761519.645241022,0.040282952,-0.375962919,0.699965000,1.017890445,-1.088880000,-1.665400000,0.799693502,1.251850000,,,,,
1749761519.655247,-0.380962000,-0.003660540,0.011683300,-0.047466400,-0.028308800,-0.009778730,-0.000564290,0.008330820,1749761519.655246973,0.039615684,-0.378914294,0.695767000,1.018229221,-1.088790000,-1.665360000,0.795465044,1.251990000,,,,,
1749761519.658583,,,,,,,,,,,,,,,,,,1749761519.658582926,0.000000000,0.300000000,0.000000000,0.000000000
1749761519.665200,-0.383678000,-0.002716820,0.011801000,-0.047938800,-0.028071100,-0.007469800,-0.001390470,0.007787520,1749761519.665199995,0.038978438,-0.381702594,0.691562000,1.018431756,-1.088690000,-1.665480000,0.791391606,1.252130000,,,,,
1749761519.675220,-0.385940000,-0.001692690,0.012167500,-0.046813800,-0.028057800,-0.006863670,-0.001900410,0.007471570,1749761519.675220013,0.038207314,-0.384047849,0.687397000,1.018635207,-1.088570000,-1.665570000,0.787325597,1.252300000,,,,,
1749761519.678581,,,,,,,,,,,,,,,,,,1749761519.678580999,0.000000000,0.300000000,0.000000000,0.000000000
1749761519.685258,-0.387832000,-0.000600589,0.012674800,-0.042451700,-0.027996700,-0.005970800,-0.002058260,0.007637170,1749761519.685257912,0.037314599,-0.386033213,0.683263000,1.018855715,-1.088430000,-1.665610000,0.783237655,1.252490000,,,,,
1749761519.695225,-0.390255000,0.000457882,0.012792300,-0.040395400,-0.027879400,-0.004752330,-0.003291340,0.007511390,1749761519.695225000,0.036567980,-0.388538232,0.679032000,1.018951122,-1.088280000,-1.665810000,0.779215264,1.252640000,,,,,
1749761519.698581,,,,,,,,,,,,,,,,,,1749761519.698580980,0.000000000,0.300000000,0.000000000,0.000000000
1749761519.705258,-0.392737000,0.001495520,0.012793600,-0.040614900,-0.027618000,-0.002626260,-0.002549760,0.007075560,1749761519.705257893,0.035743113,-0.391109981,0.674769000,1.019250522,-1.088120000,-1.665740000,0.774884967,1.252770000,,,,,
1749761519.715247,-0.394879000,0.002499680,0.012955100,-0.039612400,-0.027244600,0.000124934,-0.003221240,0.006815050,1749761519.715246916,0.034993740,-0.393333333,0.670531000,1.019400524,-1.087960000,-1.665860000,0.770773219,1.252920000,,,,,
1749761519.718583,,,,,,,,,,,,,,,,,,1749761519.718583107,0.000000000,0.300000000,0.000000000,0.000000000
1749761519.725177,-0.397081000,0.003410790,0.013064400,-0.039915000,-0.027570100,-0.002123850,-0.000821716,0.006374960,1749761519.725177050,0.034173118,-0.395622487,0.666262000,1.019893986,-1.087810000,-1.665550000,0.766193126,1.253060000,,,,,
1749761519.735198,-0.399220000,0.004292930,0.013125500,-0.041511700,-0.026957300,0.002240220,0.000804133,0.005743850,1749761519.735198021,0.033405807,-0.397843047,0.661980000,1.020305090,-1.087640000,-1.665320000,0.761679600,1.253200000,,,,,
1749761519.738582,,,,,,,,,,,,,,,,,,1749761519.738581896,0.000000000,0.300000000,0.000000000,0.000000000
1749761519.745339,-0.401407000,0.005111070,0.013029700,-0.041989600,-0.026496300,0.005259050,0.000172201,0.005259300,1749761519.745338917,0.032829742,-0.400094877,0.657670000,1.020492002,-1.087480000,-1.665400000,0.757455380,1.253320000,,,,,
1749761519.755203,-0.403456000,0.006059180,0.013100500,-0.041120200,-0.026046900,0.007990150,0.001590600,0.004965710,1749761519.755203009,0.031994958,-0.402231004,0.653359000,1.020868218,-1.087290000,-1.665190000,0.752931344,1.253460000,,,,,
1749761519.758584,,,,,,,,,,,,,,,,,,1749761519.758584023,0.000000000,0.300000000,0.000000000,0.000000000
1749761519.765184,-0.405176000,0.007013650,0.013270300,-0.037810400,-0.026104200,0.007046140,0.004841830,0.005035360,1749761519.765183926,0.031008873,-0.404048552,0.649074000,1.021439699,-1.087090000,-1.664700000,0.748146153,1.253620000,,,,,
1749761519.775199,-0.406904000,0.007999410,0.013345000,-0.038643400,-0.025769300,0.008865950,0.004839050,0.004536230,1749761519.775198936,0.030173249,-0.405862576,0.644772000,1.021663757,-1.086880000,-1.664660000,0.743802550,1.253760000,,,,,
1749761519.778583,,,,,,,,,,,,,,,,,,1749761519.778583050,0.000000000,0.300000000,0.000000000,0.000000000
1749761519.785213,-0.408832000,0.008819500,0.013172000,-0.036108500,-0.025283200,0.011601400,0.003950500,0.004518080,1749761519.785212994,0.029570101,-0.407856589,0.640422000,1.021813186,-1.086680000,-1.664740000,0.739534701,1.253870000,,,,,
1749761519.795338,-0.410788000,0.009856500,0.013081500,-0.034031300,-0.025179600,0.011516200,0.003521710,0.004458780,1749761519.795337915,0.028729355,-0.409900666,0.636050000,1.021969659,-1.086440000,-1.664760000,0.735179905,1.253990000,,,,,
1749761519.798583,,,,,,,,,,,,,,,,,,1749761519.798583031,0.000000000,0.300000000,0.000000000,0.000000000
1749761519.805452,-0.412178000,0.010805900,0.013127000,-0.030356600,-0.025147700,0.010943000,0.004664440,0.004652330,1749761519.805452108,0.027832285,-0.411379186,0.631740000,1.022291214,-1.086210000,-1.664560000,0.730662894,1.254120000,,,,,
1749761519.815175,-0.413803000,0.011732500,0.013233400,-0.028832800,-0.024436800,0.015083300,0.003353410,0.004570150,1749761519.815175056,0.027119730,-0.413080010,0.627382000,1.022348644,-1.085960000,-1.664700000,0.726443767,1.254270000,,,,,
1749761519.818582,,,,,,,,,,,,,,,,,,1749761519.818582058,0.000000000,0.300000000,0.000000000,0.000000000
1749761519.825231,-0.415448000,0.012575100,0.013143800,-0.024204800,-0.023668000,0.019336500,0.001361290,0.004954190,1749761519.825231075,0.026542933,-0.414789882,0.623005000,1.022332343,-1.085720000,-1.664960000,0.722329378,1.254390000,,,,,
1749761519.835720,-0.417024000,0.013351600,0.013361400,-0.021994300,-0.023144400,0.021610100,0.001164690,0.005033280,1749761519.835720062,0.025922220,-0.416431651,0.618622000,1.022498336,-1.085480000,-1.664970000,0.717953454,1.254550000,,,,,
1749761519.838590,,,,,,,,,,,,,,,,,,1749761519.838589907,0.000000000,0.300000000,0.000000000,0.000000000
1749761519.845338,-0.417984000,0.013954100,0.013543000,-0.018930700,-0.022785800,0.022590800,-0.000765280,0.005258420,1749761519.845338106,0.025525372,-0.417437177,0.614312000,1.022491879,-1.085260000,-1.665240000,0.713917963,1.254710000,,,,,
1749761519.855639,-0.419401000,0.014621600,0.013502500,-0.017146100,-0.022216100,0.024956800,-0.003650410,0.005328380,1749761519.855638981,0.025174604,-0.418900023,0.609926000,1.022371326,-1.085030000,-1.665670000,0.709969505,1.254840000,,,,,
1749761519.858593,,,,,,,,,,,,,,,,,,1749761519.858592987,0.000000000,0.300000000,0.000000000,0.000000000
1749761519.865374,-0.421371000,0.015289800,0.013413100,-0.016642300,-0.021621600,0.027331500,-0.004416170,0.005230120,1749761519.865374088,0.024759168,-0.420920754,0.605446000,1.022441013,-1.084780000,-1.665820000,0.705639343,1.254970000,,,,,
1749761519.875267,-0.422680000,0.015942400,0.013632800,-0.015706700,-0.021301800,0.027651000,-0.003697730,0.005199620,1749761519.875267029,0.024208374,-0.422287221,0.601042000,1.022662022,-1.084540000,-1.665760000,0.701171081,1.255130000,,,,,
1749761519.878585,,,,,,,,,,,,,,,,,,1749761519.878585100,0.000000000,0.300000000,0.000000000,0.000000000
1749761519.885288,-0.424052000,0.016649800,0.013803600,-0.015367800,-0.020578600,0.030726000,-0.002296330,0.005091780,1749761519.885288000,0.023562223,-0.423724127,0.596616000,1.022931348,-1.084270000,-1.665590000,0.696565533,1.255290000,,,,,
1749761519.895309,-0.425469000,0.017272300,0.013719500,-0.014449000,-0.019900000,0.033282100,-0.002741050,0.005071590,1749761519.895308971,0.023114906,-0.425191608,0.592170000,1.023040997,-1.084020000,-1.665680000,0.692207908,1.255420000,,,,,
1749761519.898588,,,,,,,,,,,,,,,,,,1749761519.898587942,0.000000000,0.300000000,0.000000000,0.000000000
1749761519.905204,-0.427011000,0.017934300,0.013765100,-0.014007400,-0.019286300,0.035215000,-0.003444580,0.004991260,1749761519.905204058,0.022657458,-0.426786449,0.587691000,1.023107146,-1.083750000,-1.665810000,0.687856484,1.255560000,,,,,
1749761519.915497,-0.428137000,0.018403500,0.013699400,-0.012416100,-0.018753100,0.036461200,-0.004565370,0.005082370,1749761519.915497065,0.022378509,-0.427947639,0.583257000,1.023149062,-1.083500000,-1.666000000,0.683613176,1.255690000,,,,,
1749761519.918940,,,,,,,,,,,,,,,,,,1749761519.918940067,0.000000000,0.300000000,0.000000000,0.000000000
1749761519.925487,-0.429508000,0.019041700,0.013684300,-0.013685100,-0.018215100,0.037654600,-0.004042830,0.004773840,1749761519.925487041,0.021860645,-0.429373754,0.578777000,1.023316572,-1.083220000,-1.665970000,0.679096148,1.255820000,,,,,
1749761519.935755,-0.430635000,0.019504600,0.013427100,-0.016153100,-0.017852400,0.037559800,-0.004105870,0.004278450,1749761519.935755014,0.021528466,-0.430538567,0.574318000,1.023457709,-1.082970000,-1.666020000,0.674684743,1.255920000,,,,,
1749761519.938702,,,,,,,,,,,,,,,,,,1749761519.938702106,0.000000000,0.300000000,0.000000000,0.000000000
1749761519.945432,-0.431827000,0.020061000,0.013338000,-0.014922300,-0.017335100,0.038535200,-0.003822270,0.004295720,1749761519.945431948,0.021087921,-0.431778069,0.569838000,1.023604936,-1.082690000,-1.666020000,0.670198417,1.256050000,,,,,
1749761519.955503,-0.432694000,0.020505000,0.013201300,-0.017819300,-0.016792600,0.039616600,-0.004683340,0.003725620,1749761519.955502987,0.020801923,-0.432679827,0.565394000,1.023655456,-1.082430000,-1.666190000,0.665923860,1.256160000,,,,,
1749761519.958795,,,,,,,,,,,,,,,,,,1749761519.958795071,0.000000000,0.300000000,0.000000000,0.000000000
1749761519.965016,-0.433750000,0.020950200,0.012877000,-0.021554300,-0.016215400,0.040862700,-0.006603610,0.003004810,1749761519.965015888,0.020598137,-0.433766862,0.560914000,1.023601687,-1.082160000,-1.666510000,0.661766098,1.256240000,,,,,
1749761519.975274,-0.435126000,0.021394800,0.012364800,-0.025341600,-0.015979000,0.039677400,-0.007190010,0.002239020,1749761519.975274086,0.020352349,-0.435176005,0.556376000,1.023658059,-1.081880000,-1.666660000,0.657375666,1.256300000,,,,,
1749761519.978596,,,,,,,,,,,,,,,,,,1749761519.978595972,0.000000000,0.300000000,0.000000000,0.000000000
1749761519.985125,-0.436217000,0.021844800,0.011963500,-0.024927400,-0.015838000,0.037917000,-0.006188420,0.002045790,1749761519.985125065,0.019978301,-0.436306468,0.551867000,1.023856630,-1.081600000,-1.666590000,0.652788899,1.256360000,,,,,
1749761519.995237,-0.437330000,0.022229500,0.011541700,-0.026674000,-0.015359300,0.038601800,-0.006966510,0.001542770,1749761519.995237112,0.019780561,-0.437447607,0.547343000,1.023903873,-1.081330000,-1.666770000,0.648444129,1.256420000,,,,,
1749761519.998585,,,,,,,,,,,,,,,,,,1749761519.998584986,0.000000000,0.300000000,0.000000000,0.000000000
1749761520.005208,-0.438716000,0.022477600,0.011022400,-0.028325000,-0.015107800,0.037675600,-0.005664540,0.001036170,1749761520.005208015,0.019613756,-0.438853360,0.542768000,1.024160731,-1.081070000,-1.666650000,0.643742373,1.256460000,,,,,
1749761520.015319,-0.439565000,0.022655100,0.010594600,-0.028955300,-0.014907300,0.036462900,-0.005676400,0.000661345,1749761520.015319109,0.019540312,-0.439714474,0.538258000,1.024311555,-1.080820000,-1.666700000,0.639280366,1.256510000,,,,,
1749761520.018584,,,,,,,,,,,,,,,,,,1749761520.018584013,0.000000000,0.300000000,0.000000000,0.000000000
1749761520.025185,-0.440525000,0.022809200,0.010135000,-0.026610500,-0.014603800,0.036041900,-0.007118130,0.000712443,1749761520.025185108,0.019597830,-0.440679544,0.533723000,1.024325542,-1.080570000,-1.666970000,0.635018857,1.256550000,,,,,
1749761520.035143,-0.441720000,0.022939800,0.009604460,-0.027913100,-0.014459500,0.034554500,-0.009377700,0.000257101,1749761520.035142899,0.019759336,-0.441873694,0.529144000,1.024264142,-1.080320000,-1.667370000,0.630846767,1.256570000,,,,,
1749761520.038591,,,,,,,,,,,,,,,,,,1749761520.038590908,0.000000000,0.300000000,0.000000000,0.000000000
1749761520.045107,-0.442746000,0.023119300,0.009118640,-0.025014900,-0.014390800,0.032648700,-0.008954030,0.000399026,1749761520.045106888,0.019692890,-0.442911631,0.524577000,1.024436884,-1.080070000,-1.667400000,0.626307675,1.256600000,,,,,
1749761520.055177,-0.443357000,0.023240300,0.008812610,-0.022007700,-0.014574200,0.029139200,-0.010540600,0.000585770,1749761520.055176973,0.019773316,-0.443525148,0.520061000,1.024424609,-1.079820000,-1.667720000,0.622116465,1.256650000,,,,,
1749761520.058586,,,,,,,,,,,,,,,,,,1749761520.058585882,0.000000000,0.300000000,0.000000000,0.000000000
1749761520.065214,-0.443899000,0.023451100,0.008425790,-0.018233100,-0.014492600,0.027695200,-0.010645200,0.000914068,1749761520.065213919,0.019669246,-0.444082647,0.515549000,1.024528345,-1.079560000,-1.667840000,0.617723429,1.256680000,,,,,
1749761520.075149,-0.444871000,0.023515900,0.007848600,-0.015273600,-0.014545500,0.025424400,-0.011650500,0.001161700,1749761520.075149059,0.019814643,-0.445051215,0.510969000,1.024563833,-1.079310000,-1.668100000,0.613407162,1.256680000,,,,,
1749761520.078610,,,,,,,,,,,,,,,,,,1749761520.078609943,0.000000000,0.300000000,0.000000000,0.000000000
1749761520.085215,-0.445949000,0.023510300,0.007229600,-0.010733500,-0.014815500,0.021816400,-0.010409000,0.001668550,1749761520.085215092,0.019893716,-0.446124966,0.506363000,1.024825008,-1.079080000,-1.668030000,0.608728869,1.256670000,,,,,
1749761520.095206,-0.446695000,0.023522300,0.006788690,-0.007211830,-0.014823000,0.020262700,-0.011584200,0.002072860,1749761520.095206022,0.020079317,-0.446863002,0.501795000,1.024860401,-1.078840000,-1.668310000,0.604446131,1.256670000,,,,,
1749761520.098579,,,,,,,,,,,,,,,,,,1749761520.098578930,0.000000000,0.300000000,0.000000000,0.000000000
1749761520.105194,-0.447458000,0.023491700,0.006482570,-0.005096260,-0.014751600,0.019359300,-0.010699300,0.002308100,1749761520.105194092,0.020175105,-0.447619802,0.497218000,1.025089104,-1.078610000,-1.668290000,0.599847981,1.256700000,,,,,
1749761520.115308,-0.448091000,0.023523900,0.006262310,-0.005097010,-0.014999900,0.016318000,-0.008046270,0.002257020,1749761520.115308046,0.020083644,-0.448258369,0.492651000,1.025455480,-1.078370000,-1.668020000,0.595002456,1.256730000,,,,,
1749761520.118585,,,,,,,,,,,,,,,,,,1749761520.118585110,0.000000000,0.300000000,0.000000000,0.000000000
1749761520.125301,-0.448814000,0.023354600,0.006055250,-0.001625620,-0.014847900,0.016241300,-0.008381210,0.002710390,1749761520.125300884,0.020376202,-0.448959079,0.488065000,1.025620780,-1.078160000,-1.668140000,0.590540807,1.256760000,,,,,
1749761520.135489,-0.449630000,0.023162400,0.005893740,-0.001353440,-0.014663300,0.016393900,-0.006915060,0.002733670,1749761520.135488987,0.020592829,-0.449755010,0.483458000,1.025929834,-1.077950000,-1.668020000,0.585812100,1.256800000,,,,,
1749761520.138583,,,,,,,,,,,,,,,,,,1749761520.138582945,0.000000000,0.300000000,0.000000000,0.000000000
1749761520.145316,-0.450778000,0.022970600,0.005683600,-0.002499750,-0.014771900,0.014517900,-0.001513230,0.002553600,1749761520.145315886,0.020570522,-0.450893898,0.478795000,1.026601581,-1.077750000,-1.667300000,0.580412704,1.256830000,,,,,
1749761520.155240,-0.451260000,0.022851500,0.005593530,-0.001435710,-0.014405400,0.016041200,-0.002062170,0.002683190,1749761520.155240059,0.020776133,-0.451360312,0.474218000,1.026781741,-1.077540000,-1.667390000,0.575929179,1.256870000,,,,,
1749761520.158588,,,,,,,,,,,,,,,,,,1749761520.158587933,0.000000000,0.300000000,0.000000000,0.000000000
1749761520.165271,-0.451663000,0.022819300,0.005593770,0.001558710,-0.013986400,0.017821200,-0.004653050,0.003103870,1749761520.165271044,0.021027751,-0.451749953,0.469646000,1.026765128,-1.077310000,-1.667790000,0.571767061,1.256930000,,,,,
1749761520.175060,-0.452097000,0.022599200,0.005522180,0.003262750,-0.013873900,0.017369000,-0.006611290,0.003367020,1749761520.175060034,0.021438058,-0.452153548,0.465067000,1.026832230,-1.077120000,-1.668120000,0.567530069,1.256970000,,,,,
1749761520.178578,,,,,,,,,,,,,,,,,,1749761520.178577900,0.000000000,0.300000000,0.000000000,0.000000000
1749761520.185566,-0.452621000,0.022292200,0.005562270,0.003602870,-0.013933900,0.015760000,-0.003232130,0.003449060,1749761520.185565948,0.021604409,-0.452654351,0.460470000,1.027336116,-1.076940000,-1.667700000,0.562505901,1.257040000,,,,,
1749761520.195763,-0.453099000,0.021970300,0.005752220,0.002994790,-0.013943500,0.014609600,-0.001958990,0.003396750,1749761520.195763111,0.021903081,-0.453102254,0.455874000,1.027685309,-1.076760000,-1.667550000,0.557759901,1.257120000,,,,,
1749761520.198585,,,,,,,,,,,,,,,,,,1749761520.198585033,0.000000000,0.300000000,0.000000000,0.000000000
1749761520.205588,-0.453323000,0.021683900,0.005845160,0.005413960,-0.013709200,0.015216300,-0.001151470,0.003778160,1749761520.205588102,0.022164451,-0.453299758,0.451310000,1.028002361,-1.076580000,-1.667450000,0.553097061,1.257190000,,,,,
1749761520.215265,-0.453609000,0.021380200,0.006000210,0.007241190,-0.013973500,0.012350000,-0.001209630,0.004097760,1749761520.215265036,0.022503404,-0.453554666,0.446736000,1.028263589,-1.076410000,-1.667470000,0.548548569,1.257270000,,,,,
1749761520.218582,,,,,,,,,,,,,,,,,,1749761520.218581915,0.000000000,0.300000000,0.000000000,0.000000000
1749761520.225243,-0.453976000,0.021093300,0.006233550,0.005745610,-0.014155600,0.010246200,-0.000321386,0.003952890,1749761520.225243092,0.022769922,-0.453894995,0.442146000,1.028602693,-1.076240000,-1.667350000,0.543840164,1.257360000,,,,,
1749761520.235504,-0.454626000,0.020731600,0.006514060,0.005073920,-0.014526600,0.006987370,-0.000002407,0.003912760,1749761520.235503912,0.023174419,-0.454508026,0.437512000,1.028911740,-1.076080000,-1.667310000,0.539171167,1.257470000,,,,,
1749761520.238589,,,,,,,,,,,,,,,,,,1749761520.238589048,0.000000000,0.300000000,0.000000000,0.000000000
1749761520.245251,-0.455044000,0.020490500,0.006663630,0.005620720,-0.015223400,0.001710300,0.000524319,0.004042940,1749761520.245250940,0.023418285,-0.454902722,0.432905000,1.029229242,-1.075910000,-1.667230000,0.534486888,1.257550000,,,,,
1749761520.255260,-0.455537000,0.020094300,0.006886440,0.007107790,-0.016057100,-0.004145620,0.000225041,0.004315190,1749761520.255259991,0.023878327,-0.455354329,0.428283000,1.029503769,-1.075760000,-1.667270000,0.529913101,1.257650000,,,,,
1749761520.258624,,,,,,,,,,,,,,,,,,1749761520.258624077,0.000000000,0.300000000,0.000000000,0.000000000
1749761520.265191,-0.455695000,0.019960300,0.007276760,0.006351470,-0.016496200,-0.006882710,-0.001982990,0.004276390,1749761520.265191078,0.024172681,-0.455490975,0.423705000,1.029597417,-1.075580000,-1.667590000,0.525668548,1.257780000,,,,,
1749761520.275219,-0.456096000,0.019768100,0.007470080,0.006006220,-0.017291200,-0.011881200,-0.004105750,0.004289750,1749761520.275218964,0.024553171,-0.455863445,0.419089000,1.029702310,-1.075410000,-1.667920000,0.521397556,1.257880000,,,,,
1749761520.278581,,,,,,,,,,,,,,,,,,1749761520.278580904,0.000000000,0.300000000,0.000000000,0.000000000
1749761520.285197,-0.456414000,0.019589900,0.007783930,0.005233200,-0.018100200,-0.016632000,-0.002657140,0.004237500,1749761520.285197020,0.024683820,-0.456166869,0.414482000,1.030057744,-1.075230000,-1.667750000,0.516619711,1.258000000,,,,,
1749761520.295241,-0.457139000,0.019451900,0.008006950,0.005675240,-0.018219900,-0.016310900,-0.003434740,0.004354060,1749761520.295241117,0.024955316,-0.456871616,0.409813000,1.030268826,-1.075060000,-1.667890000,0.512100424,1.258110000,,,,,
1749761520.298606,,,,,,,,,,,,,,,,,,1749761520.298605919,0.000000000,0.300000000,0.000000000,0.000000000
1749761520.305193,-0.457720000,0.019234700,0.008223580,0.003994960,-0.018568400,-0.017587200,-0.005511110,0.004166690,1749761520.305192947,0.025378766,-0.457420474,0.405157000,1.030393423,-1.074900000,-1.668220000,0.507790900,1.258220000,,,,,
1749761520.315254,-0.458327000,0.019066500,0.008287260,0.004142400,-0.018783900,-0.017859900,-0.005850550,0.004228060,1749761520.315253973,0.025655592,-0.458005416,0.400492000,1.030622641,-1.074730000,-1.668330000,0.503244857,1.258310000,,,,,
1749761520.318594,,,,,,,,,,,,,,,,,,1749761520.318593979,0.000000000,0.300000000,0.000000000,0.000000000
1749761520.325239,-0.458847000,0.018819100,0.008425070,0.005986290,-0.019000900,-0.018124000,-0.006021220,0.004537370,1749761520.325238943,0.025989133,-0.458496775,0.395833000,1.030877200,-1.074570000,-1.668410000,0.498674891,1.258420000,,,,,
1749761520.335195,-0.459659000,0.018613300,0.008468220,0.005209420,-0.019026400,-0.017052400,-0.004811050,0.004484370,1749761520.335195065,0.026217975,-0.459288002,0.391126000,1.031235970,-1.074410000,-1.668290000,0.493850960,1.258510000,,,,,
1749761520.338581,,,,,,,,,,,,,,,,,,1749761520.338581085,0.000000000,0.300000000,0.000000000,0.000000000
1749761520.345212,-0.460581000,0.018341900,0.008599100,0.005689630,-0.018896500,-0.014984300,-0.004991200,0.004606230,1749761520.345211983,0.026614647,-0.460177078,0.386396000,1.031517916,-1.074270000,-1.668370000,0.489212317,1.258610000,,,,,
