__time,filtered_pose/dx,filtered_pose/dy,filtered_pose/dz,filtered_pose/p,filtered_pose/pitch,filtered_pose/q,filtered_pose/r,filtered_pose/roll,filtered_pose/timestamp,filtered_pose/vxb,filtered_pose/vyb,filtered_pose/x,filtered_pose/xb,filtered_pose/y,filtered_pose/yaw,filtered_pose/yb,filtered_pose/z,u_control/timestamp,u_control/ux,u_control/uy,u_control/uyaw,u_control/uz
1749761105.665689,-0.042640500,-0.024182400,-0.023306200,-0.026033900,-0.006806660,0.013052700,-0.014206400,-0.014494600,1749761105.665688992,0.024197479,-0.042631945,1.016350000,0.805393494,-0.805753000,-1.571150000,1.016634910,1.200780000,,,,,
1749761105.675581,-0.043418000,-0.023927900,-0.022695800,-0.020853500,-0.006903250,0.011489400,-0.015914600,-0.014002400,1749761105.675580978,0.023960182,-0.043400193,1.015810000,0.805202347,-0.805958000,-1.571540000,1.016409088,1.200640000,,,,,
1749761105.685810,-0.044756100,-0.024094000,-0.021922900,-0.016442800,-0.006676760,0.012257500,-0.015464800,-0.013570100,1749761105.685810089,0.024131304,-0.044735998,1.015180000,0.805374392,-0.806221000,-1.571630000,1.015851772,1.200520000,,,,,
1749761105.695787,-0.046015400,-0.024222100,-0.020971200,-0.014278300,-0.006449580,0.012977600,-0.013272200,-0.013420100,1749761105.695786953,0.024253094,-0.045999072,1.014550000,0.805797342,-0.806481000,-1.571470000,1.015093074,1.200440000,,,,,
1749761105.705733,-0.046705200,-0.024119300,-0.019956300,-0.012265800,-0.006245350,0.013490000,-0.011244100,-0.013270500,1749761105.705733061,0.024143288,-0.046692804,1.013990000,0.806187034,-0.806708000,-1.571310000,1.014404250,1.200380000,,,,,
1749761105.715782,-0.047966700,-0.024161500,-0.018893700,-0.011528200,-0.006082750,0.013680700,-0.008781000,-0.013286000,1749761105.715781927,0.024174147,-0.047960328,1.013340000,0.806688781,-0.806956000,-1.571060000,1.013552737,1.200340000,,,,,
1749761105.725770,-0.049396700,-0.024219400,-0.017867600,-0.009851430,-0.006024320,0.013141200,-0.004477100,-0.013157600,1749761105.725769997,0.024206243,-0.049403149,1.012650000,0.807475667,-0.807206000,-1.570530000,1.012434984,1.200300000,,,,,
1749761105.735776,-0.050205200,-0.024055400,-0.016815200,-0.008303120,-0.005978110,0.012554800,-0.000687269,-0.013031200,1749761105.735775948,0.024016417,-0.050223860,1.012040000,0.808209430,-0.807424000,-1.570020000,1.011412870,1.200270000,,,,,
1749761105.745733,-0.051497600,-0.024180600,-0.016054100,-0.001467390,-0.006354030,0.009103030,0.002412220,-0.012121100,1749761105.745733023,0.024117944,-0.051526973,1.011350000,0.808912534,-0.807683000,-1.569580000,1.010366846,1.200210000,,,,,
1749761105.755715,-0.052510500,-0.024476100,-0.015260600,0.001254860,-0.006703800,0.006068970,0.003948640,-0.011740300,1749761105.755714893,0.024399076,-0.052546333,1.010690000,0.809448133,-0.807967000,-1.569330000,1.009504170,1.200170000,,,,,
1749761105.765429,-0.053305100,-0.024713800,-0.014386100,0.002943270,-0.006966210,0.003844980,0.004267030,-0.011482500,1749761105.765429020,0.024630810,-0.053343498,1.010050000,0.809817988,-0.808247000,-1.569240000,1.008790881,1.200140000,,,,,
1749761105.775529,-0.054220400,-0.024859300,-0.013636800,0.002860230,-0.007164730,0.002213920,0.004674590,-0.011465100,1749761105.775528908,0.024769459,-0.054261501,1.009380000,0.810185753,-0.808515000,-1.569140000,1.008039451,1.200110000,,,,,
1749761105.785784,-0.055205900,-0.024898100,-0.012999700,0.002614480,-0.007256720,0.001428350,0.004447730,-0.011472200,1749761105.785784006,0.024806074,-0.055247312,1.008700000,0.810448700,-0.808769000,-1.569130000,1.007350927,1.200060000,,,,,
1749761105.795728,-0.056414400,-0.024870200,-0.012359200,-0.000481811,-0.007123170,0.002249270,0.003583310,-0.011895900,1749761105.795727968,0.024780677,-0.056453781,1.007970000,0.810611951,-0.809014000,-1.569210000,1.006685372,1.200030000,,,,,
1749761105.805819,-0.057592500,-0.024795300,-0.011635400,-0.004722820,-0.006888020,0.003712990,0.000857002,-0.012516900,1749761105.805819035,0.024724654,-0.057622864,1.007230000,0.810486584,-0.809252000,-1.569570000,1.006236835,1.200010000,,,,,
1749761105.815934,-0.058663800,-0.024683600,-0.010952000,-0.007088070,-0.006911600,0.003295160,-0.000872921,-0.012907700,1749761105.815933943,0.024625726,-0.058688118,1.006500000,0.810476344,-0.809484000,-1.569810000,1.005701095,1.199990000,,,,,
1749761105.825797,-0.059687600,-0.024723900,-0.010210800,-0.008906070,-0.007378540,-0.000145680,-0.001374780,-0.013242700,1749761105.825797081,0.024669793,-0.059709983,1.005770000,0.810647224,-0.809736000,-1.569890000,1.005035702,1.199990000,,,,,
1749761105.835874,-0.060579900,-0.024776100,-0.009325590,-0.008814210,-0.007785230,-0.002934980,-0.002400570,-0.013318400,1749761105.835874081,0.024731487,-0.060598127,1.005040000,0.810730818,-0.809991000,-1.570060000,1.004443310,1.200010000,,,,,
1749761105.845788,-0.061540800,-0.024746400,-0.008425700,-0.008879330,-0.008260440,-0.006003950,-0.002680510,-0.013416000,1749761105.845788002,0.024704773,-0.061557523,1.004290000,0.810914043,-0.810235000,-1.570120000,1.003741787,1.200050000,,,,,
1749761105.855780,-0.062588800,-0.024722500,-0.007535090,-0.009733820,-0.008563860,-0.007679180,-0.003221050,-0.013629000,1749761105.855779886,0.024687050,-0.062602791,1.003530000,0.811047196,-0.810479000,-1.570230000,1.003070843,1.200100000,,,,,
1749761105.865731,-0.063576500,-0.024705800,-0.006752510,-0.011507500,-0.008949300,-0.009803650,-0.003870710,-0.013984000,1749761105.865731001,0.024677422,-0.063587521,1.002760000,0.811170478,-0.810723000,-1.570350000,1.002398053,1.200140000,,,,,
1749761105.875721,-0.064895700,-0.024619000,-0.006100330,-0.013035000,-0.009382840,-0.012112900,-0.002646810,-0.014321000,1749761105.875720978,0.024580946,-0.064910124,1.001930000,0.811545319,-0.810958000,-1.570210000,1.001454341,1.200160000,,,,,
1749761105.885765,-0.066205200,-0.024486800,-0.005395590,-0.015930600,-0.009858390,-0.014552500,-0.001802180,-0.014872000,1749761105.885765076,0.024442018,-0.066221746,1.001090000,0.811861878,-0.811185000,-1.570120000,1.000541145,1.200200000,,,,,
1749761105.895836,-0.067316700,-0.024399900,-0.004619300,-0.019593100,-0.010383000,-0.017161800,-0.003685320,-0.015563400,1749761105.895836115,0.024373892,-0.067326121,1.000270000,0.811803371,-0.811417000,-1.570410000,0.999956453,1.200260000,,,,,
1749761105.905435,-0.068238200,-0.024416600,-0.003702780,-0.022122800,-0.010729800,-0.018367500,-0.004484440,-0.016126900,1749761105.905435085,0.024400473,-0.068243968,0.999460000,0.811900177,-0.811664000,-1.570560000,0.999268154,1.200350000,,,,,
1749761105.915565,-0.069297700,-0.024523200,-0.002594380,-0.026064500,-0.010883500,-0.018161100,-0.003057660,-0.016920800,1749761105.915565014,0.024495734,-0.069307414,0.998624000,0.812318718,-0.811923000,-1.570400000,0.998302135,1.200470000,,,,,
1749761105.925762,-0.070220200,-0.024672200,-0.001417270,-0.030526600,-0.011075700,-0.018234300,0.000266318,-0.017829700,1749761105.925761938,0.024612762,-0.070241056,0.997797000,0.813034171,-0.812190000,-1.569950000,0.997109265,1.200620000,,,,,
1749761105.935736,-0.071049200,-0.024820600,-0.000154722,-0.033178400,-0.011400900,-0.019217400,0.003745090,-0.018520200,1749761105.935735941,0.024724211,-0.071082799,0.996974000,0.813809475,-0.812458000,-1.569440000,0.995871125,1.200790000,,,,,
1749761105.945774,-0.072128600,-0.024870600,0.001128650,-0.033631300,-0.011496000,-0.018549400,0.005610600,-0.018917800,1749761105.945774078,0.024750376,-0.072169942,0.996107000,0.814372711,-0.812714000,-1.569130000,0.994751371,1.200970000,,,,,
1749761105.955547,-0.072885700,-0.024921300,0.002323590,-0.033563400,-0.011620100,-0.018126600,0.004784560,-0.019244200,1749761105.955547094,0.024804190,-0.072925638,0.995275000,0.814567687,-0.812970000,-1.569190000,0.993967821,1.201160000,,,,,
1749761105.965755,-0.073217800,-0.024950300,0.003510690,-0.031453900,-0.011989900,-0.019424800,0.001874240,-0.019273400,1749761105.965754986,0.024860492,-0.073248342,0.994498000,0.814441968,-0.813223000,-1.569570000,0.993499975,1.201350000,,,,,
1749761105.975690,-0.073483900,-0.024890400,0.004594100,-0.028634900,-0.012598300,-0.022275400,-0.000596551,-0.019178400,1749761105.975689888,0.024825259,-0.073505932,0.993727000,0.814344447,-0.813464000,-1.569910000,0.993005615,1.201550000,,,,,
1749761105.985825,-0.073793300,-0.024706100,0.005533020,-0.023829500,-0.013052800,-0.023870300,-0.001685330,-0.018766600,1749761105.985825062,0.024652495,-0.073811225,0.992948000,0.814406990,-0.813686000,-1.570070000,0.992356736,1.201730000,,,,,
1749761105.995963,-0.074234300,-0.024577200,0.006380370,-0.018117500,-0.013559700,-0.025716300,-0.000604785,-0.018175000,1749761105.995963097,0.024512880,-0.074255564,0.992146000,0.814774217,-0.813915000,-1.569930000,0.991440511,1.201910000,,,,,
1749761106.005551,-0.074876900,-0.024177300,0.007338890,-0.014367600,-0.013815600,-0.025707400,0.000297718,-0.017811400,1749761106.005551100,0.024103435,-0.074900710,0.991310000,0.815079359,-0.814102000,-1.569810000,0.990506547,1.202110000,,,,,
1749761106.015767,-0.075266600,-0.023907800,0.008407330,-0.013520200,-0.013659500,-0.022863800,-0.001666290,-0.017832000,1749761106.015767097,0.023854631,-0.075283468,0.990504000,0.815004416,-0.814305000,-1.570090000,0.989928588,1.202340000,,,,,
1749761106.025668,-0.075874100,-0.023753800,0.009506130,-0.015328200,-0.013530200,-0.020400000,-0.001627010,-0.018229800,1749761106.025667906,0.023700961,-0.075890622,0.989664000,0.815210932,-0.814522000,-1.570100000,0.989096587,1.202580000,,,,,
1749761106.035644,-0.076377500,-0.023632100,0.010597700,-0.017824500,-0.013497200,-0.018768500,-0.001146250,-0.018745800,1749761106.035644054,0.023575091,-0.076395116,0.988832000,0.815478765,-0.814741000,-1.570050000,0.988223662,1.202840000,,,,,
1749761106.045763,-0.076750000,-0.023433000,0.011621200,-0.018562400,-0.013256500,-0.015819600,-0.001308210,-0.019031200,1749761106.045763016,0.023378016,-0.076766766,0.988014000,0.815656532,-0.814949000,-1.570080000,0.987429977,1.203090000,,,,,
1749761106.055431,-0.076859600,-0.023067100,0.012586600,-0.015800700,-0.012962100,-0.012704400,-0.001244980,-0.018815600,1749761106.055430889,0.023012806,-0.076875874,0.987230000,0.815827104,-0.815130000,-1.570090000,0.986654006,1.203350000,,,,,
1749761106.065686,-0.077019800,-0.022664100,0.013549700,-0.011585500,-0.012742100,-0.010315800,-0.000219906,-0.018361300,1749761106.065685987,0.022598908,-0.077038954,0.986438000,0.816136557,-0.815302000,-1.569950000,0.985747635,1.203610000,,,,,
1749761106.075675,-0.077045200,-0.022405400,0.014567100,-0.007870260,-0.012512600,-0.008025840,-0.000446901,-0.017937400,1749761106.075675011,0.022343269,-0.077063241,0.985665000,0.816285503,-0.815491000,-1.569990000,0.985007127,1.203900000,,,,,
1749761106.085708,-0.076791500,-0.022177300,0.015579600,-0.004276440,-0.012245300,-0.005633750,-0.003512220,-0.017493900,1749761106.085707903,0.022149936,-0.076799397,0.984931000,0.816032906,-0.815682000,-1.570440000,0.984640288,1.204190000,,,,,
1749761106.095729,-0.076729300,-0.021996600,0.016477200,-0.000958901,-0.012139600,-0.004518210,-0.007951710,-0.017054700,1749761106.095729113,0.022021434,-0.076722176,0.984172000,0.815559407,-0.815878000,-1.571120000,0.984436026,1.204480000,,,,,
1749761106.105672,-0.076676500,-0.021827100,0.017411500,0.000963994,-0.011890700,-0.002494270,-0.010193700,-0.016785000,1749761106.105671883,0.021882583,-0.076660684,0.983412000,0.815361117,-0.816073000,-1.571520000,0.984002313,1.204780000,,,,,
1749761106.115644,-0.076752500,-0.021618500,0.018282400,-0.000706697,-0.011903400,-0.002410270,-0.009768540,-0.017018000,1749761106.115643978,0.021677108,-0.076735968,0.982635000,0.815510350,-0.816261000,-1.571560000,0.983258070,1.205080000,,,,,
1749761106.125752,-0.076867000,-0.021402100,0.019105700,-0.003095940,-0.012004700,-0.002941630,-0.007002460,-0.017372200,1749761106.125751972,0.021437739,-0.076857068,0.981851000,0.815990654,-0.816446000,-1.571260000,0.982229459,1.205380000,,,,,
1749761106.135679,-0.077057900,-0.021167200,0.019834000,-0.003902880,-0.012259200,-0.004490940,-0.003123670,-0.017520400,1749761106.135679007,0.021164401,-0.077058669,0.981054000,0.816661638,-0.816626000,-1.570760000,0.981024334,1.205680000,,,,,
1749761106.145533,-0.077073300,-0.020890800,0.020589200,-0.004996790,-0.012456600,-0.005540320,0.000977382,-0.017718400,1749761106.145533085,0.020844835,-0.077085744,0.980281000,0.817381423,-0.816797000,-1.570200000,0.979793748,1.205980000,,,,,
1749761106.155517,-0.076965800,-0.020609200,0.021454700,-0.006474980,-0.012586600,-0.006053930,0.002096010,-0.017983100,1749761106.155517101,0.020550213,-0.076981571,0.979526000,0.817715397,-0.816965000,-1.570030000,0.978899650,1.206320000,,,,,
1749761106.165839,-0.076839500,-0.020498400,0.022342400,-0.005574880,-0.012745800,-0.006732590,0.002743510,-0.017917100,1749761106.165838957,0.020430287,-0.076857638,0.978775000,0.818022193,-0.817155000,-1.569910000,0.978050349,1.206660000,,,,,
1749761106.175672,-0.076891000,-0.020420900,0.023179000,-0.004911740,-0.012693800,-0.005911810,0.003405560,-0.017876500,1749761106.175672054,0.020343512,-0.076911511,0.977999000,0.818332773,-0.817349000,-1.569790000,0.977175985,1.207000000,,,,,
1749761106.185721,-0.076585500,-0.020202000,0.024008400,-0.006164250,-0.012349500,-0.003134980,0.003723610,-0.018107600,1749761106.185720921,0.020118791,-0.076607401,0.977274000,0.818582156,-0.817521000,-1.569710000,0.976385329,1.207360000,,,,,
1749761106.195443,-0.076375400,-0.019864800,0.024799500,-0.009852800,-0.012054000,-0.000884690,0.003576480,-0.018705100,1749761106.195442915,0.019780292,-0.076397330,0.976539000,0.818753871,-0.817674000,-1.569690000,0.975633788,1.207710000,,,,,
1749761106.205747,-0.076344300,-0.019512800,0.025585200,-0.015421600,-0.011874100,0.000414430,0.004128110,-0.019612700,1749761106.205746889,0.019419926,-0.076367977,0.975780000,0.819008262,-0.817822000,-1.569580000,0.974784540,1.208070000,,,,,
1749761106.215652,-0.076216100,-0.019115700,0.026336800,-0.020339800,-0.011925000,0.000035623,0.003587010,-0.020481400,1749761106.215651989,0.019025269,-0.076238724,0.975035000,0.819115134,-0.817959000,-1.569610000,0.974063947,1.208440000,,,,,
1749761106.225681,-0.075987500,-0.018755400,0.027029300,-0.024025100,-0.011800500,0.000889830,0.001654830,-0.021220200,1749761106.225681067,0.018684243,-0.076005028,0.974306000,0.819009910,-0.818098000,-1.569860000,0.973539566,1.208800000,,,,,
1749761106.235657,-0.075555300,-0.018413200,0.027675500,-0.026372300,-0.011490700,0.002960700,0.000697044,-0.021801500,1749761106.235656977,0.018351516,-0.075570306,0.973609000,0.819030510,-0.818236000,-1.569980000,0.972940728,1.209170000,,,,,
1749761106.245642,-0.075016000,-0.018200400,0.028379000,-0.030162900,-0.011053500,0.005766620,0.002220000,-0.022615900,1749761106.245641947,0.018121899,-0.075035002,0.972932000,0.819406557,-0.818389000,-1.569750000,0.972075165,1.209550000,,,,,
1749761106.255509,-0.074513400,-0.017984800,0.029052200,-0.034385800,-0.010634800,0.008251880,0.004842720,-0.023531000,1749761106.255508900,0.017877010,-0.074539334,0.972255000,0.819945342,-0.818540000,-1.569350000,0.971070107,1.209930000,,,,,
1749761106.265784,-0.073910500,-0.017853500,0.029777400,-0.037885900,-0.010223800,0.010512700,0.006895240,-0.024383400,1749761106.265784025,0.017720704,-0.073942451,0.971597000,0.820444984,-0.818701000,-1.569000000,0.970124779,1.210320000,,,,,
1749761106.275666,-0.073441700,-0.017776100,0.030438700,-0.040940300,-0.010040500,0.011050400,0.006893520,-0.025206000,1749761106.275665998,0.017639003,-0.073474748,0.970926000,0.820678638,-0.818868000,-1.568930000,0.969396035,1.210720000,,,,,
1749761106.285482,-0.072778400,-0.017810100,0.031153800,-0.044921400,-0.009943990,0.010954300,0.005105180,-0.026193800,1749761106.285481930,0.017688075,-0.072808153,0.970288000,0.820676368,-0.819051000,-1.569120000,0.968913640,1.211130000,,,,,
1749761106.295512,-0.072022600,-0.017988100,0.031887800,-0.049193300,-0.009545920,0.012940300,0.002969950,-0.027263600,1749761106.295511961,0.017886074,-0.072048005,0.969670000,0.820627547,-0.819255000,-1.569380000,0.968508695,1.211540000,,,,,
1749761106.305515,-0.071521100,-0.018134200,0.032565000,-0.052470600,-0.008890870,0.016558400,0.001345060,-0.028231700,1749761106.305515051,0.018047909,-0.071542924,0.969023000,0.820624362,-0.819456000,-1.569590000,0.968033763,1.211960000,,,,,
1749761106.315511,-0.071081400,-0.018262100,0.033138300,-0.053558800,-0.008573040,0.017606300,0.000423620,-0.028914500,1749761106.315510988,0.018184872,-0.071101197,0.968371000,0.820707484,-0.819656000,-1.569710000,0.967480015,1.212370000,,,,,
1749761106.325542,-0.070717900,-0.018277000,0.033551200,-0.052233000,-0.008559090,0.016490500,-0.000262703,-0.029257500,1749761106.325541973,0.018207240,-0.070735893,0.967713000,0.820794082,-0.819840000,-1.569810000,0.966903899,1.212760000,,,,,
1749761106.335790,-0.070392200,-0.018300600,0.033877700,-0.050673000,-0.008641840,0.014785800,-0.002267530,-0.029553200,1749761106.335789919,0.018251580,-0.070404926,0.967054000,0.820700187,-0.820027000,-1.570100000,0.966482759,1.213140000,,,,,
1749761106.345684,-0.069608400,-0.018347300,0.034168300,-0.050434200,-0.008859520,0.012269800,-0.003685890,-0.030025200,1749761106.345684052,0.018314838,-0.069616948,0.966464000,0.820666599,-0.820216000,-1.570330000,0.966081406,1.213530000,,,,,
1749761106.355721,-0.068653800,-0.018383200,0.034584600,-0.047960000,-0.008857620,0.011438300,-0.005420440,-0.030170100,1749761106.355720997,0.018371094,-0.068657040,0.965906000,0.820575302,-0.820405000,-1.570620000,0.965761326,1.213930000,,,,,
1749761106.365806,-0.067652200,-0.018325800,0.034959300,-0.044144100,-0.008665350,0.011974400,-0.007208500,-0.030095300,1749761106.365806103,0.018334843,-0.067649750,0.965365000,0.820451949,-0.820581000,-1.570930000,0.965474681,1.214330000,,,,,
1749761106.375641,-0.066560400,-0.018200900,0.035234700,-0.041321000,-0.008432910,0.012750100,-0.007452850,-0.030126600,1749761106.375641108,0.018217118,-0.066555963,0.964847000,0.820510868,-0.820746000,-1.571040000,0.965046965,1.214720000,,,,,
1749761106.385738,-0.065617200,-0.018129200,0.035519400,-0.039702600,-0.007834330,0.015992600,-0.009403300,-0.030304700,1749761106.385737896,0.018168808,-0.065606244,0.964319000,0.820334717,-0.820917000,-1.571400000,0.964814390,1.215110000,,,,,
1749761106.395769,-0.064938000,-0.018114300,0.035865700,-0.039167200,-0.006904710,0.021290500,-0.010040700,-0.030623900,1749761106.395768881,0.018165185,-0.064923784,0.963761000,0.820340474,-0.821096000,-1.571580000,0.964404175,1.215520000,,,,,
1749761106.405753,-0.064239100,-0.018297800,0.036225400,-0.040531000,-0.006216790,0.024560100,-0.008718130,-0.031213700,1749761106.405752897,0.018342357,-0.064226392,0.963213000,0.820635647,-0.821304000,-1.571490000,0.963782485,1.215930000,,,,,
1749761106.415450,-0.063611000,-0.018524500,0.036460100,-0.042369500,-0.006209930,0.022916800,-0.006345740,-0.031886100,1749761106.415450096,0.018552085,-0.063602960,0.962662000,0.821102442,-0.821520000,-1.571230000,0.963018181,1.216320000,,,,,
1749761106.425697,-0.062867600,-0.018792400,0.036698200,-0.041449800,-0.006246910,0.021084900,-0.004624820,-0.032176200,1749761106.425697088,0.018808347,-0.062862831,0.962134000,0.821499906,-0.821744000,-1.571050000,0.962342423,1.216720000,,,,,
1749761106.435759,-0.061935200,-0.019079200,0.036972700,-0.038222700,-0.005926470,0.021839300,-0.002867580,-0.032121900,1749761106.435759068,0.019081905,-0.061934367,0.961641000,0.821932001,-0.821974000,-1.570840000,0.961676897,1.217130000,,,,,
1749761106.445767,-0.061110400,-0.019318900,0.037299100,-0.036953600,-0.005548590,0.022937000,-0.001613100,-0.032319700,1749761106.445766926,0.019312402,-0.061112454,0.961141000,0.822301190,-0.822199000,-1.570690000,0.961053573,1.217550000,,,,,
1749761106.455879,-0.060230100,-0.019469000,0.037703400,-0.035277200,-0.005475050,0.021864400,0.000055116,-0.032445700,1749761106.455878973,0.019448742,-0.060236645,0.960658000,0.822737049,-0.822414000,-1.570460000,0.960381346,1.217980000,,,,,
1749761106.465733,-0.059434200,-0.019601600,0.037945000,-0.033855300,-0.005494620,0.020224700,0.001482260,-0.032591900,1749761106.465733051,0.019569127,-0.059444900,0.960171000,0.823152444,-0.822628000,-1.570250000,0.959721433,1.218390000,,,,,
1749761106.475717,-0.058682200,-0.019743400,0.038200900,-0.029873200,-0.005464590,0.019039400,0.001668230,-0.032351900,1749761106.475717068,0.019708990,-0.058693766,0.959686000,0.823407548,-0.822845000,-1.570210000,0.959203379,1.218810000,,,,,
1749761106.485689,-0.057720900,-0.019936600,0.038537900,-0.024750700,-0.005506590,0.017439700,0.000700754,-0.031906500,1749761106.485688925,0.019909681,-0.057730191,0.959239000,0.823517229,-0.823070000,-1.570330000,0.958855076,1.219240000,,,,,
1749761106.495812,-0.056372100,-0.019928400,0.038490300,-0.020068100,-0.005557140,0.015891400,-0.000148453,-0.031473700,1749761106.495811939,0.019908876,-0.056378998,0.958858000,0.823601029,-0.823269000,-1.570450000,0.958572822,1.219620000,,,,,
1749761106.505657,-0.055631200,-0.020046400,0.038701100,-0.014398700,-0.005605320,0.014466000,-0.002524820,-0.030850700,1749761106.505656958,0.020046604,-0.055631126,0.958402000,0.823481480,-0.823485000,-1.570800000,0.958405025,1.220030000,,,,,
1749761106.515665,-0.054973800,-0.020116600,0.038790700,-0.011681000,-0.005838460,0.011865500,-0.004109720,-0.030599800,1749761106.515665054,0.020130545,-0.054968695,0.957941000,0.823452970,-0.823696000,-1.571050000,0.958149919,1.220430000,,,,,
1749761106.525668,-0.054260200,-0.020226800,0.038775200,-0.007665460,-0.006300420,0.007869030,-0.003720750,-0.030133300,1749761106.525667906,0.020240021,-0.054255270,0.957495000,0.823679660,-0.823913000,-1.571040000,0.957695737,1.220820000,,,,,
1749761106.535716,-0.053551000,-0.020244400,0.038808000,-0.004215870,-0.006926880,0.003015360,-0.003233640,-0.029708800,1749761106.535716057,0.020255306,-0.053546876,0.957055000,0.823923056,-0.824118000,-1.571000000,0.957222831,1.221210000,,,,,
1749761106.545413,-0.052937600,-0.020168300,0.038865500,-0.001242800,-0.007406920,-0.000496430,-0.004357500,-0.029319000,1749761106.545413017,0.020189668,-0.052929454,0.956609000,0.823922775,-0.824309000,-1.571200000,0.956941674,1.221610000,,,,,
1749761106.555758,-0.052283500,-0.020021900,0.038750200,0.001495540,-0.007839710,-0.003441200,-0.004979890,-0.028933600,1749761106.555757999,0.020049799,-0.052272807,0.956175000,0.823979598,-0.824490000,-1.571330000,0.956614872,1.221980000,,,,,
1749761106.565680,-0.051675400,-0.019940200,0.038420000,0.005262610,-0.008070240,-0.004791080,-0.006048150,-0.028371300,1749761106.565680027,0.019978624,-0.051660557,0.955740000,0.823967014,-0.824678000,-1.571540000,0.956353027,1.222320000,,,,,
1749761106.575771,-0.051132700,-0.019915900,0.037993200,0.008601240,-0.008363770,-0.006481770,-0.006321680,-0.027833700,1749761106.575771093,0.019959032,-0.051115879,0.955302000,0.824067744,-0.824874000,-1.571640000,0.955997584,1.222640000,,,,,
1749761106.585487,-0.050207000,-0.019718300,0.037284900,0.011434200,-0.008634280,-0.007897540,-0.006504040,-0.027336100,1749761106.585486889,0.019765168,-0.050188568,0.954925000,0.824152053,-0.825044000,-1.571730000,0.955694905,1.222920000,,,,,
1749761106.595579,-0.049751800,-0.020030600,0.036906100,0.013565500,-0.009135970,-0.010807100,-0.005897780,-0.026912100,1749761106.595578909,0.020075551,-0.049733679,0.954489000,0.824424117,-0.825287000,-1.571700000,0.955234400,1.223240000,,,,,
1749761106.605870,-0.049375200,-0.020443800,0.036800000,0.015761000,-0.009292370,-0.011139800,-0.005896950,-0.026457500,1749761106.605870008,0.020491372,-0.049355476,0.954047000,0.824627227,-0.825547000,-1.571760000,0.954842114,1.223590000,,,,,
1749761106.615918,-0.049031200,-0.020915000,0.036733900,0.015480700,-0.009501340,-0.011811500,-0.004547790,-0.026340600,1749761106.615917921,0.020955869,-0.049013747,0.953603000,0.825024720,-0.825820000,-1.571630000,0.954291133,1.223950000,,,,,
1749761106.625799,-0.048795400,-0.021364200,0.036585700,0.013399300,-0.010062800,-0.014863300,-0.002364150,-0.026488200,1749761106.625798941,0.021391213,-0.048783564,0.953147000,0.825566141,-0.826094000,-1.571350000,0.953604240,1.224290000,,,,,
1749761106.635757,-0.048476300,-0.021795400,0.036476800,0.011825100,-0.010362600,-0.015903600,-0.001080440,-0.026582900,1749761106.635756969,0.021814482,-0.048467716,0.952705000,0.825995882,-0.826371000,-1.571190000,0.953030246,1.224640000,,,,,
1749761106.645730,-0.047978900,-0.022173300,0.036409000,0.008279430,-0.010316900,-0.014494500,0.001888340,-0.026979700,1749761106.645730019,0.022172037,-0.047979484,0.952293000,0.826669071,-0.826644000,-1.570770000,0.952271237,1.225000000,,,,,
1749761106.655720,-0.047330400,-0.022448500,0.036414600,0.005255380,-0.010293000,-0.013332300,0.004724830,-0.027336300,1749761106.655719995,0.022426900,-0.047340639,0.951907000,0.827339295,-0.826905000,-1.570340000,0.951529562,1.225360000,,,,,
1749761106.665720,-0.046455900,-0.022633900,0.036436300,0.003724580,-0.010070900,-0.010885800,0.005256310,-0.027506100,1749761106.665719986,0.022607122,-0.046468937,0.951561000,0.827705273,-0.827157000,-1.570220000,0.951084129,1.225730000,,,,,
1749761106.675749,-0.045543100,-0.022712600,0.036325900,0.002319470,-0.009950850,-0.009310070,0.005036050,-0.027673000,1749761106.675749063,0.022685437,-0.045556636,0.951229000,0.827961096,-0.827394000,-1.570200000,0.950735434,1.226080000,,,,,
1749761106.685431,-0.044795000,-0.022872300,0.036175000,0.003245140,-0.010106100,-0.009738070,0.002579040,-0.027515300,1749761106.685431004,0.022859025,-0.044801776,0.950882000,0.827926735,-0.827645000,-1.570500000,0.950636705,1.226420000,,,,,
1749761106.695721,-0.044093900,-0.022988400,0.035907500,0.006879440,-0.010216800,-0.009829350,-0.000486539,-0.026954900,1749761106.695720911,0.022993853,-0.044091057,0.950536000,0.827772438,-0.827890000,-1.570920000,0.950638381,1.226740000,,,,,
1749761106.705726,-0.043595600,-0.023098300,0.035547300,0.012033800,-0.010216800,-0.009153220,-0.004576370,-0.026137300,1749761106.705725908,0.023129843,-0.043578873,0.950168000,0.827448172,-0.828136000,-1.571520000,0.950767051,1.227050000,,,,,
1749761106.715770,-0.042999600,-0.023163500,0.035126300,0.019087200,-0.010137000,-0.007973970,-0.007925950,-0.024992200,1749761106.715770006,0.023217389,-0.042970527,0.949818000,0.827185588,-0.828377000,-1.572050000,0.950855767,1.227340000,,,,,
1749761106.725753,-0.042274200,-0.023175700,0.034667800,0.026301500,-0.010326300,-0.008727590,-0.009733840,-0.023753200,1749761106.725753069,0.023243042,-0.042237212,0.949494000,0.827095765,-0.828610000,-1.572390000,0.950813327,1.227630000,,,,,
1749761106.735719,-0.041611300,-0.023064300,0.034373900,0.032517400,-0.010945200,-0.012387300,-0.009492930,-0.022587100,1749761106.735718966,0.023133496,-0.041572871,0.949167000,0.827245750,-0.828826000,-1.572460000,0.950544581,1.227930000,,,,,
1749761106.745704,-0.040962100,-0.023006500,0.034353200,0.033900700,-0.011561200,-0.015774500,-0.007182040,-0.022061000,1749761106.745703936,0.023064793,-0.040929305,0.948845000,0.827696315,-0.829048000,-1.572220000,0.950024331,1.228270000,,,,,
1749761106.755674,-0.040339400,-0.023017500,0.034542000,0.030394400,-0.011854200,-0.016705700,-0.002847390,-0.022231400,1749761106.755673885,0.023052331,-0.040319505,0.948526000,0.828460474,-0.829280000,-1.571660000,0.949241873,1.228640000,,,,,
1749761106.765671,-0.039647600,-0.023085800,0.034843200,0.024154900,-0.011796700,-0.015159500,-0.000496948,-0.022833900,1749761106.765671015,0.023107748,-0.039634812,0.948223000,0.828994867,-0.829520000,-1.571350000,0.948682138,1.229030000,,,,,
1749761106.775498,-0.039049300,-0.023234900,0.035346500,0.017282800,-0.011450100,-0.011730600,0.001911780,-0.023590800,1749761106.775497913,0.023242853,-0.039044567,0.947914000,0.829578918,-0.829772000,-1.571000000,0.948082983,1.229450000,,,,,
1749761106.785861,-0.038297900,-0.023496300,0.035895900,0.011830900,-0.011288800,-0.009813000,0.001908040,-0.024210000,1749761106.785861015,0.023503334,-0.038293584,0.947632000,0.829868931,-0.830043000,-1.570980000,0.947784441,1.229890000,,,,,
1749761106.795758,-0.037276000,-0.023913300,0.036406400,0.010285100,-0.011428000,-0.010095500,0.002055380,-0.024316300,1749761106.795758009,0.023918655,-0.037272564,0.947398000,0.830201876,-0.830338000,-1.570940000,0.947517288,1.230320000,,,,,
1749761106.805869,-0.036234500,-0.024379500,0.036731500,0.009174110,-0.011507000,-0.009944720,0.003282840,-0.024374800,1749761106.805869102,0.024377459,-0.036235873,0.947177000,0.830698350,-0.830645000,-1.570740000,0.947130211,1.230730000,,,,,
1749761106.815490,-0.035455900,-0.024773900,0.036962100,0.007746220,-0.011441700,-0.008810490,0.004813040,-0.024490600,1749761106.815490007,0.024763038,-0.035463487,0.946927000,0.831236030,-0.830946000,-1.570490000,0.946672415,1.231130000,,,,,
1749761106.825643,-0.035054300,-0.025054200,0.037140400,0.005926530,-0.011158700,-0.006256060,0.006616640,-0.024677500,1749761106.825643063,0.025032590,-0.035069735,0.946631000,0.831817276,-0.831234000,-1.570180000,0.946118508,1.231530000,,,,,
1749761106.835782,-0.034790000,-0.025187400,0.037133700,0.006123870,-0.010719200,-0.002800020,0.006017930,-0.024589500,1749761106.835782051,0.025166649,-0.034805014,0.946319000,0.832068167,-0.831504000,-1.570200000,0.945822984,1.231900000,,,,,
1749761106.845720,-0.034303100,-0.025207700,0.037009800,0.007526160,-0.010483900,-0.000987765,0.003777090,-0.024324600,1749761106.845720053,0.025196162,-0.034311576,0.946042000,0.832077132,-0.831759000,-1.570460000,0.945762204,1.232250000,,,,,
1749761106.855715,-0.033627400,-0.025157300,0.036752200,0.009997140,-0.010398700,-0.000333495,0.001929180,-0.023890300,1749761106.855715036,0.025153724,-0.033630075,0.945797000,0.832104559,-0.832004000,-1.570690000,0.945708530,1.232590000,,,,,
1749761106.865751,-0.032890900,-0.025112500,0.036477300,0.013611000,-0.010653600,-0.002065090,-0.000710279,-0.023265300,1749761106.865751028,0.025121172,-0.032884277,0.945568000,0.831999650,-0.832249000,-1.571060000,0.945787409,1.232910000,,,,,
1749761106.875697,-0.032403200,-0.024944000,0.036036400,0.016598800,-0.010919100,-0.003750430,-0.003683640,-0.022695100,1749761106.875696898,0.024966795,-0.032385640,0.945310000,0.831810605,-0.832476000,-1.571500000,0.945895557,1.233210000,,,,,
1749761106.885868,-0.031877500,-0.024826400,0.035486200,0.019144900,-0.011286100,-0.006018210,-0.005574080,-0.022159200,1749761106.885868073,0.024858701,-0.031852318,0.945062000,0.831749588,-0.832708000,-1.571810000,0.945905608,1.233490000,,,,,
1749761106.895975,-0.031137200,-0.024504200,0.034692500,0.021193900,-0.011625600,-0.007940930,-0.007171940,-0.021670100,1749761106.895975113,0.024544772,-0.031105228,0.944851000,0.831676516,-0.832909000,-1.572100000,0.945936038,1.233730000,,,,,
1749761106.906320,-0.030623600,-0.024520300,0.034189400,0.019604600,-0.011898000,-0.009269140,-0.006819760,-0.021689000,1749761106.906320095,0.024560814,-0.030591116,0.944614000,0.831905910,-0.833157000,-1.572120000,0.945716000,1.234010000,,,,,
1749761106.915842,-0.030139600,-0.024363900,0.033674100,0.019586900,-0.011774700,-0.007782840,-0.006992690,-0.021495600,1749761106.915842056,0.024406483,-0.030105127,0.944378000,0.832043126,-0.833379000,-1.572210000,0.945555182,1.234270000,,,,,
1749761106.925595,-0.029954600,-0.024235100,0.033115700,0.020448900,-0.011433500,-0.004898390,-0.006638120,-0.021174500,1749761106.925595045,0.024278020,-0.029919824,0.944103000,0.832249609,-0.833604000,-1.572230000,0.945297145,1.234530000,,,,,
1749761106.935832,-0.029479700,-0.024223600,0.032687900,0.021072900,-0.010859300,-0.000609332,-0.008411850,-0.020879300,1749761106.935832024,0.024275260,-0.029437174,0.943873000,0.832188474,-0.833845000,-1.572550000,0.945333840,1.234800000,,,,,
1749761106.945517,-0.029030700,-0.024292200,0.032362700,0.021339900,-0.010109600,0.004593200,-0.009815400,-0.020629800,1749761106.945517063,0.024351478,-0.028980994,0.943643000,0.832166762,-0.834097000,-1.572840000,0.945345650,1.235080000,,,,,
1749761106.955561,-0.028527900,-0.024514200,0.032138600,0.016980300,-0.009573850,0.007964760,-0.008683850,-0.021049800,1749761106.955560923,0.024570457,-0.028479461,0.943426000,0.832508361,-0.834372000,-1.572770000,0.945070939,1.235370000,,,,,
1749761106.965669,-0.027899300,-0.024813600,0.032010500,0.008916210,-0.009597690,0.007252420,-0.004353950,-0.022051600,1749761106.965668917,0.024853573,-0.027863697,0.943232000,0.833307856,-0.834661000,-1.572230000,0.944427661,1.235670000,,,,,
1749761106.975658,-0.027085000,-0.025144400,0.031989300,0.003258450,-0.009765220,0.005600090,-0.001464740,-0.022784400,1749761106.975657940,0.025173195,-0.027058239,0.943071000,0.833953409,-0.834957000,-1.571860000,0.943958588,1.235990000,,,,,
1749761106.985667,-0.026210000,-0.025435800,0.031986100,-0.003412290,-0.009933990,0.004052930,0.001605620,-0.023720900,1749761106.985666990,0.025452142,-0.026194131,0.942928000,0.834662759,-0.835251000,-1.571420000,0.943448740,1.236310000,,,,,
1749761106.995429,-0.025567000,-0.025581700,0.031780800,-0.010788700,-0.010038900,0.003052080,0.004066980,-0.024826700,1749761106.995429039,0.025588185,-0.025560510,0.942759000,0.835286820,-0.835526000,-1.571050000,0.942970920,1.236600000,,,,,
1749761107.005551,-0.024973600,-0.025698100,0.031617800,-0.016136600,-0.010153500,0.002053090,0.005573320,-0.025711500,1749761107.005551100,0.025697942,-0.024973763,0.942590000,0.835804964,-0.835799000,-1.570790000,0.942584712,1.236890000,,,,,
1749761107.015753,-0.024225100,-0.025729200,0.031375500,-0.019843900,-0.010100000,0.002279640,0.004955760,-0.026411500,1749761107.015753031,0.025730016,-0.024224234,0.942449000,0.836029264,-0.836061000,-1.570830000,0.942477152,1.237170000,,,,,
1749761107.017460,,,,,,,,,,,,,,,,,,1749761107.017460108,0.000000000,0.000000000,0.000000000,0.000000000
1749761107.025748,-0.023865300,-0.025696900,0.030896500,-0.019962900,-0.010017300,0.002691990,0.004362030,-0.026627200,1749761107.025748014,0.025698420,-0.023863664,0.942259000,0.836253002,-0.836313000,-1.570860000,0.942312249,1.237420000,,,,,
1749761107.035522,-0.023414900,-0.025602900,0.030357900,-0.019162600,-0.010222400,0.001095210,0.002013520,-0.026710600,1749761107.035521984,0.025611414,-0.023405587,0.942085000,0.836214334,-0.836557000,-1.571160000,0.942389171,1.237650000,,,,,
1749761107.037545,,,,,,,,,,,,,,,,,,1749761107.037544966,0.000000000,0.009491870,0.000000000,0.000000000
1749761107.045446,-0.022945700,-0.025435800,0.029742500,-0.016158100,-0.010638300,-0.001842980,-0.000905134,-0.026465700,1749761107.045445919,0.025453316,-0.022926269,0.941919000,0.836068438,-0.836788000,-1.571560000,0.942557758,1.237860000,,,,,
1749761107.055517,-0.022649500,-0.025131900,0.029089900,-0.013428500,-0.011278000,-0.006119320,-0.002095610,-0.026230700,1749761107.055516958,0.025153489,-0.022625522,0.941733000,0.836100514,-0.836999000,-1.571750000,0.942530795,1.238070000,,,,,
1749761107.057532,,,,,,,,,,,,,,,,,,1749761107.057532072,0.000000000,0.018967400,0.000000000,0.000000000
1749761107.065672,-0.022435600,-0.024834400,0.028368100,-0.010577800,-0.011880600,-0.009846080,-0.002337750,-0.025950900,1749761107.065671921,0.024856905,-0.022410663,0.941538000,0.836261582,-0.837207000,-1.571800000,0.942377808,1.238250000,,,,,
1749761107.075666,-0.022200900,-0.024547800,0.027720600,-0.009244620,-0.012218900,-0.011496800,-0.003368770,-0.025863000,1749761107.075665951,0.024574061,-0.022171828,0.941347000,0.836298166,-0.837413000,-1.571980000,0.942337564,1.238440000,,,,,
1749761107.077525,,,,,,,,,,,,,,,,,,1749761107.077524900,0.000000000,0.028410500,0.000000000,0.000000000
1749761107.085455,-0.021988800,-0.024338900,0.027173800,-0.007612360,-0.012489700,-0.012569200,-0.005497510,-0.025718300,1749761107.085454941,0.024372375,-0.021951690,0.941156000,0.836194014,-0.837629000,-1.572320000,0.942431180,1.238640000,,,,,
1749761107.095518,-0.021627500,-0.024243700,0.026673900,-0.004614050,-0.012991000,-0.015154900,-0.005381680,-0.025358800,1749761107.095518112,0.024277489,-0.021589564,0.940989000,0.836385577,-0.837858000,-1.572360000,0.942297985,1.238840000,,,,,
1749761107.097530,,,,,,,,,,,,,,,,,,1749761107.097529888,0.000000000,0.037804800,0.000000000,0.000000000
1749761107.105660,-0.021394900,-0.024226400,0.026105400,-0.001387390,-0.013752700,-0.019354300,-0.003483380,-0.024936200,1749761107.105659962,0.024254912,-0.021362571,0.940806000,0.836842527,-0.838098000,-1.572130000,0.941922912,1.239020000,,,,,
1749761107.115667,-0.021087300,-0.024205700,0.025592900,0.001395070,-0.014531000,-0.023379300,-0.001675240,-0.024545800,1749761107.115667105,0.024229169,-0.021060330,0.940637000,0.837288918,-0.838337000,-1.571910000,0.941570050,1.239210000,,,,,
1749761107.117530,,,,,,,,,,,,,,,,,,1749761107.117530107,0.000000000,0.047134300,0.000000000,0.000000000
1749761107.125727,-0.020627200,-0.024109200,0.025178900,0.003878110,-0.015321000,-0.027207800,0.000509063,-0.024171100,1749761107.125726938,0.024125976,-0.020607576,0.940493000,0.837799469,-0.838565000,-1.571610000,0.941175006,1.239410000,,,,,
1749761107.135378,-0.020331900,-0.023913700,0.024700600,0.004982360,-0.015901000,-0.029327100,0.002236020,-0.023971900,1749761107.135377884,0.023924954,-0.020318657,0.940330000,0.838257236,-0.838778000,-1.571350000,0.940794265,1.239590000,,,,,
1749761107.137520,,,,,,,,,,,,,,,,,,1749761107.137520075,0.000000000,0.056383400,0.000000000,0.000000000
1749761107.145761,-0.020190400,-0.023777000,0.024158200,0.003544030,-0.016276800,-0.029895500,0.003068930,-0.024131000,1749761107.145761013,0.023785350,-0.020180562,0.940147000,0.838608015,-0.838997000,-1.571210000,0.940493990,1.239760000,,,,,
1749761107.155652,-0.020328000,-0.023657200,0.023615300,-0.000083257,-0.016355900,-0.028382200,0.005282880,-0.024622600,1749761107.155652046,0.023658291,-0.020326730,0.939925000,0.839167550,-0.839218000,-1.570850000,0.939970042,1.239920000,,,,,
1749761107.157526,,,,,,,,,,,,,,,,,,1749761107.157526016,0.000000000,0.065536400,0.000000000,0.000000000
1749761107.165686,-0.020438800,-0.023508200,0.023158300,-0.002839820,-0.016245300,-0.025667300,0.005310000,-0.025023900,1749761107.165685892,0.023508275,-0.020438714,0.939706000,0.839429548,-0.839433000,-1.570800000,0.939709083,1.240090000,,,,,
1749761107.175712,-0.020650400,-0.023405700,0.022752700,-0.005445940,-0.016380800,-0.024833200,0.006376950,-0.025430900,1749761107.175712109,0.023401439,-0.020655229,0.939470000,0.839846820,-0.839653000,-1.570590000,0.939296737,1.240260000,,,,,
1749761107.177528,,,,,,,,,,,,,,,,,,1749761107.177527905,0.000000000,0.074578100,0.000000000,0.000000000
1749761107.185666,-0.020879800,-0.023234400,0.022327200,-0.006602580,-0.016789700,-0.025938400,0.006635140,-0.025653400,1749761107.185666084,0.023228003,-0.020886916,0.939231000,0.840149672,-0.839862000,-1.570490000,0.938973684,1.240430000,,,,,
1749761107.195640,-0.021026000,-0.023113400,0.021955700,-0.006108250,-0.017053200,-0.025966500,0.006732620,-0.025647600,1749761107.195640087,0.023105275,-0.021034928,0.939001000,0.840439699,-0.840077000,-1.570410000,0.938676386,1.240600000,,,,,
1749761107.197523,,,,,,,,,,,,,,,,,,1749761107.197523117,0.000000000,0.083493500,0.000000000,0.000000000
1749761107.205666,-0.021077600,-0.023007600,0.021462700,-0.005583740,-0.017358500,-0.026280500,0.006742390,-0.025632500,1749761107.205666065,0.022997979,-0.021088097,0.938783000,0.840720304,-0.840292000,-1.570340000,0.938399455,1.240740000,,,,,
1749761107.215743,-0.021019700,-0.022937100,0.020913300,-0.005300770,-0.017483800,-0.025334400,0.006700740,-0.025647200,1749761107.215743065,0.022926244,-0.021031540,0.938580000,0.840996502,-0.840512000,-1.570280000,0.938145896,1.240880000,,,,,
1749761107.217529,,,,,,,,,,,,,,,,,,1749761107.217529058,0.000000000,0.092268200,0.000000000,0.000000000
1749761107.225472,-0.020854500,-0.022844700,0.020327700,-0.004620500,-0.017379400,-0.022872100,0.005846540,-0.025601400,1749761107.225471973,0.022834973,-0.020865151,0.938394000,0.841165507,-0.840728000,-1.570330000,0.938001844,1.241000000,,,,,
1749761107.235741,-0.020630100,-0.022666000,0.019632700,-0.004255940,-0.017141600,-0.019661100,0.004405160,-0.025594600,1749761107.235740900,0.022659679,-0.020637042,0.938218000,0.841218362,-0.840931000,-1.570490000,0.937960356,1.241100000,,,,,
1749761107.237528,,,,,,,,,,,,,,,,,,1749761107.237528086,0.000000000,0.100888000,0.000000000,0.000000000
1749761107.245679,-0.020188900,-0.022478300,0.018914400,-0.002184290,-0.017019300,-0.017465900,0.002416570,-0.025336200,1749761107.245678902,0.022476961,-0.020190391,0.938076000,0.841192218,-0.841130000,-1.570730000,0.938020208,1.241200000,,,,,
1749761107.255759,-0.019733300,-0.022262200,0.018187400,0.001910680,-0.017166400,-0.017275900,0.001357130,-0.024763100,1749761107.255759001,0.022263456,-0.019731882,0.937940000,0.841263277,-0.841323000,-1.570860000,0.937993568,1.241280000,,,,,
1749761107.257528,,,,,,,,,,,,,,,,,,1749761107.257528067,0.000000000,0.109339000,0.000000000,0.000000000
1749761107.265710,-0.019216600,-0.021896400,0.017395600,0.007336060,-0.017386600,-0.017602300,0.000628131,-0.023955800,1749761107.265710115,0.021899353,-0.019213235,0.937818000,0.841348873,-0.841493000,-1.570950000,0.937947304,1.241350000,,,,,
1749761107.275683,-0.018760300,-0.021481200,0.016575900,0.014355900,-0.017426600,-0.016666400,-0.000982459,-0.022862600,1749761107.275682926,0.021488396,-0.018752057,0.937692000,0.841292171,-0.841652000,-1.571180000,0.938014850,1.241400000,,,,,
1749761107.277526,,,,,,,,,,,,,,,,,,1749761107.277525902,0.000000000,0.117609000,0.000000000,0.000000000
1749761107.285666,-0.018098000,-0.021134300,0.015782800,0.020930700,-0.017480000,-0.015886500,-0.004441250,-0.021763800,1749761107.285665989,0.021150465,-0.018079106,0.937601000,0.840977755,-0.841816000,-1.571690000,0.938352934,1.241450000,,,,,
1749761107.295862,-0.017207300,-0.020822500,0.015007000,0.026741600,-0.017629000,-0.015818900,-0.006890350,-0.020710300,1749761107.295861959,0.020844743,-0.017180348,0.937549000,0.840768414,-0.841982000,-1.572090000,0.938637465,1.241500000,,,,,
1749761107.297558,,,,,,,,,,,,,,,,,,1749761107.297558069,0.000000000,0.125684000,0.000000000,0.000000000
1749761107.305779,-0.016421800,-0.020588900,0.014315800,0.031437700,-0.017582200,-0.014407500,-0.009030490,-0.019760600,1749761107.305778980,0.020616356,-0.016387318,0.937491000,0.840585768,-0.842156000,-1.572470000,0.938899180,1.241550000,,,,,
1749761107.315772,-0.015911100,-0.020409500,0.013797000,0.035060600,-0.017157400,-0.010492300,-0.008745620,-0.018919900,1749761107.315772057,0.020436895,-0.015875897,0.937401000,0.840718977,-0.842336000,-1.572520000,0.938851519,1.241620000,,,,,
1749761107.317556,,,,,,,,,,,,,,,,,,1749761107.317555904,0.000000000,0.133554000,0.000000000,0.000000000
1749761107.325436,-0.015628800,-0.020376900,0.013394000,0.034803800,-0.016574500,-0.005757440,-0.008502590,-0.018606600,1749761107.325436115,0.020404588,-0.015592633,0.937283000,0.840872242,-0.842536000,-1.572570000,0.938775908,1.241690000,,,,,
1749761107.335816,-0.015448300,-0.020350200,0.013036000,0.030740800,-0.015812400,-0.000115532,-0.008247550,-0.018848900,1749761107.335815907,0.020378339,-0.015411162,0.937153000,0.841024539,-0.842735000,-1.572620000,0.938688314,1.241780000,,,,,
1749761107.337559,,,,,,,,,,,,,,,,,,1749761107.337558985,0.000000000,0.141206000,0.000000000,0.000000000
1749761107.345525,-0.015211700,-0.020305000,0.012789600,0.024050500,-0.015016100,0.005373050,-0.007564930,-0.019513400,1749761107.345525026,0.020332404,-0.015175052,0.937033000,0.841240528,-0.842932000,-1.572600000,0.938551849,1.241870000,,,,,
1749761107.355545,-0.015387700,-0.020209400,0.012476400,0.017639000,-0.014213200,0.010529600,-0.006149300,-0.020204400,1749761107.355545044,0.020235126,-0.015353855,0.936855000,0.841552831,-0.843122000,-1.572470000,0.938264798,1.241950000,,,,,
1749761107.357527,,,,,,,,,,,,,,,,,,1749761107.357527018,0.000000000,0.148629000,0.000000000,0.000000000
1749761107.365429,-0.015482500,-0.020009000,0.012110800,0.013369400,-0.013430000,0.015196300,-0.005924370,-0.020648300,1749761107.365428925,0.020035348,-0.015448389,0.936688000,0.841697967,-0.843295000,-1.572500000,0.938123339,1.242030000,,,,,
1749761107.375503,-0.015427500,-0.019819800,0.011707700,0.010800300,-0.012864200,0.018044700,-0.005413520,-0.020887900,1749761107.375503063,0.019845901,-0.015393910,0.936541000,0.841879597,-0.843467000,-1.572490000,0.937968214,1.242090000,,,,,
1749761107.377531,,,,,,,,,,,,,,,,,,1749761107.377531052,0.000000000,0.155815000,0.000000000,0.000000000
1749761107.385687,-0.015382700,-0.019628400,0.011250000,0.010118300,-0.012292200,0.020739600,-0.004414980,-0.020878900,1749761107.385687113,0.019653044,-0.015351203,0.936393000,0.842135247,-0.843638000,-1.572400000,0.937744715,1.242140000,,,,,
1749761107.395663,-0.015325900,-0.019363000,0.010917400,0.012113300,-0.011612500,0.023990800,-0.004688710,-0.020487900,1749761107.395663023,0.019388776,-0.015293277,0.936248000,0.842217469,-0.843795000,-1.572480000,0.937667347,1.242200000,,,,,
1749761107.397527,,,,,,,,,,,,,,,,,,1749761107.397526979,0.000000000,0.162753000,0.000000000,0.000000000
1749761107.405683,-0.015285800,-0.019033500,0.010607500,0.014622100,-0.011002100,0.026540700,-0.004989020,-0.020002300,1749761107.405683041,0.019060582,-0.015252017,0.936100000,0.842279338,-0.843941000,-1.572570000,0.937595402,1.242270000,,,,,
1749761107.415442,-0.015089500,-0.018732300,0.010226200,0.016882500,-0.010521500,0.028022300,-0.004586840,-0.019527700,1749761107.415441990,0.018758884,-0.015056439,0.935976000,0.842435932,-0.844088000,-1.572560000,0.937463239,1.242320000,,,,,
1749761107.417519,,,,,,,,,,,,,,,,,,1749761107.417519093,0.000000000,0.169435000,0.000000000,0.000000000
1749761107.425710,-0.014847700,-0.018441900,0.009852910,0.018000600,-0.010102200,0.028979200,-0.002961740,-0.019196400,1749761107.425709963,0.018465243,-0.014818660,0.935860000,0.842759217,-0.844233000,-1.572370000,0.937187387,1.242370000,,,,,
1749761107.435682,-0.014456200,-0.018265600,0.009494830,0.017577300,-0.009554950,0.030751400,-0.001798460,-0.019077900,1749761107.435682058,0.018286307,-0.014429998,0.935768000,0.843049547,-0.844392000,-1.572230000,0.936977620,1.242410000,,,,,
1749761107.437525,,,,,,,,,,,,,,,,,,1749761107.437525034,0.000000000,0.175853000,0.000000000,0.000000000
1749761107.445740,-0.014136200,-0.018098600,0.009333830,0.017003000,-0.009043390,0.032155900,-0.001283770,-0.018985600,1749761107.445739985,0.018118143,-0.014111144,0.935670000,0.843254530,-0.844550000,-1.572180000,0.936837685,1.242480000,,,,,
1749761107.455771,-0.013651200,-0.018032400,0.009011660,0.016783900,-0.008633320,0.032765100,-0.000427089,-0.018847400,1749761107.455770969,0.018049773,-0.013628222,0.935599000,0.843528668,-0.844721000,-1.572070000,0.936674139,1.242530000,,,,,
1749761107.457526,,,,,,,,,,,,,,,,,,1749761107.457525969,0.000000000,0.182001000,0.000000000,0.000000000
1749761107.465409,-0.013404700,-0.018059500,0.008644900,0.018137200,-0.008467360,0.031652200,-0.000353365,-0.018482900,1749761107.465409040,0.018076425,-0.013381868,0.935499000,0.843723161,-0.844906000,-1.572060000,0.936565938,1.242570000,,,,,
1749761107.475471,-0.013169800,-0.018046300,0.008290480,0.020351600,-0.008493550,0.029293300,-0.001019970,-0.017979800,1749761107.475471020,0.018064243,-0.013145179,0.935399000,0.843807636,-0.845084000,-1.572160000,0.936550548,1.242600000,,,,,
1749761107.477525,,,,,,,,,,,,,,,,,,1749761107.477524996,0.000000000,0.187872000,0.000000000,0.000000000
1749761107.485699,-0.012928600,-0.017969300,0.007839820,0.023420900,-0.008682370,0.025977300,-0.000835774,-0.017330400,1749761107.485698938,0.017986656,-0.012904443,0.935302000,0.843995497,-0.845253000,-1.572140000,0.936436899,1.242620000,,,,,
1749761107.495747,-0.012560900,-0.017835200,0.007316600,0.027939900,-0.008848980,0.023042400,-0.001370540,-0.016439700,1749761107.495747089,0.017853190,-0.012535317,0.935226000,0.844072323,-0.845414000,-1.572230000,0.936437086,1.242620000,,,,,
1749761107.497524,,,,,,,,,,,,,,,,,,1749761107.497524023,0.000000000,0.193460000,0.000000000,0.000000000
1749761107.505671,-0.012187300,-0.017610100,0.006794000,0.033082200,-0.008983500,0.020530400,-0.002357980,-0.015413200,1749761107.505671024,0.017629500,-0.012159220,0.935155000,0.844067595,-0.845559000,-1.572390000,0.936501357,1.242620000,,,,,
1749761107.515671,-0.012004800,-0.017393300,0.006133110,0.039173700,-0.009157090,0.017922400,-0.003196680,-0.014197400,1749761107.515671015,0.017414086,-0.011974628,0.935060000,0.844081641,-0.845704000,-1.572530000,0.936524768,1.242590000,,,,,
1749761107.517525,,,,,,,,,,,,,,,,,,1749761107.517524958,0.000000000,0.198762000,0.000000000,0.000000000
1749761107.525673,-0.012022400,-0.017201200,0.005369280,0.046794400,-0.009397630,0.015033100,-0.002845930,-0.012698500,1749761107.525672913,0.017221777,-0.011992905,0.934937000,0.844246582,-0.845850000,-1.572510000,0.936385137,1.242540000,,,,,
1749761107.535406,-0.012073100,-0.017002800,0.004616170,0.054129800,-0.009796710,0.011251500,-0.002660900,-0.011164900,1749761107.535406113,0.017023464,-0.012043945,0.934809000,0.844389801,-0.845993000,-1.572510000,0.936257382,1.242490000,,,,,
1749761107.537513,,,,,,,,,,,,,,,,,,1749761107.537513018,0.000000000,0.203772000,0.000000000,0.000000000
1749761107.545530,-0.012118000,-0.016849900,0.003815300,0.059487200,-0.010144200,0.008085260,-0.002888380,-0.009845240,1749761107.545530081,0.016871367,-0.012088095,0.934682000,0.844481850,-0.846141000,-1.572570000,0.936181307,1.242410000,,,,,
1749761107.555805,-0.012017900,-0.016800700,0.003062770,0.063265300,-0.010563600,0.004641930,-0.005343510,-0.008701470,1749761107.555804968,0.016826663,-0.011981521,0.934576000,0.844277904,-0.846302000,-1.572960000,0.936404932,1.242340000,,,,,
1749761107.557527,,,,,,,,,,,,,,,,,,1749761107.557527065,0.000000000,0.208490000,0.000000000,0.000000000
1749761107.565903,-0.011789700,-0.016782600,0.002462290,0.066923700,-0.010962000,0.001580270,-0.006735320,-0.007537310,1749761107.565902948,0.016811008,-0.011749158,0.934488000,0.844209988,-0.846468000,-1.573210000,0.936528373,1.242290000,,,,,
1749761107.575470,-0.011902900,-0.016926800,0.002041610,0.071476300,-0.011268900,-0.000640847,-0.008077170,-0.006206660,1749761107.575469971,0.016958683,-0.011857431,0.934354000,0.844145453,-0.846656000,-1.573480000,0.936622781,1.242250000,,,,,
1749761107.577535,,,,,,,,,,,,,,,,,,1749761107.577534914,0.000000000,0.212912000,0.000000000,0.000000000
1749761107.585766,-0.012186800,-0.017094600,0.001638600,0.075552100,-0.011446500,-0.001819240,-0.009857970,-0.004899760,1749761107.585766077,0.017131371,-0.012135056,0.934194000,0.844021436,-0.846850000,-1.573820000,0.936750323,1.242210000,,,,,
1749761107.595646,-0.012404700,-0.017328900,0.001263110,0.079692700,-0.011574000,-0.002571850,-0.010065800,-0.003542690,1749761107.595645905,0.017367934,-0.012349989,0.934040000,0.844105136,-0.847055000,-1.573950000,0.936706685,1.242170000,,,,,
1749761107.597529,,,,,,,,,,,,,,,,,,1749761107.597528934,0.000000000,0.217037000,0.000000000,0.000000000
1749761107.605681,-0.012712600,-0.017597700,0.000937209,0.083565600,-0.011729700,-0.003466890,-0.009879150,-0.002183100,1749761107.605680943,0.017638590,-0.012655805,0.933872000,0.844252105,-0.847267000,-1.574020000,0.936598455,1.242140000,,,,,
1749761107.615694,-0.013123600,-0.017883800,0.000577160,0.084583300,-0.012220400,-0.006605500,-0.008215260,-0.001199590,1749761107.615694046,0.017924184,-0.013068390,0.933685000,0.844601796,-0.847485000,-1.573880000,0.936293923,1.242100000,,,,,
1749761107.617527,,,,,,,,,,,,,,,,,,1749761107.617527008,0.000000000,0.220865000,0.000000000,0.000000000
1749761107.625538,-0.013676700,-0.018138100,0.000185903,0.083875100,-0.012854400,-0.010514600,-0.005363470,-0.000456639,1749761107.625538111,0.018175556,-0.013626884,0.933473000,0.845136668,-0.847701000,-1.573540000,0.935795298,1.242050000,,,,,
1749761107.635769,-0.014200600,-0.018321700,-0.000161202,0.084913700,-0.013503800,-0.014260700,-0.002543740,0.000533003,1749761107.635768890,0.018355639,-0.014156703,0.933260000,0.845672654,-0.847909000,-1.573190000,0.935286941,1.242000000,,,,,
1749761107.637539,,,,,,,,,,,,,,,,,,1749761107.637538910,0.000000000,0.224396000,0.000000000,0.000000000
1749761107.645664,-0.014823300,-0.018535000,-0.000500121,0.087519100,-0.014126900,-0.017568400,0.000423489,0.001760650,1749761107.645663977,0.018564368,-0.014786503,0.933028000,0.846270510,-0.848123000,-1.572780000,0.934708562,1.241950000,,,,,
1749761107.655699,-0.015474400,-0.018691300,-0.000811382,0.088756500,-0.014594200,-0.019575400,0.002536670,0.002815610,1749761107.655699015,0.018717173,-0.015443095,0.932785000,0.846768635,-0.848331000,-1.572470000,0.934203522,1.241900000,,,,,
1749761107.657537,,,,,,,,,,,,,,,,,,1749761107.657536983,0.000000000,0.227632000,0.000000000,0.000000000
1749761107.665694,-0.016219800,-0.018904500,-0.001070560,0.088766800,-0.014918100,-0.020457700,0.003331070,0.003704670,1749761107.665693998,0.018929354,-0.016190788,0.932522000,0.847117819,-0.848549000,-1.572330000,0.933822300,1.241850000,,,,,
1749761107.675736,-0.017561600,-0.019293300,-0.001411580,0.086928600,-0.015071900,-0.020107800,0.003397990,0.004325280,1749761107.675735950,0.019319510,-0.017532763,0.932165000,0.847401704,-0.848795000,-1.572290000,0.933431782,1.241790000,,,,,
1749761107.677529,,,,,,,,,,,,,,,,,,1749761107.677529097,0.000000000,0.230575000,0.000000000,0.000000000
1749761107.685676,-0.019119900,-0.019663700,-0.001812250,0.085671900,-0.014757200,-0.016557500,0.002051930,0.005012000,1749761107.685676098,0.019695291,-0.019087357,0.931763000,0.847499008,-0.849041000,-1.572450000,0.933165762,1.241720000,,,,,
1749761107.695783,-0.020602600,-0.019988800,-0.002079340,0.083996400,-0.014233400,-0.011812500,-0.000221320,0.005625300,1749761107.695782900,0.020029218,-0.020563309,0.931356000,0.847454485,-0.849285000,-1.572760000,0.933021921,1.241660000,,,,,
1749761107.697528,,,,,,,,,,,,,,,,,,1749761107.697527885,0.000000000,0.233228000,0.000000000,0.000000000
1749761107.705672,-0.022283600,-0.020285700,-0.002380640,0.081133000,-0.013786200,-0.007921460,0.000452751,0.006049250,1749761107.705672026,0.020327194,-0.022245755,0.930906000,0.847791621,-0.849528000,-1.572660000,0.932487625,1.241600000,,,,,
1749761107.715674,-0.024069300,-0.020529900,-0.002581660,0.074247400,-0.013398800,-0.004709940,0.003260330,0.005860240,1749761107.715673923,0.020564867,-0.024039431,0.930424000,0.848412570,-0.849766000,-1.572250000,0.931658299,1.241540000,,,,,
1749761107.717541,,,,,,,,,,,,,,,,,,1749761107.717540979,0.000000000,0.235594000,0.000000000,0.000000000
1749761107.725671,-0.025811900,-0.020722900,-0.002778510,0.067487700,-0.012945800,-0.001267260,0.004764350,0.005620640,1749761107.725671053,0.020753954,-0.025786938,0.929930000,0.848880053,-0.850000000,-1.572000000,0.930952448,1.241490000,,,,,
1749761107.735691,-0.027723900,-0.020821600,-0.002944850,0.063714200,-0.012463500,0.002139770,0.004749680,0.005747300,1749761107.735691071,0.020853570,-0.027699860,0.929394000,0.849148217,-0.850221000,-1.571950000,0.930374258,1.241440000,,,,,
1749761107.737546,,,,,,,,,,,,,,,,,,1749761107.737545967,0.000000000,0.237678000,0.000000000,0.000000000
1749761107.745758,-0.029842200,-0.020679600,-0.003390340,0.061457900,-0.012165900,0.004040700,0.003803440,0.006056640,1749761107.745758057,0.020716698,-0.029816458,0.928809000,0.849253208,-0.850409000,-1.572040000,0.929865912,1.241340000,,,,,
1749761107.755745,-0.031952200,-0.020623300,-0.003901340,0.059424400,-0.012272200,0.003030710,0.001611190,0.006375800,1749761107.755744934,0.020671961,-0.031920740,0.928204000,0.849192734,-0.850608000,-1.572320000,0.929498971,1.241230000,,,,,
1749761107.757528,,,,,,,,,,,,,,,,,,1749761107.757528067,0.000000000,0.239484000,0.000000000,0.000000000
1749761107.765449,-0.034228100,-0.020635400,-0.004340770,0.055848000,-0.012501000,0.001247390,0.000898217,0.006450440,1749761107.765449047,0.020690606,-0.034194757,0.927554000,0.849318124,-0.850816000,-1.572410000,0.928925731,1.241130000,,,,,
1749761107.775615,-0.036658000,-0.020755800,-0.004580510,0.052318500,-0.012366800,0.002085500,0.000308963,0.006496160,1749761107.775614977,0.020817857,-0.036622794,0.926858000,0.849467986,-0.851039000,-1.572490000,0.928298052,1.241050000,,,,,
1749761107.777528,,,,,,,,,,,,,,,,,,1749761107.777528048,0.000000000,0.241020000,0.000000000,0.000000000
1749761107.785669,-0.039253500,-0.020767500,-0.004798340,0.048124800,-0.011770500,0.006046390,0.001371850,0.006410080,1749761107.785669088,0.020827678,-0.039221603,0.926115000,0.849827642,-0.851249000,-1.572330000,0.927419448,1.240980000,,,,,
1749761107.795717,-0.041726100,-0.020882000,-0.005104010,0.046966000,-0.011139100,0.009976200,0.001568380,0.006722960,1749761107.795717001,0.020944302,-0.041694863,0.925363000,0.850089861,-0.851473000,-1.572290000,0.926633790,1.240880000,,,,,
1749761107.797525,,,,,,,,,,,,,,,,,,1749761107.797524929,0.000000000,0.242291000,0.000000000,0.000000000
1749761107.805772,-0.044188600,-0.020997200,-0.005456060,0.047079800,-0.010689700,0.012382200,0.002429030,0.007209170,1749761107.805772066,0.021056998,-0.044160136,0.924588000,0.850446630,-0.851699000,-1.572150000,0.925740075,1.240780000,,,,,
1749761107.815534,-0.046303700,-0.021197600,-0.005654750,0.048084200,-0.010345400,0.013900100,0.000000007,0.007825880,1749761107.815534115,0.021275530,-0.046267945,0.923839000,0.850381350,-0.851938000,-1.572480000,0.925272075,1.240700000,,,,,
1749761107.817517,,,,,,,,,,,,,,,,,,1749761107.817517042,0.000000000,0.243305000,0.000000000,0.000000000
1749761107.825698,-0.048300900,-0.021431700,-0.005979640,0.049302900,-0.010551700,0.011523300,-0.000124281,0.008483780,1749761107.825697899,0.021513475,-0.048264532,0.923086000,0.850619372,-0.852184000,-1.572490000,0.924527997,1.240590000,,,,,
1749761107.835732,-0.049881100,-0.021643100,-0.006092710,0.053056500,-0.010687300,0.009796880,-0.001565230,0.009522130,1749761107.835731983,0.021738516,-0.049839591,0.922373000,0.850662320,-0.852429000,-1.572710000,0.924002581,1.240520000,,,,,
1749761107.837533,,,,,,,,,,,,,,,,,,1749761107.837532997,0.000000000,0.244069000,0.000000000,0.000000000
1749761107.845714,-0.051312900,-0.021772400,-0.006165460,0.057720200,-0.010982300,0.007092130,-0.002599200,0.010730300,1749761107.845714092,0.021878759,-0.051267641,0.921666000,0.850750934,-0.852664000,-1.572870000,0.923432164,1.240450000,,,,,
1749761107.855717,-0.052625000,-0.022063900,-0.006243500,0.061984800,-0.011482200,0.003162690,-0.004054890,0.011927000,1749761107.855716944,0.022185598,-0.052573811,0.920962000,0.850790914,-0.852924000,-1.573110000,0.922932921,1.240370000,,,,,
1749761107.857526,,,,,,,,,,,,,,,,,,1749761107.857526064,0.000000000,0.244593000,0.000000000,0.000000000
1749761107.865591,-0.053302300,-0.022122600,-0.006256220,0.065151800,-0.011952100,-0.000289211,-0.005287390,0.013007000,1749761107.865591049,0.022257579,-0.053246078,0.920338000,0.850818428,-0.853153000,-1.573330000,0.922496655,1.240310000,,,,,
1749761107.875782,-0.054917100,-0.022662100,-0.005860670,0.059898400,-0.011702700,0.001447500,-0.004166060,0.012895300,1749761107.875782013,0.022795134,-0.054862013,0.919570000,0.851221758,-0.853453000,-1.573220000,0.921635788,1.240300000,,,,,
1749761107.877525,,,,,,,,,,,,,,,,,,1749761107.877525091,0.000000000,0.244884000,0.000000000,0.000000000
1749761107.885713,-0.056807300,-0.023042800,-0.005616240,0.055257800,-0.011225400,0.004633330,-0.004479800,0.012820100,1749761107.885713100,0.023185522,-0.056749199,0.918746000,0.851422878,-0.853735000,-1.573310000,0.920889106,1.240280000,,,,,
1749761107.895810,-0.059024800,-0.023269400,-0.005488330,0.053901400,-0.010663000,0.008185440,-0.004857920,0.013175600,1749761107.895809889,0.023423002,-0.058964014,0.917856000,0.851605311,-0.853998000,-1.573400000,0.920076418,1.240240000,,,,,
1749761107.897524,,,,,,,,,,,,,,,,,,1749761107.897524118,0.000000000,0.244953000,0.000000000,0.000000000
