__time,filtered_pose/dx,filtered_pose/dy,filtered_pose/dz,filtered_pose/p,filtered_pose/pitch,filtered_pose/q,filtered_pose/r,filtered_pose/roll,filtered_pose/timestamp,filtered_pose/vxb,filtered_pose/vyb,filtered_pose/x,filtered_pose/xb,filtered_pose/y,filtered_pose/yaw,filtered_pose/yb,filtered_pose/z,u_control/timestamp,u_control/ux,u_control/uy,u_control/uyaw,u_control/uz
1749762346.980642,-0.002313740,-0.025649300,-0.031662300,-0.003402930,-0.014917900,-0.025674800,0.000138131,-0.025964200,1749762346.980642080,0.025675325,-0.002004411,0.153843000,0.766344862,-0.768255000,-1.582850000,0.163091895,1.342370000,,,,,
1749762346.990839,-0.002014030,-0.024675100,-0.031506400,-0.002714840,-0.015092600,-0.025109800,-0.000399861,-0.025898300,1749762346.990839005,0.024697703,-0.001714736,0.153863000,0.766448193,-0.768370000,-1.582920000,0.163166931,1.342070000,,,,,
1749762346.999365,,,,,,,,,,,,,,,,,,1749762346.999365091,0.000000000,0.000000000,0.300000000,0.000000000
1749762347.000599,-0.001604130,-0.023886400,-0.031484100,-0.002316080,-0.015133600,-0.023664000,-0.000665891,-0.025867500,1749762347.000598907,0.023904158,-0.001313233,0.153903000,0.766571537,-0.768502000,-1.582970000,0.163246857,1.341760000,,,,,
1749762347.010432,-0.001138600,-0.023054300,-0.031476100,-0.000955825,-0.015273200,-0.022995800,0.001154750,-0.025693100,1749762347.010432005,0.023066228,-0.000863864,0.153954000,0.766731339,-0.768620000,-1.582710000,0.163099945,1.341450000,,,,,
1749762347.019433,,,,,,,,,,,,,,,,,,1749762347.019433022,0.000000000,0.000000000,0.300000000,0.000000000
1749762347.020434,-0.000722882,-0.022125000,-0.031190400,0.000237889,-0.015389000,-0.022210000,0.002730920,-0.025529200,1749762347.020433903,0.022131931,-0.000464559,0.154003000,0.766865882,-0.768716000,-1.582470000,0.162966042,1.341170000,,,,,
1749762347.030446,-0.000562186,-0.021340700,-0.031150900,0.001088510,-0.015322300,-0.020222300,0.005745140,-0.025403200,1749762347.030446053,0.021345659,-0.000323061,0.154019000,0.767049206,-0.768823000,-1.582000000,0.162622795,1.340870000,,,,,
1749762347.039432,,,,,,,,,,,,,,,,,,1749762347.039432049,0.000000000,0.000000000,0.300000000,0.000000000
1749762347.040663,-0.000848333,-0.020479900,-0.031031800,0.003173380,-0.015024300,-0.016779100,0.008723280,-0.025089500,1749762347.040663004,0.020487813,-0.000628874,0.153972000,0.767217297,-0.768911000,-1.581510000,0.162200867,1.340570000,,,,,
1749762347.050630,-0.001090150,-0.019548500,-0.030653300,0.004961910,-0.014734700,-0.013630400,0.011241000,-0.024797900,1749762347.050630093,0.019558659,-0.000889457,0.153928000,0.767360658,-0.768981000,-1.581060000,0.161812324,1.340320000,,,,,
1749762347.059436,,,,,,,,,,,,,,,,,,1749762347.059436083,0.000000000,0.000000000,0.300000000,0.000000000
1749762347.060674,-0.001354690,-0.018666100,-0.030349000,0.006958230,-0.014289500,-0.009628070,0.014130500,-0.024458200,1749762347.060673952,0.018678402,-0.001172939,0.153879000,0.767513785,-0.769048000,-1.580530000,0.161357254,1.340060000,,,,,
1749762347.070443,-0.001357210,-0.017784500,-0.029927300,0.008811140,-0.013850700,-0.005944890,0.015241000,-0.024119500,1749762347.070442915,0.017796512,-0.001189379,0.153865000,0.767621287,-0.769107000,-1.580230000,0.161113550,1.339810000,,,,,
1749762347.079434,,,,,,,,,,,,,,,,,,1749762347.079433918,0.000000000,0.000000000,0.300000000,0.000000000
1749762347.080661,-0.001214880,-0.016943400,-0.029490200,0.011661100,-0.013303800,-0.001771520,0.014720800,-0.023617300,1749762347.080661058,0.016954022,-0.001056346,0.153872000,0.767689105,-0.769162000,-1.580150000,0.161059654,1.339580000,,,,,
1749762347.090722,-0.000808223,-0.016134300,-0.029026900,0.014995300,-0.012667700,0.002728950,0.012014800,-0.023016300,1749762347.090722084,0.016141311,-0.000653401,0.153919000,0.767701976,-0.769214000,-1.580390000,0.161291391,1.339350000,,,,,
1749762347.099433,,,,,,,,,,,,,,,,,,1749762347.099432945,0.000000000,0.000000000,0.300000000,0.000000000
1749762347.100610,-0.000244898,-0.015303700,-0.028563400,0.018450400,-0.012042200,0.006846430,0.008039150,-0.022364400,1749762347.100610018,0.015305389,-0.000091030,0.153993000,0.767667954,-0.769255000,-1.580850000,0.161718926,1.339130000,,,,,
1749762347.110603,0.000168655,-0.014457600,-0.027965600,0.019826900,-0.011418400,0.010668800,0.003644430,-0.021979900,1749762347.110603094,0.014454996,0.000322091,0.154051000,0.767606654,-0.769285000,-1.581410000,0.162207109,1.338930000,,,,,
1749762347.119435,,,,,,,,,,,,,,,,,,1749762347.119435072,0.000000000,0.000000000,0.300000000,0.000000000
1749762347.120724,0.000616963,-0.013643600,-0.027367800,0.020577400,-0.010904600,0.013471300,-0.000177631,-0.021672600,1749762347.120723963,0.013635885,0.000768825,0.154117000,0.767547466,-0.769311000,-1.581930000,0.162672528,1.338730000,,,,,
1749762347.130670,0.000953292,-0.012937000,-0.026745700,0.021379000,-0.010321700,0.016556300,-0.002855740,-0.021350400,1749762347.130670071,0.012925156,0.001102307,0.154172000,0.767517330,-0.769345000,-1.582320000,0.163027248,1.338550000,,,,,
1749762347.139436,,,,,,,,,,,,,,,,,,1749762347.139436007,0.000000000,0.000000000,0.300000000,0.000000000
1749762347.140598,0.001219140,-0.012243200,-0.026081300,0.021564100,-0.009763090,0.019261500,-0.004333750,-0.021109700,1749762347.140598059,0.012228012,0.001363077,0.154221000,0.767506602,-0.769374000,-1.582560000,0.163260785,1.338380000,,,,,
1749762347.150607,0.001370280,-0.011574500,-0.025394400,0.021231700,-0.009344050,0.020820100,-0.005315790,-0.020942300,1749762347.150607109,0.011557294,0.001508537,0.154255000,0.767500161,-0.769399000,-1.582750000,0.163440905,1.338220000,,,,,
1749762347.159428,,,,,,,,,,,,,,,,,,1749762347.159427881,0.000000000,0.000000000,0.300000000,0.000000000
1749762347.160463,0.001407340,-0.010891900,-0.024628900,0.019981600,-0.009027660,0.021564800,-0.005960230,-0.020911600,1749762347.160463095,0.010874069,0.001539066,0.154274000,0.767492405,-0.769416000,-1.582900000,0.163575232,1.338080000,,,,,
1749762347.170619,0.001489990,-0.010217100,-0.023783900,0.018375400,-0.008859190,0.021240000,-0.007378240,-0.020945200,1749762347.170619011,0.010197898,0.001616194,0.154300000,0.767459527,-0.769426000,-1.583160000,0.163800896,1.337950000,,,,,
1749762347.179436,,,,,,,,,,,,,,,,,,1749762347.179435968,0.000000000,0.000000000,0.300000000,0.000000000
1749762347.180703,0.001536260,-0.009552550,-0.022903400,0.016382000,-0.008744910,0.020564600,-0.008786000,-0.021051000,1749762347.180702925,0.009532363,0.001656913,0.154322000,0.767419354,-0.769432000,-1.583440000,0.164037853,1.337840000,,,,,
1749762347.190680,0.001464870,-0.008927050,-0.022021000,0.014698800,-0.008685990,0.019554700,-0.009836060,-0.021131700,1749762347.190680027,0.008907437,0.001579758,0.154327000,0.767384898,-0.769437000,-1.583680000,0.164227092,1.337740000,,,,,
1749762347.199423,,,,,,,,,,,,,,,,,,1749762347.199423075,0.000000000,0.000000000,0.300000000,0.000000000
1749762347.200348,0.001375400,-0.008292200,-0.021155000,0.013562800,-0.008658460,0.018398200,-0.011327900,-0.021149800,1749762347.200347900,0.008273332,0.001484682,0.154328000,0.767330938,-0.769434000,-1.583990000,0.164465934,1.337650000,,,,,
1749762347.210458,0.001243680,-0.007664060,-0.020378200,0.012103200,-0.008716490,0.016732400,-0.013619300,-0.021226200,1749762347.210458040,0.007646379,0.001348127,0.154323000,0.767247920,-0.769425000,-1.584440000,0.164806094,1.337550000,,,,,
1749762347.219436,,,,,,,,,,,,,,,,,,1749762347.219435930,0.000000000,0.000000000,0.300000000,0.000000000
1749762347.220632,0.001088070,-0.007059370,-0.019612500,0.009437230,-0.008795180,0.015039000,-0.015918800,-0.021492500,1749762347.220632076,0.007043311,0.001187592,0.154313000,0.767159518,-0.769414000,-1.584910000,0.165156528,1.337460000,,,,,
1749762347.230584,0.000872029,-0.006452970,-0.018825700,0.006996130,-0.009070510,0.012108800,-0.020816300,-0.021752800,1749762347.230583906,0.006439180,0.000968617,0.154292000,0.766998858,-0.769397000,-1.585780000,0.165802642,1.337380000,,,,,
1749762347.239432,,,,,,,,,,,,,,,,,,1749762347.239432096,0.000000000,0.000000000,0.300000000,0.000000000
1749762347.240608,0.000778323,-0.005809740,-0.018027600,0.005735190,-0.009361880,0.009269750,-0.027559800,-0.021866000,1749762347.240607977,0.005796392,0.000872182,0.154287000,0.766772095,-0.769368000,-1.586970000,0.166709785,1.337300000,,,,,
1749762347.250356,0.000853330,-0.005111000,-0.017217000,0.004884150,-0.009664710,0.006547270,-0.036608000,-0.021932300,1749762347.250355959,0.005095036,0.000943981,0.154306000,0.766461727,-0.769324000,-1.588560000,0.167946957,1.337240000,,,,,
1749762347.259429,,,,,,,,,,,,,,,,,,1749762347.259428978,0.000000000,0.000000000,0.300000000,0.000000000
1749762347.260705,0.000784424,-0.004454830,-0.016354800,0.004732820,-0.010026600,0.003605610,-0.047099800,-0.021905400,1749762347.260704994,0.004438554,0.000871821,0.154304000,0.766098986,-0.769280000,-1.590450000,0.169392404,1.337190000,,,,,
1749762347.270577,0.000646350,-0.003788150,-0.015440800,0.004367380,-0.010274300,0.001652470,-0.057821300,-0.021911200,1749762347.270576954,0.003773245,0.000728333,0.154292000,0.765701813,-0.769228000,-1.592480000,0.170934110,1.337160000,,,,,
1749762347.279462,,,,,,,,,,,,,,,,,,1749762347.279462099,0.000000000,0.000000000,0.300000000,0.000000000
1749762347.280534,0.000412626,-0.003154600,-0.014511700,0.003134250,-0.010373500,0.000855677,-0.068431800,-0.022046700,1749762347.280534029,0.003143885,0.000487593,0.154265000,0.765284371,-0.769174000,-1.594600000,0.172528735,1.337140000,,,,,
1749762347.290667,0.000129019,-0.002596680,-0.013614900,0.001589230,-0.010442400,0.000322576,-0.078395900,-0.022239800,1749762347.290667057,0.002592461,0.000196310,0.154228000,0.764866125,-0.769124000,-1.596730000,0.174120114,1.337130000,,,,,
1749762347.299455,,,,,,,,,,,,,,,,,,1749762347.299454927,0.000000000,0.000000000,0.300000000,0.000000000
1749762347.300675,-0.000065496,-0.002135740,-0.012698600,-0.000849760,-0.010535700,-0.000341307,-0.091679800,-0.022578200,1749762347.300674915,0.002136740,-0.000004302,0.154201000,0.764351242,-0.769083000,-1.599440000,0.176164096,1.337130000,,,,,
1749762347.310680,-0.000331765,-0.001636750,-0.011777400,-0.003359200,-0.010641300,-0.001044850,-0.104819000,-0.022951300,1749762347.310679913,0.001646380,-0.000280095,0.154161000,0.763799921,-0.769032000,-1.602270000,0.178284917,1.337130000,,,,,
1749762347.319470,,,,,,,,,,,,,,,,,,1749762347.319469929,0.000000000,0.000000000,0.300000000,0.000000000
1749762347.320646,-0.000789548,-0.001021300,-0.010780500,-0.005929840,-0.010776100,-0.001901100,-0.117026000,-0.023358400,1749762347.320646048,0.001047771,-0.000754067,0.154092000,0.763223530,-0.768959000,-1.605090000,0.180366659,1.337160000,,,,,
1749762347.330660,-0.001400380,-0.000343501,-0.009670990,-0.007947890,-0.010976800,-0.003151500,-0.128175000,-0.023710900,1749762347.330660105,0.000395184,-0.001386682,0.153995000,0.762632994,-0.768871000,-1.607880000,0.182395152,1.337210000,,,,,
1749762347.339458,,,,,,,,,,,,,,,,,,1749762347.339457989,0.000000000,0.000000000,0.300000000,0.000000000
1749762347.340742,-0.002057620,0.000310942,-0.008520310,-0.010134400,-0.011083800,-0.003671070,-0.139479000,-0.024108000,1749762347.340742111,-0.000228382,-0.002068412,0.153885000,0.762007777,-0.768779000,-1.610810000,0.184515288,1.337280000,,,,,
1749762347.350311,-0.002636640,0.000915963,-0.007469560,-0.011623800,-0.011252600,-0.004580610,-0.151840000,-0.024425700,1749762347.350311041,-0.000801231,-0.002673740,0.153781000,0.761328874,-0.768688000,-1.614000000,0.186837316,1.337350000,,,,,
1749762347.359434,,,,,,,,,,,,,,,,,,1749762347.359433889,0.000000000,0.000000000,0.300000000,0.000000000
1749762347.360694,-0.003131910,0.001465280,-0.006391890,-0.012137000,-0.011524900,-0.006139490,-0.163949000,-0.024616500,1749762347.360693932,-0.001318199,-0.003196601,0.153682000,0.760629542,-0.768599000,-1.617270000,0.189222831,1.337430000,,,,,
1749762347.370601,-0.003526620,0.001997930,-0.005240650,-0.012707700,-0.011850100,-0.007954750,-0.174474000,-0.024820800,1749762347.370600939,-0.001820466,-0.003621419,0.153594000,0.759938365,-0.768507000,-1.620440000,0.191540615,1.337540000,,,,,
1749762347.379433,,,,,,,,,,,,,,,,,,1749762347.379432917,0.000000000,0.000000000,0.300000000,0.000000000
1749762347.380817,-0.003987960,0.002539150,-0.004059900,-0.013079500,-0.012275100,-0.010332900,-0.184103000,-0.025001900,1749762347.380816936,-0.002325171,-0.004116393,0.153491000,0.759238815,-0.768409000,-1.623590000,0.193825438,1.337650000,,,,,
1749762347.390599,-0.004408990,0.003113040,-0.002926910,-0.012578400,-0.012590100,-0.011790100,-0.193338000,-0.025059900,1749762347.390599012,-0.002861506,-0.004576242,0.153390000,0.758515433,-0.768300000,-1.626770000,0.196131894,1.337780000,,,,,
1749762347.399464,,,,,,,,,,,,,,,,,,1749762347.399463892,0.000000000,0.000000000,0.300000000,0.000000000
1749762347.400912,-0.004881960,0.003651460,-0.001834280,-0.013225800,-0.013018400,-0.013926600,-0.202635000,-0.025279700,1749762347.400912046,-0.003355947,-0.005089628,0.153278000,0.757764867,-0.768190000,-1.630050000,0.198500448,1.337910000,,,,,
1749762347.410651,-0.005242650,0.004139410,-0.000688624,-0.014265300,-0.013495600,-0.016252400,-0.212176000,-0.025563000,1749762347.410650969,-0.003802922,-0.005491619,0.153176000,0.756981164,-0.768083000,-1.633470000,0.200982336,1.338060000,,,,,
1749762347.419450,,,,,,,,,,,,,,,,,,1749762347.419450045,0.000000000,0.000000000,0.300000000,0.000000000
1749762347.420695,-0.005574870,0.004643210,0.000499211,-0.014964700,-0.014036200,-0.018854600,-0.220657000,-0.025807300,1749762347.420695066,-0.004265287,-0.005869063,0.153076000,0.756195475,-0.767968000,-1.636820000,0.203409721,1.338220000,,,,,
1749762347.430610,-0.005909270,0.005218900,0.001645290,-0.014621700,-0.014676100,-0.021961400,-0.228137000,-0.025907100,1749762347.430609941,-0.004797103,-0.006256532,0.152971000,0.755399750,-0.767838000,-1.640110000,0.205782747,1.338390000,,,,,
1749762347.439439,,,,,,,,,,,,,,,,,,1749762347.439439058,0.000000000,0.000000000,0.300000000,0.000000000
1749762347.440832,-0.006281890,0.005816930,0.002812410,-0.014473500,-0.015125200,-0.023541100,-0.236292000,-0.026031800,1749762347.440831900,-0.005344714,-0.006688262,0.152858000,0.754550723,-0.767699000,-1.643580000,0.208279932,1.338580000,,,,,
1749762347.450599,-0.006648500,0.006418680,0.003918900,-0.013808900,-0.015743600,-0.026177600,-0.243912000,-0.026080000,1749762347.450598955,-0.005893547,-0.007118154,0.152742000,0.753687708,-0.767554000,-1.647050000,0.210770254,1.338770000,,,,,
1749762347.459480,,,,,,,,,,,,,,,,,,1749762347.459480047,0.000000000,0.000000000,0.300000000,0.000000000
1749762347.460855,-0.006862180,0.007025200,0.004924540,-0.013024000,-0.016349900,-0.028549000,-0.251339000,-0.026104000,1749762347.460855007,-0.006456017,-0.007400188,0.152645000,0.752796345,-0.767401000,-1.650570000,0.213313040,1.338950000,,,,,
1749762347.470612,-0.007199130,0.007710840,0.005878180,-0.012734500,-0.017087000,-0.031657600,-0.257195000,-0.026192200,1749762347.470612049,-0.007086409,-0.007814559,0.152527000,0.751915751,-0.767231000,-1.653930000,0.215709518,1.339140000,,,,,
1749762347.479480,,,,,,,,,,,,,,,,,,1749762347.479480028,0.000000000,0.000000000,0.300000000,0.000000000
1749762347.480855,-0.007576240,0.008493290,0.006811300,-0.011591700,-0.017702200,-0.033712900,-0.263080000,-0.026153500,1749762347.480854988,-0.007806480,-0.008282165,0.152400000,0.750993137,-0.767041000,-1.657360000,0.218144364,1.339340000,,,,,
1749762347.490623,-0.007985060,0.009303560,0.007734540,-0.010523700,-0.018142600,-0.034423600,-0.268384000,-0.026114300,1749762347.490622997,-0.008548540,-0.008788622,0.152265000,0.750057057,-0.766838000,-1.660760000,0.220543783,1.339540000,,,,,
1749762347.499460,,,,,,,,,,,,,,,,,,1749762347.499459982,0.000000000,0.000000000,0.300000000,0.000000000
1749762347.500846,-0.008389070,0.010110800,0.008672570,-0.007363150,-0.018543700,-0.034815100,-0.271241000,-0.025760300,1749762347.500845909,-0.009287456,-0.009292359,0.152126000,0.749173594,-0.766628000,-1.663860000,0.222709983,1.339750000,,,,,
1749762347.510641,-0.008500230,0.010965100,0.009565130,-0.004715460,-0.018904000,-0.034898600,-0.274974000,-0.025449300,1749762347.510641098,-0.010096858,-0.009515292,0.152026000,0.748231491,-0.766403000,-1.667110000,0.225022443,1.339970000,,,,,
1749762347.519440,,,,,,,,,,,,,,,,,,1749762347.519439936,0.000000000,0.000000000,0.300000000,0.000000000
1749762347.520561,-0.008484540,0.011815200,0.010386500,-0.002339710,-0.019056300,-0.033545000,-0.280174000,-0.025151300,1749762347.520560980,-0.010910829,-0.009619781,0.151944000,0.747212391,-0.766169000,-1.670620000,0.227542432,1.340180000,,,,,
1749762347.530646,-0.008465430,0.012672900,0.011145300,0.000284255,-0.019140100,-0.031812600,-0.285795000,-0.024793500,1749762347.530646086,-0.011731022,-0.009728772,0.151862000,0.746151554,-0.765927000,-1.674240000,0.230139293,1.340400000,,,,,
1749762347.539443,,,,,,,,,,,,,,,,,,1749762347.539443016,0.000000000,0.000000000,0.300000000,0.000000000
1749762347.540728,-0.008437520,0.013479000,0.011800400,0.003364670,-0.019282800,-0.030605000,-0.291442000,-0.024343100,1749762347.540728092,-0.012499604,-0.009830314,0.151781000,0.745065650,-0.765683000,-1.677920000,0.232776943,1.340600000,,,,,
1749762347.550452,-0.008387640,0.014269000,0.012369200,0.006843140,-0.019532500,-0.030217400,-0.296655000,-0.023804100,1749762347.550451994,-0.013254114,-0.009913895,0.151704000,0.743966390,-0.765433000,-1.681590000,0.235405590,1.340800000,,,,,
1749762347.559436,,,,,,,,,,,,,,,,,,1749762347.559436083,0.000000000,0.000000000,0.300000000,0.000000000
1749762347.560927,-0.008356000,0.015020100,0.012807800,0.009404930,-0.019749500,-0.029630900,-0.300247000,-0.023363500,1749762347.560926914,-0.013969243,-0.010014310,0.151625000,0.742898948,-0.765181000,-1.685080000,0.237893373,1.340990000,,,,,
1749762347.570665,-0.008316730,0.015858800,0.013153000,0.012925900,-0.019893700,-0.028583700,-0.302749000,-0.022757900,1749762347.570664883,-0.014773028,-0.010120631,0.151547000,0.741834469,-0.764909000,-1.688440000,0.240278779,1.341170000,,,,,
1749762347.579451,,,,,,,,,,,,,,,,,,1749762347.579451084,0.000000000,0.000000000,0.300000000,0.000000000
1749762347.580839,-0.008265020,0.016694200,0.013521800,0.014847200,-0.019986300,-0.027253700,-0.303381000,-0.022349500,1749762347.580838919,-0.015576925,-0.010215981,0.151471000,0.740812385,-0.764629000,-1.691560000,0.242482951,1.341360000,,,,,
1749762347.590831,-0.008278260,0.017649000,0.013857800,0.015570400,-0.020047900,-0.025801800,-0.305442000,-0.022096000,1749762347.590831041,-0.016488639,-0.010399115,0.151387000,0.739708553,-0.764324000,-1.694890000,0.244827402,1.341540000,,,,,
1749762347.599429,,,,,,,,,,,,,,,,,,1749762347.599428892,0.000000000,0.000000000,0.300000000,0.000000000
1749762347.600480,-0.008319270,0.018538400,0.014152700,0.014462700,-0.020069300,-0.024173600,-0.307908000,-0.022101200,1749762347.600480080,-0.017329941,-0.010609226,0.151298000,0.738574722,-0.764018000,-1.698310000,0.247228578,1.341720000,,,,,
1749762347.610698,-0.008416700,0.019419400,0.014339600,0.013610200,-0.020197100,-0.023389400,-0.309845000,-0.022080400,1749762347.610697985,-0.018154948,-0.010878962,0.151200000,0.737442332,-0.763705000,-1.701670000,0.249570780,1.341890000,,,,,
1749762347.619436,,,,,,,,,,,,,,,,,,1749762347.619436026,0.000000000,0.000000000,0.300000000,0.000000000
1749762347.620748,-0.008318690,0.020323200,0.014522700,0.012841300,-0.020202100,-0.021813200,-0.311107000,-0.022056000,1749762347.620748043,-0.019027955,-0.010962207,0.151131000,0.736305932,-0.763379000,-1.704950000,0.251876261,1.342060000,,,,,
1749762347.630698,-0.008129210,0.021350000,0.014736700,0.012489900,-0.020297100,-0.020966300,-0.312785000,-0.021978700,1749762347.630697966,-0.020034206,-0.010978942,0.151075000,0.735117015,-0.763027000,-1.708300000,0.254237748,1.342240000,,,,,
1749762347.639464,,,,,,,,,,,,,,,,,,1749762347.639463902,0.000000000,0.000000000,0.300000000,0.000000000
1749762347.640834,-0.008096040,0.022387500,0.014925300,0.011821800,-0.020305800,-0.019582900,-0.313738000,-0.021950800,1749762347.640834093,-0.021030088,-0.011157124,0.150998000,0.733932134,-0.762663000,-1.711570000,0.256512906,1.342410000,,,,,
1749762347.650471,-0.008028440,0.023404400,0.015030500,0.010269700,-0.020223900,-0.017670900,-0.314868000,-0.022058100,1749762347.650470972,-0.022009225,-0.011305565,0.150927000,0.732723694,-0.762291000,-1.714870000,0.258809806,1.342580000,,,,,
1749762347.659434,,,,,,,,,,,,,,,,,,1749762347.659434080,0.000000000,0.000000000,0.300000000,0.000000000
1749762347.660820,-0.008001680,0.024399100,0.015087000,0.009544730,-0.020055000,-0.015292400,-0.315136000,-0.022060700,1749762347.660820007,-0.022960909,-0.011495200,0.150851000,0.731530618,-0.761912000,-1.718060000,0.261015085,1.342730000,,,,,
1749762347.670651,-0.008015970,0.025326700,0.015186900,0.008696780,-0.019957900,-0.013570900,-0.315179000,-0.022088500,1749762347.670650959,-0.023839453,-0.011720835,0.150769000,0.730340716,-0.761534000,-1.721220000,0.263187695,1.342900000,,,,,
1749762347.679455,,,,,,,,,,,,,,,,,,1749762347.679455042,0.000000000,0.000000000,0.300000000,0.000000000
1749762347.680707,-0.008015160,0.026270600,0.015325000,0.007605770,-0.019853600,-0.011918900,-0.314189000,-0.022160000,1749762347.680706978,-0.024737120,-0.011935749,0.150689000,0.729173686,-0.761143000,-1.724220000,0.265238715,1.343070000,,,,,
1749762347.690651,-0.007995860,0.027325600,0.015383100,0.006062420,-0.019777200,-0.010572900,-0.312342000,-0.022308200,1749762347.690650940,-0.025747786,-0.012152108,0.150611000,0.728007989,-0.760727000,-1.727100000,0.267195826,1.343230000,,,,,
1749762347.699460,,,,,,,,,,,,,,,,,,1749762347.699460030,0.000000000,0.000000000,0.300000000,0.000000000
1749762347.700913,-0.007929550,0.028369100,0.015365100,0.004030770,-0.019502800,-0.007956620,-0.309783000,-0.022542700,1749762347.700912952,-0.026755101,-0.012322669,0.150541000,0.726861900,-0.760302000,-1.729850000,0.269060405,1.343380000,,,,,
1749762347.710616,-0.007802430,0.029379500,0.015297400,0.001564900,-0.019093800,-0.004593470,-0.308158000,-0.022860700,1749762347.710616112,-0.027737426,-0.012436564,0.150480000,0.725674874,-0.759872000,-1.732710000,0.271008606,1.343530000,,,,,
1749762347.719432,,,,,,,,,,,,,,,,,,1749762347.719432116,0.000000000,0.000000000,0.300000000,0.000000000
1749762347.720678,-0.007756590,0.030362000,0.015174100,-0.000476163,-0.018699500,-0.001563450,-0.306687000,-0.023141500,1749762347.720678091,-0.028678329,-0.012632068,0.150409000,0.724474658,-0.759435000,-1.735580000,0.272948451,1.343660000,,,,,
1749762347.730594,-0.007647950,0.030949200,0.014932300,-0.002250410,-0.018329600,0.001090580,-0.302689000,-0.023404100,1749762347.730593920,-0.029243879,-0.012694080,0.150347000,0.723419523,-0.759046000,-1.738070000,0.274625643,1.343780000,,,,,
1749762347.739436,,,,,,,,,,,,,,,,,,1749762347.739435911,0.000000000,0.000000000,0.300000000,0.000000000
1749762347.740360,-0.007371530,0.031972400,0.014914400,-0.004637080,-0.017893600,0.004016320,-0.302475000,-0.023773300,1749762347.740360022,-0.030261035,-0.012682413,0.150311000,0.722149883,-0.758588000,-1.741060000,0.276674353,1.343930000,,,,,
1749762347.750452,-0.007151690,0.032951600,0.014862900,-0.005827310,-0.017477300,0.006605110,-0.302368000,-0.023992600,1749762347.750452042,-0.031225163,-0.012725715,0.150269000,0.720865982,-0.758126000,-1.744070000,0.278725744,1.344070000,,,,,
1749762347.759436,,,,,,,,,,,,,,,,,,1749762347.759435892,0.000000000,0.000000000,0.300000000,0.000000000
1749762347.760842,-0.006896810,0.033513000,0.014686500,-0.006812810,-0.017092100,0.008802350,-0.299596000,-0.024194100,1749762347.760842085,-0.031789053,-0.012654772,0.150234000,0.719734713,-0.757715000,-1.746690000,0.280507074,1.344190000,,,,,
1749762347.770584,-0.006822320,0.034365800,0.014599300,-0.007235490,-0.016874200,0.009695830,-0.298404000,-0.024323600,1749762347.770584106,-0.032605700,-0.012822660,0.150176000,0.718499443,-0.757256000,-1.749510000,0.282396938,1.344320000,,,,,
1749762347.779430,,,,,,,,,,,,,,,,,,1749762347.779429913,0.000000000,0.000000000,0.300000000,0.000000000
1749762347.780661,-0.006644980,0.035248500,0.014477300,-0.007231300,-0.016731800,0.010008600,-0.297597000,-0.024395300,1749762347.780661106,-0.033468977,-0.012901166,0.150134000,0.717229351,-0.756784000,-1.752380000,0.284331319,1.344450000,,,,,
1749762347.790633,-0.006431610,0.035705500,0.014242800,-0.007163620,-0.016605000,0.010192500,-0.294258000,-0.024457800,1749762347.790632963,-0.033925084,-0.012858345,0.150098000,0.716113811,-0.756365000,-1.754870000,0.286004253,1.344560000,,,,,
1749762347.799436,,,,,,,,,,,,,,,,,,1749762347.799436092,0.000000000,0.000000000,0.300000000,0.000000000
1749762347.800453,-0.006303350,0.036501900,0.014335300,-0.006299510,-0.016095200,0.013000100,-0.293723000,-0.024403900,1749762347.800452948,-0.034694403,-0.012977648,0.150053000,0.714834618,-0.755893000,-1.757740000,0.287926378,1.344720000,,,,,
1749762347.810603,-0.006423490,0.037420600,0.014415400,-0.006699130,-0.015388100,0.016972500,-0.293663000,-0.024525000,1749762347.810602903,-0.035535744,-0.013370619,0.149972000,0.713513182,-0.755394000,-1.760670000,0.289845882,1.344870000,,,,,
1749762347.819433,,,,,,,,,,,,,,,,,,1749762347.819432974,0.000000000,0.000000000,0.300000000,0.000000000
1749762347.820633,-0.006471280,0.037889800,0.014357600,-0.006988020,-0.014737300,0.020283500,-0.291011000,-0.024633900,1749762347.820632935,-0.035952934,-0.013597828,0.149901000,0.712351492,-0.754952000,-1.763220000,0.291510179,1.345010000,,,,,
1749762347.830948,-0.006613090,0.038778700,0.014485500,-0.005542830,-0.014030900,0.023749600,-0.292745000,-0.024493900,1749762347.830948114,-0.036754179,-0.014023226,0.149816000,0.710944969,-0.754444000,-1.766380000,0.293577647,1.345170000,,,,,
1749762347.839435,,,,,,,,,,,,,,,,,,1749762347.839435101,0.000000000,0.000000000,0.300000000,0.000000000
1749762347.840423,-0.006526940,0.039490300,0.014604700,-0.003229550,-0.013092200,0.028576500,-0.294640000,-0.024213200,1749762347.840423107,-0.037423716,-0.014196838,0.149762000,0.709531214,-0.753953000,-1.769580000,0.295701266,1.345330000,,,,,
1749762347.850394,-0.006484100,0.040089400,0.014696300,-0.000752517,-0.012228500,0.032554300,-0.295402000,-0.023885600,1749762347.850394011,-0.037975624,-0.014389423,0.149703000,0.708162661,-0.753471000,-1.772640000,0.297716612,1.345490000,,,,,
1749762347.859435,,,,,,,,,,,,,,,,,,1749762347.859435081,0.000000000,0.000000000,0.300000000,0.000000000
1749762347.860692,-0.006697080,0.040765700,0.014822700,0.001047400,-0.011488300,0.035408800,-0.295181000,-0.023631700,1749762347.860692024,-0.038552310,-0.014846297,0.149607000,0.706820277,-0.752971000,-1.775560000,0.299587512,1.345660000,,,,,
1749762347.870718,-0.006819290,0.041455900,0.014940200,0.002216900,-0.010918000,0.036896700,-0.294624000,-0.023451300,1749762347.870718002,-0.039159725,-0.015218747,0.149523000,0.705478757,-0.752464000,-1.778430000,0.301428139,1.345820000,,,,,
1749762347.879433,,,,,,,,,,,,,,,,,,1749762347.879432917,0.000000000,0.000000000,0.300000000,0.000000000
1749762347.880607,-0.006661870,0.042068400,0.015050100,0.004319220,-0.010311400,0.038532400,-0.294243000,-0.023123700,1749762347.880606890,-0.039747453,-0.015305906,0.149477000,0.704121425,-0.751960000,-1.781320000,0.303315404,1.345990000,,,,,
1749762347.890656,-0.006372210,0.042653800,0.015139900,0.005740330,-0.009813910,0.039304500,-0.293119000,-0.022874000,1749762347.890655994,-0.040338200,-0.015257173,0.149453000,0.702786036,-0.751454000,-1.784100000,0.305141116,1.346150000,,,,,
1749762347.899435,,,,,,,,,,,,,,,,,,1749762347.899435043,0.000000000,0.000000000,0.300000000,0.000000000
1749762347.900644,-0.006102950,0.043267800,0.015198700,0.007462440,-0.009397500,0.039465400,-0.292835000,-0.022566400,1749762347.900644064,-0.040951405,-0.015242405,0.149428000,0.701403596,-0.750939000,-1.786990000,0.307035998,1.346310000,,,,,
1749762347.910595,-0.005860770,0.043828400,0.015164400,0.008500060,-0.008997890,0.039499500,-0.291845000,-0.022341100,1749762347.910594940,-0.041508542,-0.015241987,0.149402000,0.700047184,-0.750424000,-1.789780000,0.308854460,1.346460000,,,,,
1749762347.919433,,,,,,,,,,,,,,,,,,1749762347.919433117,0.000000000,0.000000000,0.300000000,0.000000000
1749762347.920629,-0.005587270,0.044327500,0.015138500,0.009013610,-0.008681220,0.038960400,-0.290971000,-0.022181400,1749762347.920629025,-0.042012891,-0.015200717,0.149383000,0.698689426,-0.749914000,-1.792570000,0.310675673,1.346610000,,,,,
1749762347.930600,-0.005343840,0.044785400,0.015188400,0.007471450,-0.008579350,0.036979800,-0.288810000,-0.022315400,1749762347.930599928,-0.042473964,-0.015174027,0.149363000,0.697389666,-0.749404000,-1.795160000,0.312351268,1.346770000,,,,,
1749762347.939426,,,,,,,,,,,,,,,,,,1749762347.939425945,0.000000000,0.000000000,0.300000000,0.000000000
1749762347.940461,-0.005051470,0.045156900,0.015187200,0.004638160,-0.008608480,0.034234000,-0.287321000,-0.022652300,1749762347.940460920,-0.042861073,-0.015086131,0.149352000,0.696066562,-0.748902000,-1.797830000,0.314088471,1.346920000,,,,,
1749762347.950641,-0.004846030,0.045399500,0.015159400,0.001534390,-0.008598920,0.031943400,-0.286285000,-0.023056800,1749762347.950640917,-0.043102741,-0.015058296,0.149331000,0.694737088,-0.748415000,-1.800560000,0.315856199,1.347070000,,,,,
1749762347.959435,,,,,,,,,,,,,,,,,,1749762347.959434986,0.000000000,0.000000000,0.300000000,0.000000000
1749762347.960625,-0.004732080,0.045714500,0.015040000,-0.000257795,-0.008918080,0.027547800,-0.284446000,-0.023301800,1749762347.960624933,-0.043396370,-0.015131528,0.149299000,0.693437496,-0.747915000,-1.803150000,0.317508232,1.347200000,,,,,
1749762347.970618,-0.004756960,0.046037100,0.014961100,-0.002559760,-0.009164170,0.023957800,-0.282974000,-0.023638900,1749762347.970618010,-0.043664366,-0.015344915,0.149248000,0.692121777,-0.747411000,-1.805780000,0.319163929,1.347340000,,,,,
1749762347.979434,,,,,,,,,,,,,,,,,,1749762347.979434013,0.000000000,0.000000000,0.300000000,0.000000000
1749762347.980447,-0.004738940,0.046341900,0.014994900,-0.003963940,-0.009300510,0.021370300,-0.284011000,-0.023868500,1749762347.980447054,-0.043918903,-0.015529303,0.149203000,0.690688408,-0.746907000,-1.808760000,0.321062495,1.347490000,,,,,
1749762347.990509,-0.004672210,0.046502000,0.015022600,-0.005350390,-0.009573480,0.018020400,-0.283914000,-0.024109500,1749762347.990509033,-0.044046173,-0.015626906,0.149166000,0.689312910,-0.746420000,-1.811590000,0.322863786,1.347650000,,,,,
1749762347.999444,,,,,,,,,,,,,,,,,,1749762347.999444008,0.000000000,0.000000000,0.300000000,0.000000000
1749762348.000697,-0.004538300,0.046611200,0.015042800,-0.008226810,-0.009749990,0.015565100,-0.282488000,-0.024580900,1749762348.000696898,-0.044143179,-0.015639051,0.149139000,0.688001084,-0.745939000,-1.814220000,0.324533422,1.347800000,,,,,
1749762348.010606,-0.004259280,0.046659000,0.015001600,-0.011692400,-0.009967700,0.012995200,-0.281975000,-0.025166700,1749762348.010606050,-0.044214359,-0.015501426,0.149134000,0.686648495,-0.745466000,-1.816970000,0.326304079,1.347950000,,,,,
1749762348.019437,,,,,,,,,,,,,,,,,,1749762348.019437075,0.000000000,0.000000000,0.300000000,0.000000000
1749762348.020607,-0.004053100,0.046761900,0.014975700,-0.014227900,-0.010255800,0.010117800,-0.280450000,-0.025652000,1749762348.020606995,-0.044324403,-0.015441834,0.149121000,0.685334793,-0.744985000,-1.819570000,0.327957230,1.348090000,,,,,
1749762348.030376,-0.003833230,0.046983600,0.014893000,-0.014457200,-0.010509400,0.007675780,-0.279206000,-0.025827600,1749762348.030375957,-0.044553218,-0.015400100,0.149112000,0.683991149,-0.744485000,-1.822190000,0.329618586,1.348230000,,,,,
1749762348.039448,,,,,,,,,,,,,,,,,,1749762348.039448023,0.000000000,0.000000000,0.300000000,0.000000000
1749762348.040679,-0.003713780,0.047205100,0.014767200,-0.016056300,-0.010754500,0.005460440,-0.278284000,-0.026204400,1749762348.040678978,-0.044756508,-0.015458611,0.149091000,0.682631336,-0.743983000,-1.824850000,0.331290340,1.348360000,,,,,
1749762348.050694,-0.003682830,0.047377700,0.014618000,-0.017409500,-0.011019800,0.003258380,-0.277888000,-0.026561600,1749762348.050693989,-0.044888940,-0.015594639,0.149059000,0.681251794,-0.743486000,-1.827580000,0.332995513,1.348490000,,,,,
1749762348.059436,,,,,,,,,,,,,,,,,,1749762348.059436083,0.000000000,0.000000000,0.300000000,0.000000000
1749762348.060617,-0.003795540,0.047679100,0.014558700,-0.016699300,-0.011049500,0.002829480,-0.276142000,-0.026632500,1749762348.060616970,-0.045111923,-0.015893932,0.149006000,0.679923390,-0.742968000,-1.830100000,0.334527161,1.348620000,,,,,
1749762348.070661,-0.003341830,0.047928700,0.014569000,-0.015188200,-0.010575100,0.005899890,-0.278107000,-0.026580000,1749762348.070661068,-0.045421968,-0.015657999,0.149034000,0.678397213,-0.742455000,-1.833150000,0.336493361,1.348770000,,,,,
1749762348.079427,,,,,,,,,,,,,,,,,,1749762348.079427004,0.000000000,0.000000000,0.300000000,0.000000000
1749762348.080465,-0.002720120,0.048170300,0.014515700,-0.012654100,-0.009941630,0.009854420,-0.279638000,-0.026363700,1749762348.080465078,-0.045770977,-0.015257604,0.149091000,0.676873723,-0.741941000,-1.836150000,0.338447244,1.348910000,,,,,
1749762348.090649,-0.002114740,0.048383500,0.014434800,-0.009572450,-0.009219290,0.014148100,-0.280770000,-0.026042500,1749762348.090648890,-0.046091676,-0.014865821,0.149151000,0.675358405,-0.741428000,-1.839110000,0.340371158,1.349040000,,,,,
1749762348.099441,,,,,,,,,,,,,,,,,,1749762348.099441051,0.000000000,0.000000000,0.300000000,0.000000000
1749762348.100623,-0.001569720,0.048449700,0.014363200,-0.006059130,-0.008355400,0.019120600,-0.280431000,-0.025627800,1749762348.100622892,-0.046260191,-0.014485585,0.149209000,0.673924918,-0.740934000,-1.841870000,0.342157454,1.349180000,,,,,
1749762348.110599,-0.000985499,0.048401700,0.014301800,0.000248359,-0.007473100,0.023877500,-0.280446000,-0.024772100,1749762348.110599041,-0.046331109,-0.014040091,0.149278000,0.672482912,-0.740457000,-1.844680000,0.343987243,1.349310000,,,,,
1749762348.119439,,,,,,,,,,,,,,,,,,1749762348.119438887,0.000000000,0.000000000,0.300000000,0.000000000
1749762348.120648,-0.000400991,0.048500700,0.014304800,0.005632330,-0.006574390,0.028419900,-0.280585000,-0.023987400,1749762348.120647907,-0.046546245,-0.013635460,0.149354000,0.671010377,-0.739959000,-1.847500000,0.345819337,1.349450000,,,,,
1749762348.130464,0.000111867,0.048157400,0.014180700,0.010273800,-0.005751720,0.032126300,-0.278222000,-0.023256700,1749762348.130464077,-0.046323739,-0.013162785,0.149424000,0.669715748,-0.739523000,-1.849970000,0.347422821,1.349580000,,,,,
1749762348.139436,,,,,,,,,,,,,,,,,,1749762348.139436007,0.000000000,0.000000000,0.300000000,0.000000000
1749762348.140607,0.000517518,0.048229100,0.014033400,0.013694600,-0.004930840,0.035565300,-0.279481000,-0.022657000,1749762348.140607119,-0.046466375,-0.012930194,0.149484000,0.668195192,-0.739031000,-1.852930000,0.349324307,1.349700000,,,,,
1749762348.150593,0.001049360,0.048149800,0.013868200,0.016760500,-0.004159880,0.038423900,-0.281737000,-0.022074700,1749762348.150593042,-0.046499372,-0.012542441,0.149567000,0.666627685,-0.738561000,-1.856050000,0.351354760,1.349820000,,,,,
1749762348.159440,,,,,,,,,,,,,,,,,,1749762348.159440041,0.000000000,0.000000000,0.300000000,0.000000000
1749762348.160660,0.001503480,0.047654300,0.013601400,0.019283500,-0.003463200,0.040574500,-0.281207000,-0.021540500,1749762348.160660028,-0.046118721,-0.012093648,0.149643000,0.665247772,-0.738151000,-1.858790000,0.353136416,1.349920000,,,,,
1749762348.170664,0.002049320,0.047577900,0.013407100,0.022392200,-0.003059810,0.040558200,-0.282009000,-0.020896000,1749762348.170664072,-0.046166466,-0.011683906,0.149737000,0.663737805,-0.737686000,-1.861720000,0.355040745,1.350020000,,,,,
1749762348.179435,,,,,,,,,,,,,,,,,,1749762348.179435015,0.000000000,0.000000000,0.300000000,0.000000000
1749762348.180436,0.002547600,0.047434200,0.013216000,0.024268800,-0.002869630,0.039075600,-0.283309000,-0.020399500,1749762348.180435896,-0.046137913,-0.011304271,0.149830000,0.662203697,-0.737231000,-1.864730000,0.356994173,1.350130000,,,,,
1749762348.190480,0.002959220,0.046888900,0.012932400,0.025689000,-0.002716830,0.037437700,-0.281933000,-0.019950400,1749762348.190479994,-0.045706709,-0.010873025,0.149915000,0.660856330,-0.736836000,-1.867370000,0.358706997,1.350220000,,,,,
1749762348.199462,,,,,,,,,,,,,,,,,,1749762348.199461937,0.000000000,0.000000000,0.300000000,0.000000000
1749762348.200756,0.003515880,0.046822200,0.012576700,0.025991100,-0.002691710,0.035033700,-0.283001000,-0.019649700,1749762348.200756073,-0.045774746,-0.010457171,0.150026000,0.659315786,-0.736376000,-1.870340000,0.360638474,1.350300000,,,,,
1749762348.210645,0.003949680,0.046918100,0.012286100,0.026375000,-0.002712160,0.032481500,-0.285863000,-0.019334000,1749762348.210644960,-0.045961410,-0.010220414,0.150124000,0.657650936,-0.735894000,-1.873590000,0.362729157,1.350380000,,,,,
1749762348.219441,,,,,,,,,,,,,,,,,,1749762348.219440937,0.000000000,0.000000000,0.300000000,0.000000000
1749762348.220633,0.004435060,0.046959600,0.011922600,0.027107000,-0.002853620,0.029272100,-0.287462000,-0.018963900,1749762348.220633030,-0.046115349,-0.009912034,0.150234000,0.656040889,-0.735419000,-1.876680000,0.364721418,1.350450000,,,,,
1749762348.230356,0.004887980,0.046989300,0.011473400,0.027687200,-0.003028060,0.026056500,-0.288056000,-0.018608500,1749762348.230355978,-0.046251770,-0.009626029,0.150344000,0.654473433,-0.734945000,-1.879640000,0.366622418,1.350510000,,,,,
1749762348.239471,,,,,,,,,,,,,,,,,,1749762348.239470959,0.000000000,0.000000000,0.300000000,0.000000000
1749762348.240793,0.005437900,0.046901000,0.011004500,0.028087800,-0.003244120,0.022775800,-0.287597000,-0.018273500,1749762348.240792990,-0.046309116,-0.009205453,0.150473000,0.652966100,-0.734488000,-1.882450000,0.368442693,1.350550000,,,,,
1749762348.250659,0.005892080,0.046685800,0.010555100,0.027877300,-0.003611290,0.018680900,-0.287457000,-0.018023200,1749762348.250658989,-0.046218457,-0.008839385,0.150593000,0.651456048,-0.734050000,-1.885310000,0.370287283,1.350600000,,,,,
1749762348.259430,,,,,,,,,,,,,,,,,,1749762348.259429932,0.000000000,0.000000000,0.300000000,0.000000000
1749762348.260665,0.006296460,0.046419300,0.010041600,0.026921000,-0.003851420,0.015742200,-0.287311000,-0.017883300,1749762348.260664940,-0.046066078,-0.008503721,0.150711000,0.649954635,-0.733622000,-1.888160000,0.372120971,1.350630000,,,,,
1749762348.270653,0.006838290,0.046194600,0.009435380,0.024517300,-0.003989420,0.013708700,-0.287418000,-0.017963300,1749762348.270653009,-0.045998607,-0.008051798,0.150853000,0.648422704,-0.733191000,-1.891050000,0.373996881,1.350640000,,,,,
1749762348.279431,,,,,,,,,,,,,,,,,,1749762348.279431105,0.000000000,0.000000000,0.300000000,0.000000000
1749762348.280357,0.007329660,0.045996100,0.008705280,0.022534200,-0.004264400,0.010872400,-0.288130000,-0.018006300,1749762348.280356884,-0.045942264,-0.007659864,0.150993000,0.646850271,-0.732758000,-1.894030000,0.375922731,1.350630000,,,,,
1749762348.290655,0.007828800,0.045768000,0.007960260,0.019942400,-0.004763590,0.006688050,-0.288139000,-0.018157500,1749762348.290654898,-0.045863842,-0.007246238,0.151138000,0.645313984,-0.732331000,-1.896910000,0.377784661,1.350610000,,,,,
1749762348.299431,,,,,,,,,,,,,,,,,,1749762348.299431086,0.000000000,0.000000000,0.300000000,0.000000000
1749762348.300777,0.008215500,0.045630600,0.007239950,0.017237300,-0.005290880,0.002598280,-0.287939000,-0.018351000,1749762348.300776958,-0.045837900,-0.006966568,0.151273000,0.643776552,-0.731893000,-1.899760000,0.379608529,1.350580000,,,,,
1749762348.310662,0.008775120,0.045526600,0.006483390,0.016736800,-0.005675190,-0.000225842,-0.288848000,-0.018251400,1749762348.310662031,-0.045900786,-0.006541548,0.151436000,0.642160971,-0.731452000,-1.902770000,0.381554948,1.350550000,,,,,
1749762348.319436,,,,,,,,,,,,,,,,,,1749762348.319436073,0.000000000,0.000000000,0.300000000,0.000000000
1749762348.320709,0.009450550,0.045378200,0.005727480,0.016606700,-0.006018600,-0.002574070,-0.287841000,-0.018102900,1749762348.320708990,-0.045964344,-0.005981055,0.151622000,0.640638252,-0.731018000,-1.905520000,0.383352550,1.350500000,,,,,
1749762348.330692,0.010022700,0.045321400,0.004855000,0.015465500,-0.006208110,-0.003701340,-0.287435000,-0.018102600,1749762348.330692053,-0.046083234,-0.005551515,0.151800000,0.639079666,-0.730573000,-1.908330000,0.385171817,1.350430000,,,,,
1749762348.339436,,,,,,,,,,,,,,,,,,1749762348.339436054,0.000000000,0.000000000,0.300000000,0.000000000
1749762348.340746,0.010524100,0.045227500,0.003989700,0.013711800,-0.006382540,-0.004647190,-0.287079000,-0.018202800,1749762348.340745926,-0.046146208,-0.005177926,0.151973000,0.637514561,-0.730133000,-1.911160000,0.386995058,1.350350000,,,,,
1749762348.350687,0.011114000,0.045160900,0.003094620,0.013192500,-0.006372350,-0.004257140,-0.285818000,-0.018141100,1749762348.350687027,-0.046267862,-0.004723648,0.152164000,0.635993693,-0.729690000,-1.913840000,0.388733072,1.350260000,,,,,
1749762348.359435,,,,,,,,,,,,,,,,,,1749762348.359435081,0.000000000,0.000000000,0.300000000,0.000000000
1749762348.360723,0.011483300,0.045056900,0.002178450,0.011791700,-0.006193390,-0.002732310,-0.285322000,-0.018212700,1749762348.360723019,-0.046281846,-0.004470028,0.152329000,0.634440536,-0.729254000,-1.916630000,0.390513414,1.350160000,,,,,
1749762348.370621,0.012153700,0.044814300,0.001203990,0.011563700,-0.005760480,0.000435532,-0.284568000,-0.018127900,1749762348.370620966,-0.046270394,-0.003883878,0.152541000,0.632905697,-0.728839000,-1.919370000,0.392307817,1.350040000,,,,,
1749762348.379435,,,,,,,,,,,,,,,,,,1749762348.379435062,0.000000000,0.000000000,0.300000000,0.000000000
1749762348.380748,0.013056700,0.044533600,0.000086968,0.012502000,-0.005498330,0.002209970,-0.284976000,-0.017875900,1749762348.380748034,-0.046306252,-0.003074073,0.152794000,0.631291241,-0.728431000,-1.922280000,0.394244971,1.349890000,,,,,
1749762348.390639,0.013808200,0.044373400,-0.000937678,0.013214400,-0.005235800,0.003864920,-0.286415000,-0.017647400,1749762348.390639067,-0.046407285,-0.002455379,0.153033000,0.629603172,-0.728009000,-1.925340000,0.396252506,1.349740000,,,,,
1749762348.399434,,,,,,,,,,,,,,,,,,1749762348.399434090,0.000000000,0.000000000,0.300000000,0.000000000
1749762348.400634,0.014602900,0.044158800,-0.001906960,0.014245600,-0.004994090,0.005262610,-0.288472000,-0.017365500,1749762348.400634050,-0.046476522,-0.001782479,0.153287000,0.627873020,-0.727597000,-1.928500000,0.398333742,1.349590000,,,,,
1749762348.410761,0.015421200,0.043827200,-0.002920460,0.015431300,-0.004715420,0.006818510,-0.288971000,-0.017050700,1749762348.410761118,-0.046449550,-0.001037369,0.153552000,0.626229035,-0.727203000,-1.931460000,0.400299408,1.349430000,,,,,
1749762348.419434,,,,,,,,,,,,,,,,,,1749762348.419434071,0.000000000,0.000000000,0.300000000,0.000000000
1749762348.420688,0.016346000,0.043621200,-0.003887060,0.016777200,-0.004175420,0.010066100,-0.289228000,-0.016700900,1749762348.420687914,-0.046582670,-0.000235859,0.153840000,0.624569721,-0.726795000,-1.934390000,0.402256611,1.349260000,,,,,
1749762348.430491,0.017095200,0.043433000,-0.004820510,0.018117900,-0.003568660,0.013549600,-0.288513000,-0.016338300,1749762348.430490971,-0.046674513,0.000401539,0.154113000,0.622969383,-0.726386000,-1.937170000,0.404099723,1.349080000,,,,,
1749762348.439438,,,,,,,,,,,,,,,,,,1749762348.439438105,0.000000000,0.000000000,0.300000000,0.000000000
1749762348.440700,0.017840800,0.043206500,-0.005732000,0.018576000,-0.002938680,0.016953300,-0.287825000,-0.016090600,1749762348.440700054,-0.046733250,0.001048413,0.154392000,0.621364864,-0.725985000,-1.939960000,0.405951741,1.348900000,,,,,
1749762348.450622,0.018579400,0.042994500,-0.006565720,0.019493400,-0.002322720,0.020026000,-0.287235000,-0.015771600,1749762348.450622082,-0.046806923,0.001683166,0.154678000,0.619751388,-0.725583000,-1.942750000,0.407804108,1.348720000,,,,,
1749762348.459436,,,,,,,,,,,,,,,,,,1749762348.459435940,0.000000000,0.000000000,0.300000000,0.000000000
1749762348.460698,0.019397800,0.042859100,-0.007384790,0.019880800,-0.001679660,0.023074000,-0.288157000,-0.015520300,1749762348.460697889,-0.046985515,0.002353397,0.154982000,0.618028242,-0.725173000,-1.945760000,0.409800430,1.348540000,,,,,
1749762348.470728,0.020116400,0.042663500,-0.008220360,0.019938600,-0.001329590,0.023895300,-0.288087000,-0.015313100,1749762348.470727921,-0.047075369,0.002958611,0.155281000,0.616367481,-0.724773000,-1.948630000,0.411702828,1.348340000,,,,,
1749762348.479437,,,,,,,,,,,,,,,,,,1749762348.479437113,0.000000000,0.000000000,0.300000000,0.000000000
1749762348.480625,0.020882700,0.042471000,-0.008953220,0.020644000,-0.000814280,0.025797500,-0.289964000,-0.015011300,1749762348.480624914,-0.047190694,0.003593243,0.155593000,0.614581158,-0.724374000,-1.951780000,0.413783608,1.348160000,,,,,
1749762348.490633,0.021534500,0.042312000,-0.009665580,0.020267100,-0.000360234,0.027147100,-0.291175000,-0.014859600,1749762348.490633011,-0.047298344,0.004111771,0.155897000,0.612818098,-0.723973000,-1.954860000,0.415806155,1.347960000,,,,,
1749762348.499431,,,,,,,,,,,,,,,,,,1749762348.499430895,0.000000000,0.000000000,0.300000000,0.000000000
1749762348.500620,0.022215500,0.042276400,-0.010393900,0.018401200,-0.000011061,0.027681900,-0.291269000,-0.014928000,1749762348.500619888,-0.047534189,0.004617719,0.156211000,0.611095741,-0.723555000,-1.957780000,0.417726836,1.347760000,,,,,
1749762348.510980,0.022834500,0.042184600,-0.011218400,0.016618500,0.000216163,0.027340600,-0.292847000,-0.015003000,1749762348.510979891,-0.047699010,0.005075364,0.156523000,0.609279023,-0.723145000,-1.960930000,0.419782340,1.347540000,,,,,
1749762348.519438,,,,,,,,,,,,,,,,,,1749762348.519438028,0.000000000,0.000000000,0.300000000,0.000000000
1749762348.520372,0.023356100,0.042008500,-0.012119200,0.016332000,0.000381680,0.026598000,-0.294432000,-0.014878400,1749762348.520371914,-0.047751994,0.005474351,0.156827000,0.607471420,-0.722749000,-1.964080000,0.421828518,1.347290000,,,,,
1749762348.530636,0.023715600,0.041907500,-0.012975200,0.016020300,0.000366904,0.024665500,-0.294773000,-0.014760400,1749762348.530636072,-0.047813794,0.005701696,0.157113000,0.605719196,-0.722344000,-1.967080000,0.423756540,1.347050000,,,,,
1749762348.539432,,,,,,,,,,,,,,,,,,1749762348.539432049,0.000000000,0.000000000,0.300000000,0.000000000
1749762348.540661,0.024078200,0.041932800,-0.013780300,0.016568200,0.000424915,0.023367000,-0.296176000,-0.014520600,1749762348.540661097,-0.047995840,0.005875272,0.157403000,0.603878878,-0.721921000,-1.970230000,0.425765118,1.346800000,,,,,
1749762348.550640,0.024400100,0.041951200,-0.014520200,0.016565000,0.000561725,0.022700300,-0.297521000,-0.014355400,1749762348.550640106,-0.048157217,0.006012530,0.157690000,0.602029738,-0.721499000,-1.973390000,0.427769958,1.346560000,,,,,
1749762348.559436,,,,,,,,,,,,,,,,,,1749762348.559436083,0.000000000,0.000000000,0.300000000,0.000000000
1749762348.560645,0.024759500,0.041749200,-0.015164800,0.015895600,0.000660462,0.021817400,-0.298443000,-0.014287000,1749762348.560645103,-0.048131923,0.006272680,0.157987000,0.600220907,-0.721109000,-1.976500000,0.429759170,1.346320000,,,,,
1749762348.570350,0.025142500,0.041492100,-0.015835500,0.016422600,0.000764223,0.021029900,-0.299249000,-0.014051400,1749762348.570349932,-0.048067470,0.006577081,0.158290000,0.598416639,-0.720729000,-1.979600000,0.431744765,1.346070000,,,,,
1749762348.579482,,,,,,,,,,,,,,,,,,1749762348.579482079,0.000000000,0.000000000,0.300000000,0.000000000
1749762348.580742,0.025464600,0.041301600,-0.016448500,0.016657300,0.000980240,0.021069300,-0.300398000,-0.013853100,1749762348.580741882,-0.048042423,0.006796585,0.158588000,0.596574479,-0.720341000,-1.982760000,0.433751312,1.345820000,,,,,
1749762348.590613,0.025731300,0.041135100,-0.017038700,0.013958200,0.001147380,0.020769500,-0.300883000,-0.014078700,1749762348.590612888,-0.048018237,0.006960258,0.158881000,0.594765935,-0.719952000,-1.985830000,0.435692021,1.345570000,,,,,
1749762348.599456,,,,,,,,,,,,,,,,,,1749762348.599456072,0.000000000,0.000000000,0.300000000,0.000000000
1749762348.600974,0.026081300,0.040904500,-0.017614200,0.013259700,0.001217760,0.019824300,-0.301265000,-0.014040600,1749762348.600974083,-0.047970752,0.007226290,0.159190000,0.592955572,-0.719575000,-1.988900000,0.437645206,1.345320000,,,,,
1749762348.610649,0.026269800,0.040613900,-0.018270400,0.013320900,0.001431210,0.019929000,-0.301731000,-0.013899100,1749762348.610649109,-0.047804645,0.007369342,0.159478000,0.591152142,-0.719208000,-1.991980000,0.439582217,1.345040000,,,,,
1749762348.619476,,,,,,,,,,,,,,,,,,1749762348.619476080,0.000000000,0.000000000,0.300000000,0.000000000
1749762348.620938,0.026484200,0.040265500,-0.018943400,0.013531200,0.001683250,0.020292100,-0.302566000,-0.013735300,1749762348.620938063,-0.047598315,0.007558023,0.159772000,0.589323471,-0.718852000,-1.995120000,0.441557625,1.344760000,,,,,
1749762348.630644,0.026850800,0.039920400,-0.019562900,0.013914400,0.001897960,0.020373200,-0.303382000,-0.013544300,1749762348.630644083,-0.047459744,0.007885207,0.160090000,0.587481919,-0.718500000,-1.998260000,0.443549381,1.344480000,,,,,
1749762348.639433,,,,,,,,,,,,,,,,,,1749762348.639432907,0.000000000,0.000000000,0.300000000,0.000000000
1749762348.640935,0.027261400,0.039602400,-0.020215500,0.015753500,0.002092620,0.020310700,-0.304189000,-0.013138000,1749762348.640934944,-0.047366773,0.008241528,0.160418000,0.585624135,-0.718147000,-2.001410000,0.445548449,1.344190000,,,,,
1749762348.650618,0.027693800,0.039287600,-0.020900500,0.017440000,0.002212230,0.019736000,-0.303119000,-0.012735500,1749762348.650618076,-0.047286344,0.008629240,0.160753000,0.583874806,-0.717796000,-2.004300000,0.447395614,1.343890000,,,,,
1749762348.659436,,,,,,,,,,,,,,,,,,1749762348.659435987,0.000000000,0.000000000,0.300000000,0.000000000
1749762348.660661,0.028047000,0.039053100,-0.021599700,0.018537100,0.002369120,0.019457500,-0.302159000,-0.012401700,1749762348.660660982,-0.047247850,0.008911762,0.161082000,0.582115888,-0.717438000,-2.007190000,0.449227991,1.343580000,,,,,
1749762348.670361,0.028265900,0.038829400,-0.022213200,0.019675700,0.002614260,0.019805500,-0.300834000,-0.012050900,1749762348.670361042,-0.047163499,0.009071263,0.161394000,0.580385550,-0.717080000,-2.010020000,0.451003729,1.343280000,,,,,
1749762348.679432,,,,,,,,,,,,,,,,,,1749762348.679431915,0.000000000,0.000000000,0.300000000,0.000000000
1749762348.680725,0.028399900,0.038494700,-0.022760300,0.020315000,0.002828600,0.019917600,-0.300751000,-0.011761200,1749762348.680725098,-0.046945251,0.009194546,0.161696000,0.578597924,-0.716740000,-2.013010000,0.452864512,1.342980000,,,,,
1749762348.690744,0.028568900,0.038193700,-0.023282100,0.020817700,0.002960920,0.019457400,-0.300558000,-0.011485100,1749762348.690743923,-0.046773558,0.009336756,0.162005000,0.576804993,-0.716399000,-2.015990000,0.454718756,1.342670000,,,,,
1749762348.699430,,,,,,,,,,,,,,,,,,1749762348.699429989,0.000000000,0.000000000,0.300000000,0.000000000
1749762348.700860,0.028612600,0.038012100,-0.023765100,0.021495500,0.003087540,0.018989700,-0.300908000,-0.011178400,1749762348.700860023,-0.046657190,0.009311672,0.162297000,0.574963476,-0.716043000,-2.019050000,0.456590512,1.342370000,,,,,
1749762348.710750,0.028556800,0.037822900,-0.024128700,0.021131700,0.003281200,0.019015600,-0.301004000,-0.011016300,1749762348.710750103,-0.046490504,0.009203024,0.162575000,0.573143951,-0.715691000,-2.022070000,0.458421475,1.342080000,,,,,
1749762348.719435,,,,,,,,,,,,,,,,,,1749762348.719434977,0.000000000,0.000000000,0.300000000,0.000000000
1749762348.720813,0.028438500,0.037627500,-0.024522100,0.020184900,0.003537600,0.019471600,-0.301083000,-0.010942500,1749762348.720813036,-0.046290591,0.009042027,0.162843000,0.571324801,-0.715341000,-2.025090000,0.460237504,1.341780000,,,,,
1749762348.730596,0.028313900,0.037343900,-0.024876900,0.017987200,0.003757410,0.019644300,-0.301958000,-0.011060000,1749762348.730596066,-0.046009282,0.008910091,0.163109000,0.569458805,-0.715006000,-2.028230000,0.462119893,1.341480000,,,,,
1749762348.739431,,,,,,,,,,,,,,,,,,1749762348.739430904,0.000000000,0.000000000,0.300000000,0.000000000
1749762348.740694,0.028233900,0.036986100,-0.025159400,0.018087800,0.004035280,0.020204800,-0.303480000,-0.010865500,1749762348.740694046,-0.045681845,0.008848375,0.163381000,0.567549199,-0.714684000,-2.031470000,0.464063010,1.341190000,,,,,
1749762348.750669,0.028253900,0.036664700,-0.025417800,0.021094900,0.004102720,0.019278300,-0.304409000,-0.010247700,1749762348.750669003,-0.045431172,0.008865197,0.163666000,0.565658893,-0.714361000,-2.034640000,0.465970186,1.340900000,,,,,
1749762348.759432,,,,,,,,,,,,,,,,,,1749762348.759432077,0.000000000,0.000000000,0.300000000,0.000000000
1749762348.760695,0.028210600,0.036398700,-0.025629500,0.022671400,0.004077320,0.017776400,-0.305790000,-0.009807760,1749762348.760694981,-0.045202740,0.008798615,0.163942000,0.563724359,-0.714033000,-2.037890000,0.467904853,1.340620000,,,,,
1749762348.770616,0.028233700,0.036013800,-0.025838600,0.023872500,0.004200560,0.017401200,-0.306661000,-0.009406550,1749762348.770616055,-0.044897841,0.008849828,0.164228000,0.561829414,-0.713725000,-2.041070000,0.469810516,1.340330000,,,,,
1749762348.779433,,,,,,,,,,,,,,,,,,1749762348.779433012,0.000000000,0.000000000,0.300000000,0.000000000
1749762348.780627,0.028313500,0.035594100,-0.026005000,0.023885000,0.004125720,0.015688300,-0.308331000,-0.009166000,1749762348.780627012,-0.044589776,0.008963602,0.164522000,0.559871087,-0.713426000,-2.044380000,0.471792869,1.340050000,,,,,
1749762348.790612,0.028282500,0.035047600,-0.026191800,0.022281000,0.003773810,0.012186200,-0.309048000,-0.009160190,1749762348.790611982,-0.044118362,0.009044569,0.164800000,0.557989535,-0.713149000,-2.047570000,0.473696332,1.339760000,,,,,
1749762348.799442,,,,,,,,,,,,,,,,,,1749762348.799442053,0.000000000,0.000000000,0.300000000,0.000000000
1749762348.800665,0.028385100,0.034587300,-0.026294900,0.020747700,0.003622150,0.010303500,-0.310386000,-0.009160130,1749762348.800664902,-0.043786902,0.009203395,0.165098000,0.556044175,-0.712866000,-2.050850000,0.475657607,1.339490000,,,,,
1749762348.810461,0.028391900,0.034175600,-0.026243200,0.019489000,0.003938700,0.011773100,-0.311085000,-0.009135520,1749762348.810461044,-0.043454825,0.009260118,0.165383000,0.554128772,-0.712580000,-2.054060000,0.477559522,1.339230000,,,,,
1749762348.819432,,,,,,,,,,,,,,,,,,1749762348.819432020,0.000000000,0.000000000,0.300000000,0.000000000
1749762348.820616,0.028316200,0.033785600,-0.026070300,0.018379900,0.004307840,0.013503600,-0.310342000,-0.009101760,1749762348.820616007,-0.043102240,0.009245044,0.165656000,0.552313174,-0.712294000,-2.057060000,0.479327456,1.338990000,,,,,
1749762348.830745,0.028155300,0.033405200,-0.025932100,0.016834200,0.004664730,0.015030700,-0.307073000,-0.009142530,1749762348.830744982,-0.042715002,0.009168257,0.165916000,0.550679561,-0.712012000,-2.059690000,0.480875481,1.338750000,,,,,
1749762348.839432,,,,,,,,,,,,,,,,,,1749762348.839432001,0.000000000,0.000000000,0.300000000,0.000000000
1749762348.840640,0.028104400,0.032992000,-0.025728900,0.016220400,0.004994130,0.016263400,-0.303523000,-0.009063360,1749762348.840640068,-0.042350015,0.009208993,0.166190000,0.549075842,-0.711738000,-2.062250000,0.482395912,1.338520000,,,,,
1749762348.850660,0.028054200,0.032603300,-0.025584400,0.015980600,0.005342110,0.017539200,-0.301280000,-0.008936000,1749762348.850660086,-0.042008716,0.009234775,0.166463000,0.547400672,-0.711464000,-2.064950000,0.483987044,1.338290000,,,,,
1749762348.859433,,,,,,,,,,,,,,,,,,1749762348.859432936,0.000000000,0.000000000,0.300000000,0.000000000
1749762348.860621,0.027857800,0.032122200,-0.025390500,0.014302100,0.005624770,0.018277500,-0.299177000,-0.009020040,1749762348.860620975,-0.041517044,0.009177572,0.166716000,0.545741416,-0.711208000,-2.067660000,0.485569100,1.338060000,,,,,
1749762348.870605,0.027440000,0.031418500,-0.024996600,0.012713000,0.005877500,0.018759100,-0.294694000,-0.009107900,1749762348.870604992,-0.040720570,0.009050464,0.166933000,0.544307533,-0.710989000,-2.070000000,0.486930482,1.337860000,,,,,
1749762348.879456,,,,,,,,,,,,,,,,,,1749762348.879456043,0.000000000,0.000000000,0.300000000,0.000000000
1749762348.880678,0.027323800,0.030980300,-0.024882300,0.012694100,0.006208290,0.019744700,-0.295509000,-0.008983520,1749762348.880677938,-0.040308144,0.009034519,0.167191000,0.542466765,-0.710739000,-2.073070000,0.488704988,1.337630000,,,,,
1749762348.890696,0.027183100,0.030506700,-0.024717800,0.012693900,0.006379100,0.019561300,-0.297230000,-0.008856600,1749762348.890696049,-0.039854344,0.009011710,0.167444000,0.540566764,-0.710498000,-2.076270000,0.490543040,1.337400000,,,,,
1749762348.899458,,,,,,,,,,,,,,,,,,1749762348.899457932,0.000000000,0.000000000,0.300000000,0.000000000
1749762348.900682,0.026819800,0.029823900,-0.024355700,0.012581300,0.006526330,0.019228300,-0.296098000,-0.008746010,1749762348.900681973,-0.039106218,0.008914616,0.167663000,0.538899666,-0.710292000,-2.079080000,0.492151153,1.337210000,,,,,
1749762348.910651,0.026779400,0.029407200,-0.024130700,0.010778800,0.006308740,0.016407100,-0.296782000,-0.008882080,1749762348.910650969,-0.038750145,0.008963589,0.167925000,0.537055396,-0.710054000,-2.082140000,0.493909901,1.337000000,,,,,
1749762348.919454,,,,,,,,,,,,,,,,,,1749762348.919454098,0.000000000,0.000000000,0.300000000,0.000000000
1749762348.920775,0.026807400,0.028999800,-0.023918000,0.009099860,0.005986670,0.013060900,-0.297733000,-0.009018210,1749762348.920774937,-0.038436945,0.009067873,0.168197000,0.535178319,-0.709819000,-2.085250000,0.495698911,1.336790000,,,,,
1749762348.930940,0.026695000,0.028595200,-0.023651500,0.006606070,0.005682830,0.010070500,-0.298774000,-0.009289510,1749762348.930939913,-0.038057922,0.009050033,0.168449000,0.533298735,-0.709588000,-2.088380000,0.497476286,1.336590000,,,,,
1749762348.939462,,,,,,,,,,,,,,,,,,1749762348.939461946,0.000000000,0.000000000,0.300000000,0.000000000
1749762348.940642,0.026676800,0.028290700,-0.023444700,0.003593030,0.005681300,0.009366800,-0.301754000,-0.009661190,1749762348.940642118,-0.037815492,0.009055602,0.168713000,0.531252953,-0.709346000,-2.091800000,0.499405771,1.336380000,,,,,
1749762348.950852,0.026451400,0.027984500,-0.023210200,-0.000286239,0.005738640,0.009116740,-0.303526000,-0.010188800,1749762348.950851917,-0.037466996,0.008890050,0.168947000,0.529293888,-0.709108000,-2.095070000,0.501223727,1.336180000,,,,,
1749762348.959462,,,,,,,,,,,,,,,,,,1749762348.959461927,0.000000000,0.000000000,0.300000000,0.000000000
1749762348.960649,0.026188400,0.027595600,-0.022881900,-0.003754540,0.005801770,0.008923760,-0.303979000,-0.010695600,1749762348.960649014,-0.037025956,0.008742313,0.169173000,0.527431114,-0.708885000,-2.098170000,0.502945193,1.336000000,,,,,
1749762348.970648,0.025960200,0.027219700,-0.022468900,-0.005887590,0.005920360,0.009125840,-0.304807000,-0.011043000,1749762348.970648050,-0.036613701,0.008618640,0.169402000,0.525531821,-0.708663000,-2.101330000,0.504694552,1.335830000,,,,,
1749762348.979462,,,,,,,,,,,,,,,,,,1749762348.979461908,0.000000000,0.000000000,0.300000000,0.000000000
1749762348.980762,0.025679800,0.026891100,-0.021919400,-0.007350110,0.006159960,0.010146900,-0.304464000,-0.011314400,1749762348.980762005,-0.036213857,0.008434450,0.169621000,0.523711128,-0.708439000,-2.104330000,0.506343514,1.335680000,,,,,
