__time,filtered_pose/dx,filtered_pose/dy,filtered_pose/dz,filtered_pose/p,filtered_pose/pitch,filtered_pose/q,filtered_pose/r,filtered_pose/roll,filtered_pose/timestamp,filtered_pose/vxb,filtered_pose/vyb,filtered_pose/x,filtered_pose/xb,filtered_pose/y,filtered_pose/yaw,filtered_pose/yb,filtered_pose/z,u_control/timestamp,u_control/ux,u_control/uy,u_control/uyaw,u_control/uz
1749762274.809653,0.002846880,-0.010348300,0.019083500,-0.019041400,-0.012873700,0.019228500,-0.006069210,-0.014617400,1749762274.809653044,0.010051697,0.003762369,0.166951000,0.656079326,-0.673742000,-1.660490000,0.226629294,1.347330000,,,,,
1749762274.819573,,,,,,,,,,,,,,,,,,1749762274.819572926,0.000000000,0.000000000,0.007539230,0.000000000
1749762274.819977,0.002504290,-0.009315360,0.017856300,-0.021240500,-0.012439200,0.020896100,-0.001733350,-0.015127300,1749762274.819977045,0.009055492,0.003323471,0.166929000,0.656163543,-0.673695000,-1.659920000,0.226229196,1.347340000,,,,,
1749762274.829872,0.002374030,-0.008353240,0.016586300,-0.023706600,-0.012013300,0.022389500,0.000581246,-0.015698000,1749762274.829871893,0.008109779,0.003105499,0.166935000,0.656189552,-0.673649000,-1.659600000,0.226021109,1.347330000,,,,,
1749762274.839582,,,,,,,,,,,,,,,,,,1749762274.839581966,0.000000000,0.000000000,0.015074900,0.000000000
1749762274.839900,0.002286270,-0.007350030,0.015330900,-0.026125500,-0.011638400,0.023428800,0.003329740,-0.016286500,1749762274.839900017,0.007119476,0.002926266,0.166946000,0.656216182,-0.673586000,-1.659200000,0.225764010,1.347320000,,,,,
1749762274.849932,0.002310630,-0.006337760,0.014127900,-0.028982700,-0.011325700,0.023968500,0.006208740,-0.016962900,1749762274.849931955,0.006110295,0.002858409,0.166973000,0.656242620,-0.673513000,-1.658750000,0.225489173,1.347300000,,,,,
1749762274.859575,,,,,,,,,,,,,,,,,,1749762274.859575033,0.000000000,0.000000000,0.022603400,0.000000000
1749762274.859900,0.002279240,-0.005347010,0.012924300,-0.030621300,-0.010942800,0.024954400,0.008601130,-0.017490700,1749762274.859899998,0.005127255,0.002738011,0.166991000,0.656252752,-0.673432000,-1.658340000,0.225230944,1.347260000,,,,,
1749762274.869721,0.002305970,-0.004400600,0.011738600,-0.032407600,-0.010573600,0.025777700,0.010445200,-0.018056500,1749762274.869720936,0.004183098,0.002680386,0.167018000,0.656247761,-0.673348000,-1.657980000,0.225014262,1.347220000,,,,,
1749762274.879570,,,,,,,,,,,,,,,,,,1749762274.879570007,0.000000000,0.000000000,0.030121200,0.000000000
1749762274.879890,0.002515340,-0.003484300,0.010566500,-0.031844800,-0.010099800,0.027265000,0.011293200,-0.018298800,1749762274.879889965,0.003252665,0.002808460,0.167071000,0.656203981,-0.673259000,-1.657760000,0.224914951,1.347170000,,,,,
1749762274.890053,0.002670940,-0.002624260,0.009436770,-0.031218400,-0.009650340,0.028481700,0.011796200,-0.018526200,1749762274.890053034,0.002382910,0.002888322,0.167119000,0.656152882,-0.673169000,-1.657570000,0.224830288,1.347110000,,,,,
1749762274.899572,,,,,,,,,,,,,,,,,,1749762274.899571896,0.000000000,0.000000000,0.037624800,0.000000000
1749762274.899896,0.002833630,-0.001791820,0.008245020,-0.029881300,-0.009257510,0.029225200,0.012341000,-0.018644200,1749762274.899895906,0.001540098,0.002977948,0.167170000,0.656098781,-0.673074000,-1.657370000,0.224741648,1.347030000,,,,,
1749762274.910081,0.002946130,-0.000957720,0.007095370,-0.028321700,-0.008826820,0.030178100,0.012834400,-0.018716400,1749762274.910080910,0.000699968,0.003017773,0.167214000,0.656035058,-0.672971000,-1.657180000,0.224651934,1.346940000,,,,,
1749762274.919574,,,,,,,,,,,,,,,,,,1749762274.919574022,0.000000000,0.000000000,0.045110500,0.000000000
1749762274.919906,0.003307790,-0.000229995,0.005913410,-0.025574800,-0.008517690,0.030228600,0.012667000,-0.018600500,1749762274.919905901,-0.000055882,0.003315305,0.167296000,0.655957057,-0.672875000,-1.657070000,0.224653192,1.346840000,,,,,
1749762274.929895,0.003530510,0.000527649,0.004854580,-0.021376600,-0.008297430,0.029664100,0.011946600,-0.018246400,1749762274.929894924,-0.000829829,0.003471930,0.167362000,0.655848266,-0.672767000,-1.657050000,0.224696524,1.346750000,,,,,
1749762274.939578,,,,,,,,,,,,,,,,,,1749762274.939578056,0.000000000,0.000000000,0.052574900,0.000000000
1749762274.940071,0.003800550,0.001229750,0.003866080,-0.018262200,-0.008108820,0.028920400,0.009467230,-0.018007700,1749762274.940071106,-0.001553467,0.003680110,0.167436000,0.655681327,-0.672660000,-1.657290000,0.224918401,1.346650000,,,,,
1749762274.949860,0.004121390,0.001968770,0.002888700,-0.015760600,-0.007871180,0.028565500,0.006202600,-0.017826800,1749762274.949860096,-0.002318936,0.003935028,0.167521000,0.655468888,-0.672540000,-1.657670000,0.225241811,1.346550000,,,,,
1749762274.959578,,,,,,,,,,,,,,,,,,1749762274.959578037,0.000000000,0.000000000,0.060014300,0.000000000
1749762274.959956,0.004305390,0.002688540,0.001821890,-0.014073800,-0.007599970,0.028466100,0.003656210,-0.017739400,1749762274.959955931,-0.003053213,0.004054938,0.167589000,0.655269582,-0.672416000,-1.657980000,0.225501941,1.346420000,,,,,
1749762274.969729,0.004458210,0.003328960,0.000841146,-0.011443900,-0.007242040,0.028970400,0.000555449,-0.017498100,1749762274.969728947,-0.003706209,0.004149895,0.167654000,0.655051845,-0.672296000,-1.658390000,0.225824835,1.346300000,,,,,
1749762274.979578,,,,,,,,,,,,,,,,,,1749762274.979578018,0.000000000,0.000000000,0.067425400,0.000000000
1749762274.980063,0.004552980,0.003878030,-0.000115560,-0.009439050,-0.006933280,0.029101500,-0.001047100,-0.017321200,1749762274.980062962,-0.004262430,0.004195288,0.167712000,0.654882236,-0.672183000,-1.658620000,0.226023356,1.346170000,,,,,
1749762274.989964,0.004690030,0.004293670,-0.000994185,-0.006775520,-0.006631850,0.029173300,-0.001752240,-0.017028600,1749762274.989964008,-0.004688961,0.004294837,0.167778000,0.654752956,-0.672084000,-1.658730000,0.226152443,1.346040000,,,,,
1749762274.999579,,,,,,,,,,,,,,,,,,1749762274.999578953,0.000000000,0.000000000,0.074804600,0.000000000
1749762274.999941,0.004751280,0.004572210,-0.001868140,-0.002012960,-0.006482810,0.028191100,-0.000292322,-0.016404500,1749762274.999941111,-0.004970981,0.004332334,0.167834000,0.654707329,-0.672000000,-1.658540000,0.226076459,1.345900000,,,,,
1749762275.009844,0.004823750,0.004789050,-0.002778650,0.004079920,-0.006444410,0.026515000,0.000492435,-0.015539400,1749762275.009844065,-0.005192855,0.004386094,0.167892000,0.654650412,-0.671923000,-1.658430000,0.226055478,1.345750000,,,,,
1749762275.019570,,,,,,,,,,,,,,,,,,1749762275.019570112,0.000000000,0.000000000,0.082148400,0.000000000
1749762275.019797,0.005093040,0.005054340,-0.003652870,0.011032500,-0.006490160,0.024374900,-0.000240196,-0.014488600,1749762275.019797087,-0.005481158,0.004630584,0.167979000,0.654534511,-0.671837000,-1.658530000,0.226200072,1.345600000,,,,,
1749762275.030115,0.005307120,0.005322240,-0.004453210,0.017540300,-0.006502990,0.022608900,-0.001720450,-0.013432800,1749762275.030114889,-0.005767846,0.004819098,0.168061000,0.654387876,-0.671747000,-1.658750000,0.226417842,1.345440000,,,,,
1749762275.039566,,,,,,,,,,,,,,,,,,1749762275.039566040,0.000000000,0.000000000,0.089453400,0.000000000
1749762275.039673,0.005437760,0.005580480,-0.005176800,0.022681500,-0.006395870,0.021790000,-0.003236970,-0.012510400,1749762275.039673090,-0.006037697,0.004925161,0.168133000,0.654239792,-0.671657000,-1.658980000,0.226632139,1.345300000,,,,,
1749762275.049943,0.005586430,0.005811560,-0.005805380,0.026059100,-0.006240960,0.021356500,-0.004040400,-0.011792900,1749762275.049942970,-0.006281730,0.005051960,0.168209000,0.654109436,-0.671567000,-1.659130000,0.226798036,1.345150000,,,,,
1749762275.059581,,,,,,,,,,,,,,,,,,1749762275.059581041,0.000000000,0.000000000,0.096716200,0.000000000
1749762275.059807,0.005718950,0.005944810,-0.006300720,0.028331600,-0.006109370,0.020792200,-0.004340620,-0.011202200,1749762275.059807062,-0.006426617,0.005171630,0.168284000,0.654005699,-0.671490000,-1.659220000,0.226924812,1.345020000,,,,,
1749762275.069721,0.005793580,0.006019950,-0.006701980,0.029581200,-0.006114310,0.019327000,-0.004267450,-0.010737300,1749762275.069720984,-0.006508211,0.005239138,0.168352000,0.653922161,-0.671419000,-1.659250000,0.227005895,1.344900000,,,,,
1749762275.079576,,,,,,,,,,,,,,,,,,1749762275.079576015,0.000000000,0.000000000,0.103933000,0.000000000
1749762275.080017,0.005809850,0.006094020,-0.007047370,0.029524500,-0.006142350,0.017803700,-0.004054930,-0.010449700,1749762275.080017090,-0.006583481,0.005248735,0.168412000,0.653843868,-0.671348000,-1.659260000,0.227065926,1.344780000,,,,,
1749762275.089971,0.005832360,0.006153570,-0.007384100,0.029651700,-0.006197760,0.016196800,-0.003816980,-0.010136000,1749762275.089971066,-0.006644839,0.005265829,0.168474000,0.653767389,-0.671279000,-1.659270000,0.227128126,1.344660000,,,,,
1749762275.099569,,,,,,,,,,,,,,,,,,1749762275.099569082,0.000000000,0.000000000,0.111101000,0.000000000
1749762275.099982,0.005806540,0.006167230,-0.007731610,0.029695000,-0.006316980,0.014261400,-0.003645980,-0.009833200,1749762275.099982023,-0.006656217,0.005238837,0.168528000,0.653696596,-0.671215000,-1.659280000,0.227182796,1.344540000,,,,,
1749762275.109717,0.005721430,0.006182640,-0.008013880,0.030162100,-0.006516180,0.011908600,-0.002660190,-0.009468390,1749762275.109716892,-0.006663530,0.005153364,0.168574000,0.653651501,-0.671151000,-1.659180000,0.227157597,1.344420000,,,,,
1749762275.119585,,,,,,,,,,,,,,,,,,1749762275.119585037,0.000000000,0.000000000,0.118217000,0.000000000
1749762275.120023,0.005731910,0.006154080,-0.008316590,0.028441900,-0.006776290,0.009298560,-0.002189220,-0.009416690,1749762275.120023012,-0.006635748,0.005166656,0.168633000,0.653600875,-0.671094000,-1.659130000,0.227178656,1.344300000,,,,,
1749762275.129918,0.005782040,0.006069950,-0.008506820,0.026691900,-0.007088780,0.006507620,-0.001094360,-0.009386510,1749762275.129918098,-0.006555690,0.005224865,0.168697000,0.653574959,-0.671044000,-1.659000000,0.227153032,1.344190000,,,,,
1749762275.139575,,,,,,,,,,,,,,,,,,1749762275.139575005,0.000000000,0.000000000,0.125277000,0.000000000
1749762275.139910,0.005841190,0.005951120,-0.008682540,0.024868500,-0.007421920,0.003766600,0.000724704,-0.009384490,1749762275.139909983,-0.006441155,0.005295927,0.168764000,0.653585279,-0.671001000,-1.658740000,0.227046059,1.344080000,,,,,
1749762275.149885,0.005807110,0.005819480,-0.008859370,0.022310100,-0.007852080,0.000546494,0.003059700,-0.009507500,1749762275.149884939,-0.006305237,0.005275685,0.168817000,0.653617953,-0.670961000,-1.658400000,0.226873124,1.343960000,,,,,
1749762275.159586,,,,,,,,,,,,,,,,,,1749762275.159585953,0.000000000,0.000000000,0.132277000,0.000000000
1749762275.159928,0.005867320,0.005704180,-0.009006570,0.019256700,-0.008357100,-0.002967260,0.004322730,-0.009728000,1749762275.159928083,-0.006194471,0.005347115,0.168884000,0.653620162,-0.670919000,-1.658180000,0.226792402,1.343850000,,,,,
1749762275.169745,0.005844280,0.005634270,-0.009141110,0.016533800,-0.008779340,-0.005669400,0.005129300,-0.009931020,1749762275.169744968,-0.006121964,0.005331244,0.168939000,0.653604828,-0.670872000,-1.658020000,0.226738516,1.343740000,,,,,
1749762275.179573,,,,,,,,,,,,,,,,,,1749762275.179573059,0.000000000,0.000000000,0.139216000,0.000000000
1749762275.179977,0.005831420,0.005568430,-0.009314520,0.014151000,-0.009122100,-0.007638380,0.005669670,-0.010111900,1749762275.179976940,-0.006054562,0.005324955,0.168996000,0.653582519,-0.670825000,-1.657890000,0.226706242,1.343630000,,,,,
1749762275.189897,0.005818040,0.005590380,-0.009420500,0.011782700,-0.009455110,-0.009404810,0.005018770,-0.010314400,1749762275.189897060,-0.006075478,0.005309474,0.169052000,0.653510797,-0.670767000,-1.657930000,0.226783125,1.343520000,,,,,
1749762275.199577,,,,,,,,,,,,,,,,,,1749762275.199577093,0.000000000,0.000000000,0.146089000,0.000000000
1749762275.199903,0.005816630,0.005634850,-0.009537740,0.009173680,-0.009809690,-0.011198100,0.003872230,-0.010575600,1749762275.199903011,-0.006120293,0.005303465,0.169110000,0.653415763,-0.670704000,-1.658050000,0.226913834,1.343410000,,,,,
1749762275.209795,0.005750070,0.005645980,-0.009681800,0.007752860,-0.010152300,-0.012785600,0.002619580,-0.010690300,1749762275.209794998,-0.006126313,0.005235330,0.169159000,0.653321933,-0.670646000,-1.658190000,0.227049061,1.343290000,,,,,
1749762275.219573,,,,,,,,,,,,,,,,,,1749762275.219573021,0.000000000,0.000000000,0.152893000,0.000000000
1749762275.219884,0.005713180,0.005661730,-0.009848890,0.007448470,-0.010457800,-0.014008200,0.001075050,-0.010657000,1749762275.219883919,-0.006139822,0.005195979,0.169211000,0.653213188,-0.670587000,-1.658390000,0.227226360,1.343170000,,,,,
1749762275.229870,0.005606500,0.005687600,-0.010056200,0.006149880,-0.010864800,-0.015845300,0.000869191,-0.010771200,1749762275.229870081,-0.006156362,0.005087321,0.169253000,0.653145198,-0.670527000,-1.658410000,0.227276013,1.343040000,,,,,
1749762275.239569,,,,,,,,,,,,,,,,,,1749762275.239568949,0.000000000,0.000000000,0.159625000,0.000000000
1749762275.239882,0.005483450,0.005744750,-0.010253300,0.004563890,-0.011180400,-0.016927200,0.000864146,-0.010940100,1749762275.239881992,-0.006202477,0.004959805,0.169291000,0.653079395,-0.670462000,-1.658400000,0.227301648,1.342910000,,,,,
1749762275.249970,0.005453090,0.005794880,-0.010527900,0.004042610,-0.011537500,-0.018219800,0.000053239,-0.010970200,1749762275.249969959,-0.006250300,0.004924488,0.169341000,0.652985258,-0.670397000,-1.658510000,0.227417600,1.342770000,,,,,
1749762275.259566,,,,,,,,,,,,,,,,,,1749762275.259566069,0.000000000,0.000000000,0.166283000,0.000000000
1749762275.259788,0.005513020,0.005838920,-0.010796100,0.004061770,-0.011535600,-0.016952900,-0.001616860,-0.010927000,1749762275.259788036,-0.006300615,0.004978817,0.169405000,0.652861285,-0.670333000,-1.658750000,0.227632440,1.342630000,,,,,
1749762275.269628,0.005535190,0.005829920,-0.011080000,0.002672250,-0.011462100,-0.015280100,-0.003139160,-0.011088300,1749762275.269628048,-0.006294798,0.005000181,0.169463000,0.652744747,-0.670276000,-1.658990000,0.227841874,1.342480000,,,,,
1749762275.279593,,,,,,,,,,,,,,,,,,1749762275.279592991,0.000000000,0.000000000,0.172862000,0.000000000
1749762275.279899,0.005534830,0.005867090,-0.011335100,0.002520160,-0.011317100,-0.013230100,-0.005552950,-0.011083600,1749762275.279898882,-0.006333690,0.004994143,0.169518000,0.652589506,-0.670212000,-1.659370000,0.228139024,1.342330000,,,,,
1749762275.289908,0.005513840,0.005837700,-0.011591300,0.002521690,-0.011265400,-0.011964000,-0.007935430,-0.011058200,1749762275.289907932,-0.006304548,0.004973313,0.169570000,0.652439791,-0.670158000,-1.659770000,0.228447038,1.342180000,,,,,
1749762275.299586,,,,,,,,,,,,,,,,,,1749762275.299586058,0.000000000,0.000000000,0.179360000,0.000000000
1749762275.299955,0.005410590,0.005838780,-0.011866600,0.000977542,-0.011301300,-0.011387400,-0.009072520,-0.011257300,1749762275.299954891,-0.006297667,0.004868801,0.169611000,0.652320240,-0.670099000,-1.660020000,0.228645720,1.342020000,,,,,
1749762275.309922,0.005427990,0.005822540,-0.012141200,0.000760518,-0.011207400,-0.009957140,-0.011279200,-0.011279100,1749762275.309921980,-0.006285045,0.004885003,0.169667000,0.652165653,-0.670043000,-1.660430000,0.228963915,1.341860000,,,,,
1749762275.319567,,,,,,,,,,,,,,,,,,1749762275.319566965,0.000000000,0.000000000,0.185775000,0.000000000
1749762275.319965,0.005246480,0.005866090,-0.012379400,-0.000793594,-0.010946900,-0.007478760,-0.013536700,-0.011497300,1749762275.319964886,-0.006314240,0.004697545,0.169695000,0.651998586,-0.669979000,-1.660870000,0.229272975,1.341710000,,,,,
1749762275.329905,0.005027590,0.005909460,-0.012609700,-0.001235770,-0.010842000,-0.006242230,-0.015139600,-0.011569400,1749762275.329905033,-0.006339401,0.004473296,0.169716000,0.651847080,-0.669914000,-1.661240000,0.229529242,1.341550000,,,,,
1749762275.339573,,,,,,,,,,,,,,,,,,1749762275.339572906,0.000000000,0.000000000,0.192102000,0.000000000
1749762275.339890,0.004829870,0.005890170,-0.012790500,-0.001666510,-0.010789700,-0.005452010,-0.017034400,-0.011644400,1749762275.339890003,-0.006304128,0.004275479,0.169737000,0.651691949,-0.669857000,-1.661660000,0.229818739,1.341400000,,,,,
1749762275.349960,0.004601050,0.005818930,-0.012946400,-0.000875824,-0.010707400,-0.004510360,-0.018244700,-0.011546200,1749762275.349960089,-0.006213837,0.004051893,0.169752000,0.651562306,-0.669809000,-1.662010000,0.230057382,1.341250000,,,,,
1749762275.359565,,,,,,,,,,,,,,,,,,1749762275.359565020,0.000000000,0.000000000,0.198340000,0.000000000
1749762275.359750,0.004383360,0.005729610,-0.013020300,0.000011827,-0.010583400,-0.003346660,-0.019336100,-0.011426000,1749762275.359750032,-0.006106366,0.003841168,0.169767000,0.651437866,-0.669764000,-1.662350000,0.230289723,1.341110000,,,,,
1749762275.370009,0.004116320,0.005621310,-0.013053900,0.002383590,-0.010447200,-0.002178750,-0.020647000,-0.011081300,1749762275.370008945,-0.005975467,0.003582877,0.169772000,0.651308027,-0.669722000,-1.662730000,0.230538376,1.340970000,,,,,
1749762275.379614,,,,,,,,,,,,,,,,,,1749762275.379614115,0.000000000,0.000000000,0.204485000,0.000000000
1749762275.379943,0.003975780,0.005449450,-0.013057900,0.004210510,-0.010330500,-0.001225510,-0.022601800,-0.010792000,1749762275.379942894,-0.005793125,0.003455870,0.169793000,0.651162179,-0.669691000,-1.663220000,0.230875539,1.340840000,,,,,
1749762275.389995,0.003960180,0.005269550,-0.013052600,0.005248490,-0.010206700,-0.000288693,-0.023186700,-0.010599100,1749762275.389995098,-0.005613659,0.003455144,0.169830000,0.651055964,-0.669662000,-1.663540000,0.231118054,1.340710000,,,,,
1749762275.399594,,,,,,,,,,,,,,,,,,1749762275.399594069,0.000000000,0.000000000,0.210534000,0.000000000
1749762275.399939,0.003905010,0.005091150,-0.013031700,0.006346570,-0.010062400,0.000723800,-0.023307800,-0.010387100,1749762275.399939060,-0.005431736,0.003415429,0.169862000,0.650971618,-0.669636000,-1.663780000,0.231303749,1.340580000,,,,,
1749762275.409959,0.003809370,0.004964090,-0.013031600,0.007371730,-0.009958660,0.001388310,-0.023539000,-0.010174700,1749762275.409959078,-0.005297244,0.003330569,0.169887000,0.650873958,-0.669603000,-1.664050000,0.231501321,1.340450000,,,,,
1749762275.419569,,,,,,,,,,,,,,,,,,1749762275.419569016,0.000000000,0.000000000,0.216486000,0.000000000
1749762275.420020,0.003686060,0.004845620,-0.013027800,0.007582120,-0.009772900,0.002571420,-0.023945400,-0.010070400,1749762275.420020103,-0.005168772,0.003217276,0.169907000,0.650770750,-0.669571000,-1.664350000,0.231713496,1.340320000,,,,,
1749762275.429927,0.003636840,0.004692680,-0.013033500,0.008243040,-0.009610960,0.003509050,-0.024347400,-0.009898560,1749762275.429927111,-0.005012826,0.003181105,0.169937000,0.650673833,-0.669544000,-1.664640000,0.231929548,1.340190000,,,,,
1749762275.439570,,,,,,,,,,,,,,,,,,1749762275.439569950,0.000000000,0.000000000,0.222337000,0.000000000
1749762275.439963,0.003407850,0.004527360,-0.013053500,0.008308460,-0.009334620,0.005169600,-0.026107300,-0.009806630,1749762275.439963102,-0.004828259,0.002966201,0.169940000,0.650535602,-0.669522000,-1.665140000,0.232255770,1.340060000,,,,,
1749762275.449926,0.003016360,0.004413310,-0.013065600,0.008953200,-0.009097160,0.006448290,-0.027560900,-0.009629870,1749762275.449925900,-0.004679078,0.002584950,0.169917000,0.650397352,-0.669493000,-1.665620000,0.232542358,1.339930000,,,,,
1749762275.459581,,,,,,,,,,,,,,,,,,1749762275.459580898,0.000000000,0.000000000,0.228084000,0.000000000
1749762275.459981,0.002501120,0.004277070,-0.013037000,0.009593470,-0.008911250,0.007284040,-0.028954700,-0.009447320,1749762275.459980965,-0.004495645,0.002082811,0.169872000,0.650268376,-0.669469000,-1.666090000,0.232800939,1.339800000,,,,,
1749762275.469927,0.002124510,0.004143070,-0.012958200,0.009862610,-0.008941900,0.006571750,-0.031205400,-0.009312290,1749762275.469927073,-0.004327485,0.001717977,0.169843000,0.650102802,-0.669445000,-1.666710000,0.233172896,1.339680000,,,,,
1749762275.479575,,,,,,,,,,,,,,,,,,1749762275.479574919,0.000000000,0.000000000,0.233725000,0.000000000
1749762275.479901,0.001785970,0.004032590,-0.012819800,0.010348900,-0.009038720,0.005452980,-0.034094800,-0.009143000,1749762275.479901075,-0.004186107,0.001388518,0.169815000,0.649910231,-0.669420000,-1.667440000,0.233617127,1.339570000,,,,,
1749762275.489911,0.001515030,0.003965590,-0.012674100,0.010482900,-0.009147260,0.004330510,-0.037412000,-0.009020050,1749762275.489911079,-0.004094197,0.001121951,0.169793000,0.649689735,-0.669389000,-1.668260000,0.234125063,1.339460000,,,,,
1749762275.499576,,,,,,,,,,,,,,,,,,1749762275.499576092,0.000000000,0.000000000,0.239259000,0.000000000
1749762275.499907,0.001224120,0.003902860,-0.012609700,0.010164800,-0.009336690,0.002728550,-0.041783100,-0.008961450,1749762275.499907017,-0.004004301,0.000834481,0.169766000,0.649425737,-0.669359000,-1.669270000,0.234751311,1.339350000,,,,,
1749762275.510011,0.000994443,0.003838820,-0.012518000,0.010101700,-0.009594640,0.000765235,-0.046137200,-0.008868960,1749762275.510010958,-0.003918631,0.000608099,0.169745000,0.649151125,-0.669329000,-1.670320000,0.235409202,1.339230000,,,,,
1749762275.519571,,,,,,,,,,,,,,,,,,1749762275.519571066,0.000000000,0.000000000,0.244681000,0.000000000
1749762275.519903,0.000864117,0.003724910,-0.012430800,0.009961020,-0.009884340,-0.001281490,-0.050701300,-0.008788380,1749762275.519902945,-0.003792887,0.000485450,0.169736000,0.648863714,-0.669307000,-1.671450000,0.236131427,1.339120000,,,,,
1749762275.529945,0.000613680,0.003605010,-0.012315100,0.009448310,-0.009901390,-0.001310680,-0.056628500,-0.008763260,1749762275.529944897,-0.003648766,0.000243330,0.169708000,0.648522561,-0.669287000,-1.672820000,0.236990257,1.339010000,,,,,
1749762275.539586,,,,,,,,,,,,,,,,,,1749762275.539586067,0.000000000,0.000000000,0.249990000,0.000000000
1749762275.539962,0.000402327,0.003514270,-0.012189900,0.009271940,-0.010039800,-0.002173070,-0.064033800,-0.008694400,1749762275.539962053,-0.003537036,0.000036517,0.169684000,0.648112632,-0.669264000,-1.674460000,0.238027264,1.338910000,,,,,
1749762275.549989,0.000147053,0.003437870,-0.012031500,0.009503510,-0.010245100,-0.003436730,-0.070815900,-0.008568040,1749762275.549988985,-0.003434287,-0.000215045,0.169651000,0.647705778,-0.669240000,-1.676080000,0.239041554,1.338810000,,,,,
1749762275.559573,,,,,,,,,,,,,,,,,,1749762275.559572935,0.000000000,0.000000000,0.255184000,0.000000000
1749762275.559885,-0.000080217,0.003296670,-0.011853000,0.010306700,-0.010469900,-0.004747250,-0.077444900,-0.008356310,1749762275.559885025,-0.003269265,-0.000431710,0.169619000,0.647293765,-0.669227000,-1.677760000,0.240096157,1.338720000,,,,,
1749762275.569883,-0.000320503,0.003121850,-0.011718900,0.011319800,-0.010762900,-0.006437270,-0.083655700,-0.008106060,1749762275.569883108,-0.003068698,-0.000657085,0.169583000,0.646887852,-0.669219000,-1.679430000,0.241140147,1.338620000,,,,,
1749762275.579571,,,,,,,,,,,,,,,,,,1749762275.579571009,0.000000000,0.000000000,0.260260000,0.000000000
1749762275.579953,-0.000570200,0.002948850,-0.011557000,0.012281300,-0.010959900,-0.007350310,-0.089396300,-0.007853170,1749762275.579952955,-0.002868161,-0.000891345,0.169544000,0.646482576,-0.669213000,-1.681100000,0.242180689,1.338520000,,,,,
1749762275.589872,-0.000744045,0.002763170,-0.011400700,0.014116400,-0.011093800,-0.007766120,-0.095588300,-0.007463750,1749762275.589871883,-0.002662590,-0.001048488,0.169513000,0.646046090,-0.669210000,-1.682900000,0.243312824,1.338430000,,,,,
1749762275.599574,,,,,,,,,,,,,,,,,,1749762275.599574089,0.000000000,0.000000000,0.265216000,0.000000000
1749762275.599811,-0.001039240,0.002586100,-0.011274700,0.016655100,-0.011090900,-0.007211590,-0.101371000,-0.006953760,1749762275.599811077,-0.002451238,-0.001326411,0.169463000,0.645613221,-0.669208000,-1.684690000,0.244418953,1.338340000,,,,,
1749762275.609751,-0.001412010,0.002397140,-0.011192900,0.017860000,-0.010987600,-0.006003890,-0.108734000,-0.006612170,1749762275.609750986,-0.002217631,-0.001679929,0.169398000,0.645110484,-0.669210000,-1.686780000,0.245703418,1.338230000,,,,,
1749762275.619570,,,,,,,,,,,,,,,,,,1749762275.619570017,0.000000000,0.000000000,0.270051000,0.000000000
1749762275.619950,-0.001933060,0.002208770,-0.011134700,0.018270700,-0.010973100,-0.005491050,-0.113984000,-0.006373890,1749762275.619950056,-0.001966201,-0.002179321,0.169308000,0.644668389,-0.669213000,-1.688630000,0.246807428,1.338130000,,,,,
1749762275.629932,-0.002590600,0.002017960,-0.011095200,0.018118100,-0.011014900,-0.005400950,-0.118455000,-0.006213360,1749762275.629931927,-0.001694380,-0.002812907,0.169193000,0.644245252,-0.669219000,-1.690420000,0.247847526,1.338030000,,,,,
1749762275.639615,,,,,,,,,,,,,,,,,,1749762275.639615059,0.000000000,0.000000000,0.274761000,0.000000000
1749762275.639899,-0.003428490,0.001814830,-0.011116800,0.017898400,-0.011003900,-0.004953390,-0.121948000,-0.006064090,1749762275.639899015,-0.001386589,-0.003622916,0.169046000,0.643852193,-0.669228000,-1.692110000,0.248791116,1.337910000,,,,,
1749762275.649850,-0.004144180,0.001592300,-0.011090700,0.017513000,-0.010979300,-0.004442960,-0.125413000,-0.005941100,1749762275.649849892,-0.001071675,-0.004308266,0.168907000,0.643455266,-0.669243000,-1.693830000,0.249762064,1.337800000,,,,,
1749762275.659580,,,,,,,,,,,,,,,,,,1749762275.659579992,0.000000000,0.000000000,0.279346000,0.000000000
1749762275.659786,-0.004726110,0.001368890,-0.011027700,0.016983400,-0.010968400,-0.004062380,-0.128043000,-0.005842910,1749762275.659785986,-0.000770569,-0.004859650,0.168781000,0.643076335,-0.669259000,-1.695470000,0.250693962,1.337700000,,,,,
1749762275.669901,-0.005203180,0.001127740,-0.010943800,0.016595100,-0.011115100,-0.004792710,-0.131452000,-0.005729490,1749762275.669900894,-0.000462579,-0.005303857,0.168665000,0.642667060,-0.669280000,-1.697240000,0.251719388,1.337600000,,,,,
1749762275.679613,,,,,,,,,,,,,,,,,,1749762275.679613113,0.000000000,0.000000000,0.283803000,0.000000000
1749762275.679909,-0.005623700,0.000816787,-0.010842600,0.016780800,-0.011439000,-0.006691910,-0.134488000,-0.005536560,1749762275.679908991,-0.000091078,-0.005681976,0.168552000,0.642271207,-0.669314000,-1.699000000,0.252742366,1.337510000,,,,,
1749762275.689878,-0.006286840,0.000450459,-0.010757200,0.016666900,-0.011713400,-0.008120240,-0.137970000,-0.005385300,1749762275.689877987,0.000368669,-0.006292166,0.168399000,0.641866997,-0.669359000,-1.700850000,0.253784263,1.337410000,,,,,
1749762275.699573,,,,,,,,,,,,,,,,,,1749762275.699573040,0.000000000,0.000000000,0.288131000,0.000000000
1749762275.700000,-0.007065040,0.000063193,-0.010682200,0.014274200,-0.011652600,-0.007142750,-0.142787000,-0.005566240,1749762275.700000048,0.000868174,-0.007011780,0.168223000,0.641412472,-0.669411000,-1.702930000,0.254951181,1.337320000,,,,,
1749762275.709809,-0.007740110,-0.000221181,-0.010623000,0.009434950,-0.011346000,-0.004540350,-0.148198000,-0.006126560,1749762275.709809065,0.001255898,-0.007640742,0.168055000,0.640910597,-0.669452000,-1.705140000,0.256207085,1.337220000,,,,,
1749762275.719600,,,,,,,,,,,,,,,,,,1749762275.719599962,0.000000000,0.000000000,0.292327000,0.000000000
1749762275.720032,-0.008343480,-0.000472236,-0.010600200,0.003787810,-0.011050800,-0.002196020,-0.154229000,-0.006852640,1749762275.720031977,0.001604865,-0.008201285,0.167889000,0.640365422,-0.669491000,-1.707500000,0.257559782,1.337120000,,,,,
1749762275.730097,-0.008948300,-0.000734894,-0.010601700,-0.001492660,-0.010713000,0.000279902,-0.160449000,-0.007581920,1749762275.730097055,0.001968964,-0.008759870,0.167718000,0.639797792,-0.669533000,-1.709950000,0.258964381,1.337010000,,,,,
1749762275.739600,,,,,,,,,,,,,,,,,,1749762275.739599943,0.000000000,0.000000000,0.296391000,0.000000000
1749762275.740172,-0.009577090,-0.000929647,-0.010578400,-0.005368010,-0.010423100,0.002256000,-0.165988000,-0.008159860,1749762275.740171909,0.002271592,-0.009350121,0.167537000,0.639233008,-0.669569000,-1.712360000,0.260331430,1.336910000,,,,,
1749762275.749780,-0.010231200,-0.001048780,-0.010495700,-0.009358600,-0.010150500,0.003977160,-0.169816000,-0.008793300,1749762275.749779940,0.002503874,-0.009975370,0.167347000,0.638710059,-0.669596000,-1.714570000,0.261559327,1.336810000,,,,,
1749762275.759601,,,,,,,,,,,,,,,,,,1749762275.759601116,0.000000000,0.000000000,0.300320000,0.000000000
1749762275.759991,-0.010989000,-0.001206580,-0.010382000,-0.012621500,-0.010147400,0.003725250,-0.173799000,-0.009360930,1749762275.759990931,0.002793017,-0.010696402,0.167134000,0.638175692,-0.669629000,-1.716850000,0.262808976,1.336720000,,,,,
1749762275.770039,-0.011772800,-0.001422450,-0.010302900,-0.014810100,-0.010305000,0.002383480,-0.176515000,-0.009805110,1749762275.770039082,0.003145020,-0.011433767,0.166910000,0.637691051,-0.669673000,-1.718980000,0.263952644,1.336630000,,,,,
1749762275.779576,,,,,,,,,,,,,,,,,,1749762275.779576063,0.000000000,0.000000000,0.304113000,0.000000000
1749762275.779972,-0.012373800,-0.001641860,-0.010205400,-0.015872000,-0.010556500,0.000488331,-0.179756000,-0.010107500,1749762275.779972076,0.003477621,-0.011988027,0.166705000,0.637174399,-0.669719000,-1.721220000,0.265184617,1.336540000,,,,,
1749762275.789975,-0.012808200,-0.001877880,-0.010120900,-0.015725900,-0.010961400,-0.002332280,-0.183052000,-0.010245000,1749762275.789974928,0.003804171,-0.012373549,0.166518000,0.636648650,-0.669769000,-1.723490000,0.266453099,1.336450000,,,,,
1749762275.799569,,,,,,,,,,,,,,,,,,1749762275.799568892,0.000000000,0.000000000,0.307768000,0.000000000
1749762275.799769,-0.013252800,-0.002073030,-0.010055400,-0.016758800,-0.011244300,-0.004118610,-0.186243000,-0.010552300,1749762275.799768925,0.004094065,-0.012773911,0.166326000,0.636110201,-0.669816000,-1.725790000,0.267734242,1.336360000,,,,,
1749762275.809758,-0.013577000,-0.002237910,-0.009961220,-0.018175000,-0.011413300,-0.004998730,-0.189456000,-0.010925600,1749762275.809757948,0.004337455,-0.013058700,0.166146000,0.635557300,-0.669861000,-1.728120000,0.269044924,1.336270000,,,,,
1749762275.819563,,,,,,,,,,,,,,,,,,1749762275.819562912,0.000000000,0.000000000,0.311285000,0.000000000
1749762275.819723,-0.013720100,-0.002354160,-0.009817260,-0.018806600,-0.011546400,-0.005570350,-0.191175000,-0.011199200,1749762275.819722891,0.004502889,-0.013172213,0.165990000,0.635043365,-0.669900000,-1.730260000,0.270256571,1.336200000,,,,,
1749762275.829922,-0.013920200,-0.002479310,-0.009672770,-0.019219200,-0.011595700,-0.005526620,-0.192762000,-0.011447200,1749762275.829921961,0.004686783,-0.013339903,0.165823000,0.634531886,-0.669942000,-1.732400000,0.271456878,1.336120000,,,,,
1749762275.839588,,,,,,,,,,,,,,,,,,1749762275.839587927,0.000000000,0.000000000,0.314662000,0.000000000
1749762275.840102,-0.014314500,-0.002648700,-0.009555910,-0.019498400,-0.011460500,-0.004215880,-0.193670000,-0.011679900,1749762275.840101957,0.004945624,-0.013691652,0.165627000,0.634052605,-0.669992000,-1.734460000,0.272578203,1.336040000,,,,,
1749762275.849787,-0.014612900,-0.002783710,-0.009433850,-0.020229300,-0.011193400,-0.002087010,-0.196738000,-0.011981100,1749762275.849786997,0.005160809,-0.013951772,0.165440000,0.633475610,-0.670038000,-1.736850000,0.273915984,1.335960000,,,,,
1749762275.859575,,,,,,,,,,,,,,,,,,1749762275.859575033,0.000000000,0.000000000,0.317898000,0.000000000
1749762275.860032,-0.014768600,-0.002907580,-0.009281960,-0.019670100,-0.010977100,-0.000454516,-0.202230000,-0.012102100,1749762275.860032082,0.005347565,-0.014070150,0.165272000,0.632789777,-0.670083000,-1.739610000,0.275505280,1.335890000,,,,,
1749762275.869923,-0.015118100,-0.003006710,-0.009227450,-0.018321900,-0.010872900,0.000294192,-0.206518000,-0.012103000,1749762275.869923115,0.005542142,-0.014383390,0.165073000,0.632134776,-0.670127000,-1.742260000,0.276992629,1.335800000,,,,,
1749762275.879566,,,,,,,,,,,,,,,,,,1749762275.879565954,0.000000000,0.000000000,0.320992000,0.000000000
1749762275.879945,-0.015358100,-0.003063970,-0.009217530,-0.016989700,-0.010867700,0.000309815,-0.209658000,-0.012092600,1749762275.879945040,0.005676312,-0.014595843,0.164887000,0.631504372,-0.670165000,-1.744780000,0.278408114,1.335710000,,,,,
1749762275.889679,-0.015331700,-0.003108640,-0.009228600,-0.015251000,-0.010927300,-0.000121624,-0.212824000,-0.012009900,1749762275.889678955,0.005752852,-0.014547486,0.164737000,0.630855147,-0.670202000,-1.747330000,0.279876372,1.335620000,,,,,
1749762275.899567,,,,,,,,,,,,,,,,,,1749762275.899566889,0.000000000,0.000000000,0.323942000,0.000000000
1749762275.899812,-0.015280100,-0.003186760,-0.009343060,-0.014795200,-0.010927000,-0.000111204,-0.216578000,-0.012096200,1749762275.899811983,0.005859489,-0.014467318,0.164592000,0.630170972,-0.670245000,-1.750010000,0.281431044,1.335510000,,,,,
1749762275.909957,-0.015247400,-0.003239690,-0.009498350,-0.015565600,-0.010954600,-0.000293444,-0.221056000,-0.012356100,1749762275.909956932,0.005946255,-0.014409054,0.164443000,0.629442991,-0.670284000,-1.752820000,0.283061233,1.335390000,,,,,
1749762275.919571,,,,,,,,,,,,,,,,,,1749762275.919570923,0.000000000,0.000000000,0.326748000,0.000000000
1749762275.919934,-0.015160000,-0.003313340,-0.009654690,-0.017015700,-0.010898200,0.000114786,-0.226093000,-0.012722400,1749762275.919934034,0.006045055,-0.014291995,0.164304000,0.628674038,-0.670328000,-1.755770000,0.284788319,1.335280000,,,,,
1749762275.929968,-0.015116500,-0.003351550,-0.009787770,-0.016345900,-0.010905500,0.000056693,-0.229673000,-0.012795300,1749762275.929968119,0.006114183,-0.014225267,0.164158000,0.627944481,-0.670366000,-1.758550000,0.286398588,1.335160000,,,,,
1749762275.939593,,,,,,,,,,,,,,,,,,1749762275.939593077,0.000000000,0.000000000,0.329409000,0.000000000
1749762275.940132,-0.015010000,-0.003437130,-0.009911520,-0.014127500,-0.011045800,-0.000912791,-0.234315000,-0.012636400,1749762275.940131903,0.006220244,-0.014086253,0.164023000,0.627161867,-0.670412000,-1.761520000,0.288138486,1.335050000,,,,,
1749762275.949924,-0.014853300,-0.003524920,-0.010011000,-0.012239600,-0.011149900,-0.001566800,-0.239338000,-0.012503400,1749762275.949923992,0.006319428,-0.013896417,0.163895000,0.626345098,-0.670459000,-1.764590000,0.289945959,1.334930000,,,,,
1749762275.959571,,,,,,,,,,,,,,,,,,1749762275.959570885,0.000000000,0.000000000,0.331925000,0.000000000
1749762275.959933,-0.014699200,-0.003551620,-0.010025100,-0.009293280,-0.011174000,-0.001624950,-0.242889000,-0.012197800,1749762275.959933043,0.006355908,-0.013721622,0.163769000,0.625561578,-0.670498000,-1.767500000,0.291651445,1.334830000,,,,,
1749762275.969930,-0.014633500,-0.003511600,-0.010025600,-0.005384650,-0.011177700,-0.001538570,-0.245076000,-0.011722900,1749762275.969929934,0.006341374,-0.013647624,0.163632000,0.624813722,-0.670528000,-1.770250000,0.293242295,1.334730000,,,,,
1749762275.979560,,,,,,,,,,,,,,,,,,1749762275.979559898,0.000000000,0.000000000,0.334293000,0.000000000
1749762275.979697,-0.014460000,-0.003431810,-0.010123500,-0.001388630,-0.011048800,-0.000545487,-0.249558000,-0.011196200,1749762275.979696989,0.006270589,-0.013473998,0.163511000,0.623949521,-0.670552000,-1.773350000,0.295064107,1.334610000,,,,,
1749762275.989975,-0.014218300,-0.003315060,-0.010246800,0.000859218,-0.010810600,0.001131660,-0.253560000,-0.010883500,1749762275.989974976,0.006148417,-0.013241852,0.163401000,0.623076868,-0.670569000,-1.776430000,0.296880257,1.334500000,,,,,
1749762275.999574,,,,,,,,,,,,,,,,,,1749762275.999573946,0.000000000,0.000000000,0.336515000,0.000000000
1749762275.999970,-0.014084100,-0.003174730,-0.010380700,0.002763270,-0.010511800,0.003110400,-0.258123000,-0.010598300,1749762275.999969959,0.006025525,-0.013119978,0.163278000,0.622164868,-0.670582000,-1.779620000,0.298748726,1.334370000,,,,,
1749762276.009928,-0.014012500,-0.002891380,-0.010550300,0.003611480,-0.010000400,0.006416480,-0.263123000,-0.010447400,1749762276.009927988,0.005776845,-0.013089625,0.163148000,0.621190198,-0.670572000,-1.782930000,0.300677260,1.334250000,,,,,
1749762276.019562,,,,,,,,,,,,,,,,,,1749762276.019562006,0.000000000,0.000000000,0.338589000,0.000000000
1749762276.019688,-0.013870500,-0.002628850,-0.010696900,0.003715340,-0.009487160,0.009507570,-0.267849000,-0.010396200,1749762276.019687891,0.005533453,-0.012987784,0.163029000,0.620205177,-0.670563000,-1.786250000,0.302619778,1.334120000,,,,,
1749762276.030028,-0.013717800,-0.002460800,-0.010835300,0.004249190,-0.009084400,0.011625400,-0.272178000,-0.010281500,1749762276.030028105,0.005379228,-0.012856807,0.162912000,0.619227454,-0.670565000,-1.789560000,0.304557218,1.333990000,,,,,
1749762276.039572,,,,,,,,,,,,,,,,,,1749762276.039572001,0.000000000,0.000000000,0.340514000,0.000000000
1749762276.039931,-0.013526900,-0.002276900,-0.010895600,0.004877990,-0.008756370,0.013083100,-0.275242000,-0.010147600,1749762276.039931059,0.005198420,-0.012694004,0.162803000,0.618284004,-0.670563000,-1.792720000,0.306405686,1.333870000,,,,,
1749762276.049932,-0.013247900,-0.002117560,-0.010965200,0.004243460,-0.008297330,0.015342300,-0.277664000,-0.010191000,1749762276.049932003,0.005020295,-0.012441365,0.162708000,0.617349292,-0.670563000,-1.795830000,0.308234459,1.333760000,,,,,
1749762276.059570,,,,,,,,,,,,,,,,,,1749762276.059570074,0.000000000,0.000000000,0.342291000,0.000000000
1749762276.059976,-0.013014800,-0.001984570,-0.011035700,0.001478080,-0.007985870,0.016430000,-0.279885000,-0.010550400,1749762276.059976101,0.004876577,-0.012228759,0.162609000,0.616414164,-0.670564000,-1.798930000,0.310050549,1.333640000,,,,,
1749762276.069932,-0.012873200,-0.001917820,-0.011089800,-0.000770558,-0.007719740,0.017130900,-0.281574000,-0.010862300,1749762276.069931984,0.004816312,-0.012091338,0.162500000,0.615504445,-0.670575000,-1.801970000,0.311819433,1.333520000,,,,,
1749762276.079572,,,,,,,,,,,,,,,,,,1749762276.079571962,0.000000000,0.000000000,0.343920000,0.000000000
1749762276.079948,-0.012676100,-0.001879320,-0.011190500,-0.002143350,-0.007579760,0.016915300,-0.283563000,-0.011069400,1749762276.079947948,0.004770688,-0.011893523,0.162400000,0.614567571,-0.670588000,-1.805080000,0.313637890,1.333390000,,,,,
1749762276.089948,-0.012575400,-0.001800560,-0.011292600,-0.003968430,-0.007391130,0.017049400,-0.285835000,-0.011356000,1749762276.089947939,0.004708011,-0.011799039,0.162287000,0.613606792,-0.670595000,-1.808240000,0.315470172,1.333260000,,,,,
1749762276.099607,,,,,,,,,,,,,,,,,,1749762276.099606991,0.000000000,0.000000000,0.345399000,0.000000000
1749762276.099946,-0.012470800,-0.001796180,-0.011408500,-0.006468650,-0.007147880,0.017550100,-0.289777000,-0.011758900,1749762276.099946022,0.004719248,-0.011682286,0.162177000,0.612564843,-0.670613000,-1.811670000,0.317470453,1.333130000,,,,,
1749762276.109760,-0.012398700,-0.001797250,-0.011534700,-0.008487970,-0.007034550,0.017122200,-0.292629000,-0.012117000,1749762276.109760046,0.004741614,-0.011596334,0.162063000,0.611552495,-0.670631000,-1.814990000,0.319396149,1.333000000,,,,,
1749762276.119573,,,,,,,,,,,,,,,,,,1749762276.119573116,0.000000000,0.000000000,0.346729000,0.000000000
1749762276.119880,-0.012361900,-0.001800680,-0.011799000,-0.010506500,-0.007016510,0.016067800,-0.295710000,-0.012495100,1749762276.119879961,0.004774974,-0.011543771,0.161944000,0.610519271,-0.670649000,-1.818360000,0.321344302,1.332850000,,,,,
1749762276.129894,-0.012155900,-0.001768570,-0.012025000,-0.010760200,-0.007047770,0.014746700,-0.297402000,-0.012637100,1749762276.129894018,0.004729666,-0.011336843,0.161850000,0.609524733,-0.670663000,-1.821560000,0.323208729,1.332700000,,,,,
1749762276.139571,,,,,,,,,,,,,,,,,,1749762276.139570951,0.000000000,0.000000000,0.347910000,0.000000000
1749762276.139897,-0.011948300,-0.001758970,-0.012237400,-0.011599800,-0.007020250,0.013921100,-0.299839000,-0.012866600,1749762276.139897108,0.004705916,-0.011122509,0.161759000,0.608483431,-0.670679000,-1.824890000,0.325152594,1.332550000,,,,,
1749762276.149953,-0.011741800,-0.001741000,-0.012485300,-0.012449000,-0.007044460,0.012796200,-0.301984000,-0.013106000,1749762276.149952888,0.004672759,-0.010911749,0.161669000,0.607441262,-0.670694000,-1.828200000,0.327081673,1.332390000,,,,,
1749762276.159563,,,,,,,,,,,,,,,,,,1749762276.159563065,0.000000000,0.000000000,0.348943000,0.000000000
1749762276.159784,-0.011512100,-0.001708180,-0.012798900,-0.013724200,-0.007255030,0.010466000,-0.304620000,-0.013415800,1749762276.159784079,0.004618892,-0.010682330,0.161585000,0.606359895,-0.670707000,-1.831600000,0.329067272,1.332220000,,,,,
1749762276.170065,-0.011169100,-0.001642390,-0.013055300,-0.015934900,-0.007501590,0.008048560,-0.307889000,-0.013874200,1749762276.170064926,0.004503349,-0.010352106,0.161520000,0.605221563,-0.670714000,-1.835120000,0.331138702,1.332050000,,,,,
1749762276.179571,,,,,,,,,,,,,,,,,,1749762276.179570913,0.000000000,0.000000000,0.349826000,0.000000000
1749762276.179973,-0.010865500,-0.001562390,-0.013257400,-0.017863500,-0.007730420,0.005919480,-0.309288000,-0.014313700,1749762276.179972887,0.004379949,-0.010065595,0.161453000,0.604151382,-0.670719000,-1.838410000,0.333064792,1.331890000,,,,,
1749762276.189964,-0.010541500,-0.001526250,-0.013347100,-0.018569100,-0.007858830,0.004628160,-0.309991000,-0.014594900,1749762276.189964056,0.004290541,-0.009749047,0.161391000,0.603112054,-0.670729000,-1.841600000,0.334933272,1.331750000,,,,,
1749762276.199575,,,,,,,,,,,,,,,,,,1749762276.199574947,0.000000000,0.000000000,0.350560000,0.000000000
1749762276.199894,-0.010275300,-0.001418740,-0.013520100,-0.018590900,-0.008107330,0.002599100,-0.311688000,-0.014783700,1749762276.199893951,0.004147612,-0.009507467,0.161324000,0.602004785,-0.670729000,-1.844950000,0.336887316,1.331590000,,,,,
1749762276.209958,-0.010030900,-0.001273660,-0.013648800,-0.017006100,-0.008423210,0.000245945,-0.312802000,-0.014739400,1749762276.209958076,0.003972304,-0.009298493,0.161257000,0.600908176,-0.670722000,-1.848230000,0.338793721,1.331430000,,,,,
1749762276.219574,,,,,,,,,,,,,,,,,,1749762276.219573975,0.000000000,0.000000000,0.351146000,0.000000000
1749762276.219892,-0.010107600,-0.001165410,-0.013878800,-0.015556500,-0.008691650,-0.001618680,-0.316808000,-0.014698800,1749762276.219892025,0.003924055,-0.009387415,0.161145000,0.599675312,-0.670719000,-1.851940000,0.340912318,1.331260000,,,,,
1749762276.229953,-0.010197600,-0.001022190,-0.014091800,-0.014385300,-0.009015340,-0.003735290,-0.319440000,-0.014684200,1749762276.229953051,0.003845178,-0.009500028,0.161031000,0.598484677,-0.670710000,-1.855490000,0.342927074,1.331100000,,,,,
1749762276.239568,,,,,,,,,,,,,,,,,,1749762276.239567995,0.000000000,0.000000000,0.351584000,0.000000000
1749762276.239888,-0.010063900,-0.000904916,-0.014283900,-0.012029100,-0.009401960,-0.006139330,-0.319778000,-0.014485800,1749762276.239887953,0.003725525,-0.009392626,0.160949000,0.597387028,-0.670703000,-1.858730000,0.344783749,1.330930000,,,,,
1749762276.249927,-0.009877450,-0.000866131,-0.014418400,-0.009991590,-0.009715460,-0.007874660,-0.320113000,-0.014310100,1749762276.249927044,0.003665351,-0.009213002,0.160875000,0.596288404,-0.670707000,-1.861980000,0.346653696,1.330760000,,,,,
1749762276.259563,,,,,,,,,,,,,,,,,,1749762276.259562969,0.000000000,0.000000000,0.351874000,0.000000000
1749762276.259707,-0.009519210,-0.000876024,-0.014459600,-0.007328230,-0.009896440,-0.008578300,-0.319327000,-0.014023000,1749762276.259706974,0.003599275,-0.008855958,0.160829000,0.595240796,-0.670717000,-1.865060000,0.348447495,1.330610000,,,,,
1749762276.269950,-0.009230750,-0.000989895,-0.014452400,-0.004777500,-0.009839810,-0.007598030,-0.319439000,-0.013725800,1749762276.269949913,0.003652005,-0.008535192,0.160775000,0.594158944,-0.670742000,-1.868270000,0.350312118,1.330470000,,,,,
1749762276.279568,,,,,,,,,,,,,,,,,,1749762276.279567957,0.000000000,0.000000000,0.352018000,0.000000000
1749762276.279994,-0.008945310,-0.001174830,-0.014439700,-0.002540000,-0.009851060,-0.007152530,-0.319886000,-0.013448500,1749762276.279994011,0.003771892,-0.008195830,0.160724000,0.593064218,-0.670779000,-1.871530000,0.352209461,1.330330000,,,,,
1749762276.289878,-0.008524700,-0.001357450,-0.014412600,-0.000641200,-0.009995160,-0.007652040,-0.319658000,-0.013198000,1749762276.289877892,0.003846239,-0.007727848,0.160696000,0.591989374,-0.670817000,-1.874700000,0.354072356,1.330190000,,,,,
1749762276.299572,,,,,,,,,,,,,,,,,,1749762276.299571991,0.000000000,0.000000000,0.352015000,0.000000000
1749762276.299921,-0.008196350,-0.001468350,-0.014421500,-0.000658960,-0.010044500,-0.007464840,-0.320006000,-0.013207000,1749762276.299921036,0.003877768,-0.007368794,0.160659000,0.590875297,-0.670847000,-1.877950000,0.355968250,1.330040000,,,,,
1749762276.309925,-0.007810310,-0.001566230,-0.014510600,0.000074169,-0.010062500,-0.007075080,-0.322086000,-0.013107100,1749762276.309925079,0.003878725,-0.006957694,0.160633000,0.589661351,-0.670876000,-1.881450000,0.358018238,1.329880000,,,,,
1749762276.319580,,,,,,,,,,,,,,,,,,1749762276.319580078,0.000000000,0.000000000,0.351866000,0.000000000
1749762276.319885,-0.007554780,-0.001592780,-0.014707400,-0.000461695,-0.010035100,-0.006399270,-0.324133000,-0.013184200,1749762276.319885015,0.003849476,-0.006692771,0.160592000,0.588428217,-0.670895000,-1.884970000,0.360058503,1.329710000,,,,,
1749762276.329893,-0.007327180,-0.001602540,-0.014907600,-0.001929240,-0.010037300,-0.005973930,-0.325006000,-0.013402000,1749762276.329893112,0.003810151,-0.006460530,0.160549000,0.587244677,-0.670912000,-1.888330000,0.361998043,1.329530000,,,,,
1749762276.339567,,,,,,,,,,,,,,,,,,1749762276.339566946,0.000000000,0.000000000,0.351572000,0.000000000
1749762276.340199,-0.007072460,-0.001643680,-0.015108500,-0.002720190,-0.010057100,-0.005699250,-0.324708000,-0.013536200,1749762276.340198994,0.003789606,-0.006193566,0.160513000,0.586111867,-0.670934000,-1.891540000,0.363854002,1.329360000,,,,,
1749762276.350127,-0.006822590,-0.001627500,-0.015216300,-0.003125990,-0.010008200,-0.004970270,-0.323125000,-0.013622400,1749762276.350126982,0.003713461,-0.005950353,0.160478000,0.585035713,-0.670949000,-1.894560000,0.365593988,1.329190000,,,,,
1749762276.359569,,,,,,,,,,,,,,,,,,1749762276.359569073,0.000000000,0.000000000,0.351135000,0.000000000
1749762276.359937,-0.006462370,-0.001664010,-0.015296400,-0.003133190,-0.010053500,-0.004939960,-0.321498000,-0.013654700,1749762276.359936953,0.003650194,-0.005586344,0.160463000,0.583964676,-0.670970000,-1.897550000,0.367334142,1.329030000,,,,,
1749762276.369945,-0.006150110,-0.001647360,-0.015422600,-0.003811890,-0.010147100,-0.005244140,-0.320062000,-0.013784600,1749762276.369945049,0.003550124,-0.005285288,0.160443000,0.582876079,-0.670984000,-1.900560000,0.369075820,1.328850000,,,,,
1749762276.379569,,,,,,,,,,,,,,,,,,1749762276.379569054,0.000000000,0.000000000,0.350554000,0.000000000
1749762276.379915,-0.005814320,-0.001671890,-0.015566000,-0.003343940,-0.010224700,-0.005417730,-0.320642000,-0.013754700,1749762276.379914999,0.003480846,-0.004948257,0.160431000,0.581685201,-0.671004000,-1.903840000,0.370980863,1.328680000,,,,,
1749762276.389990,-0.005306070,-0.001740850,-0.015712300,-0.002004700,-0.010267900,-0.005342120,-0.320986000,-0.013593600,1749762276.389990091,0.003394333,-0.004434348,0.160446000,0.580493252,-0.671031000,-1.907100000,0.372898252,1.328500000,,,,,
1749762276.399564,,,,,,,,,,,,,,,,,,1749762276.399564028,0.000000000,0.000000000,0.349831000,0.000000000
1749762276.399806,-0.004657920,-0.001834820,-0.015848400,0.001643450,-0.010545100,-0.006882460,-0.322064000,-0.013083700,1749762276.399806023,0.003281908,-0.003780458,0.160487000,0.579248860,-0.671062000,-1.910470000,0.374901379,1.328330000,,,,,
1749762276.410050,-0.003972930,-0.002029930,-0.015908000,0.004801020,-0.010792300,-0.008110130,-0.323035000,-0.012608500,1749762276.410049915,0.003247941,-0.003058704,0.160540000,0.578012359,-0.671109000,-1.913830000,0.376911255,1.328160000,,,,,
1749762276.419570,,,,,,,,,,,,,,,,,,1749762276.419569969,0.000000000,0.000000000,0.348967000,0.000000000
1749762276.419943,-0.003553650,-0.002247730,-0.015854200,0.007459850,-0.010996500,-0.008957450,-0.323400000,-0.012174200,1749762276.419943094,0.003320508,-0.002579718,0.160562000,0.576814428,-0.671161000,-1.917110000,0.378843449,1.328010000,,,,,
1749762276.429965,-0.003221850,-0.002385360,-0.015742800,0.008071810,-0.010874600,-0.007501570,-0.323181000,-0.012010700,1749762276.429965019,0.003344433,-0.002210210,0.160574000,0.575634529,-0.671203000,-1.920310000,0.380712970,1.327860000,,,,,
1749762276.439570,,,,,,,,,,,,,,,,,,1749762276.439569950,0.000000000,0.000000000,0.347964000,0.000000000
1749762276.439973,-0.002959310,-0.002596740,-0.015701300,0.008815690,-0.010660300,-0.005510030,-0.322986000,-0.011821900,1749762276.439973116,0.003459181,-0.001880064,0.160580000,0.574459018,-0.671258000,-1.923520000,0.382583422,1.327710000,,,,,
1749762276.449790,-0.002706930,-0.002720720,-0.015585000,0.009864730,-0.010382800,-0.003221050,-0.322302000,-0.011581300,1749762276.449790001,0.003493334,-0.001589466,0.160587000,0.573297525,-0.671302000,-1.926650000,0.384401493,1.327570000,,,,,
1749762276.459570,,,,,,,,,,,,,,,,,,1749762276.459569931,0.000000000,0.000000000,0.346821000,0.000000000
1749762276.460032,-0.002391600,-0.002877170,-0.015507200,0.010282100,-0.009945210,0.000012753,-0.322055000,-0.011422000,1749762276.460031986,0.003534060,-0.001228118,0.160606000,0.572108505,-0.671352000,-1.929840000,0.386263710,1.327430000,,,,,
1749762276.469884,-0.002096320,-0.002952290,-0.015377500,0.010903100,-0.009469990,0.003282950,-0.322768000,-0.011229000,1749762276.469883919,0.003503688,-0.000913645,0.160625000,0.570852691,-0.671391000,-1.933160000,0.388192569,1.327290000,,,,,
1749762276.479560,,,,,,,,,,,,,,,,,,1749762276.479559898,0.000000000,0.000000000,0.345542000,0.000000000
1749762276.479646,-0.001705620,-0.003034300,-0.015228000,0.011570300,-0.008780870,0.007800320,-0.323768000,-0.011023000,1749762276.479645967,0.003443605,-0.000507643,0.160661000,0.569567590,-0.671433000,-1.936530000,0.390162775,1.327160000,,,,,
1749762276.489978,-0.001491130,-0.003267320,-0.015070100,0.011170900,-0.008185160,0.011363800,-0.325716000,-0.010965400,1749762276.489978075,0.003585271,-0.000211384,0.160675000,0.568245325,-0.671497000,-1.940050000,0.392201387,1.327030000,,,,,
1749762276.499571,,,,,,,,,,,,,,,,,,1749762276.499571085,0.000000000,0.000000000,0.344127000,0.000000000
1749762276.499927,-0.001283110,-0.003474690,-0.014895400,0.010336200,-0.007637280,0.014352700,-0.327230000,-0.010974900,1749762276.499927044,0.003703362,0.000070347,0.160690000,0.566930237,-0.671560000,-1.943530000,0.394213414,1.326910000,,,,,
1749762276.509918,-0.001077950,-0.003726630,-0.014740100,0.010797500,-0.007259140,0.015967600,-0.328958000,-0.010804500,1749762276.509917974,0.003862024,0.000366764,0.160707000,0.565598884,-0.671631000,-1.947050000,0.396248461,1.326780000,,,,,
1749762276.519569,,,,,,,,,,,,,,,,,,1749762276.519568920,0.000000000,0.000000000,0.342577000,0.000000000
1749762276.519896,-0.000783735,-0.003960720,-0.014503700,0.011681900,-0.006932530,0.017116700,-0.331094000,-0.010568100,1749762276.519896030,0.003968992,0.000740704,0.160739000,0.564223730,-0.671703000,-1.950650000,0.398338460,1.326670000,,,,,
1749762276.529885,-0.000449916,-0.004146190,-0.014219900,0.011692500,-0.006706430,0.017494800,-0.332239000,-0.010449700,1749762276.529885054,0.004013547,0.001133472,0.160780000,0.562879974,-0.671769000,-1.954130000,0.400362252,1.326560000,,,,,
1749762276.539604,,,,,,,,,,,,,,,,,,1749762276.539603949,0.000000000,0.000000000,0.340895000,0.000000000
1749762276.539917,-0.000111370,-0.004260840,-0.013899400,0.012808600,-0.006644610,0.016716100,-0.332859000,-0.010170600,1749762276.539916992,0.003988150,0.001503936,0.160824000,0.561548589,-0.671827000,-1.957540000,0.402341968,1.326470000,,,,,
1749762276.549798,0.000010251,-0.004412690,-0.013656900,0.011952800,-0.006888540,0.013886500,-0.331963000,-0.010166900,1749762276.549798012,0.004077535,0.001686906,0.160841000,0.560311880,-0.671892000,-1.960740000,0.404177293,1.326360000,,,,,
1749762276.559578,,,,,,,,,,,,,,,,,,1749762276.559577942,0.000000000,0.000000000,0.339082000,0.000000000
1749762276.559978,0.000111080,-0.004643210,-0.013436200,0.010465000,-0.007175840,0.010953100,-0.331805000,-0.010263500,1749762276.559978008,0.004246234,0.001881817,0.160856000,0.559041345,-0.671970000,-1.964040000,0.406067861,1.326260000,,,,,
1749762276.569914,0.000234176,-0.004857910,-0.013187700,0.009034650,-0.007427590,0.008466340,-0.331184000,-0.010366700,1749762276.569914103,0.004390643,0.002091980,0.160875000,0.557790522,-0.672047000,-1.967270000,0.407918705,1.326160000,,,,,
1749762276.579573,,,,,,,,,,,,,,,,,,1749762276.579572916,0.000000000,0.000000000,0.337139000,0.000000000
1749762276.579918,0.000398267,-0.005015050,-0.012920700,0.007550650,-0.007746870,0.005685900,-0.330746000,-0.010491900,1749762276.579917908,0.004464738,0.002318502,0.160901000,0.556522146,-0.672119000,-1.970510000,0.409775771,1.326070000,,,,,
1749762276.590007,0.000565629,-0.005116220,-0.012600200,0.006039140,-0.008031070,0.003338390,-0.329665000,-0.010636000,1749762276.590007067,0.004484843,0.002526227,0.160929000,0.555272377,-0.672183000,-1.973670000,0.411583183,1.325980000,,,,,
1749762276.599561,,,,,,,,,,,,,,,,,,1749762276.599560976,0.000000000,0.000000000,0.335068000,0.000000000
1749762276.599711,0.000784873,-0.005201190,-0.012275000,0.004485810,-0.008285380,0.001358090,-0.329461000,-0.010801300,1749762276.599710941,0.004468028,0.002775812,0.160967000,0.553971449,-0.672247000,-1.976930000,0.413451373,1.325910000,,,,,
1749762276.609776,0.000969857,-0.005289400,-0.011902300,0.004177060,-0.008434640,0.000237281,-0.329110000,-0.010801300,1749762276.609776020,0.004466272,0.002995128,0.161001000,0.552670904,-0.672312000,-1.980180000,0.415306657,1.325840000,,,,,
1749762276.619570,,,,,,,,,,,,,,,,,,1749762276.619570017,0.000000000,0.000000000,0.332871000,0.000000000
1749762276.619961,0.001210390,-0.005339260,-0.011534300,0.004302100,-0.008439990,0.000184075,-0.327994000,-0.010741300,1749762276.619961023,0.004406152,0.003249394,0.161046000,0.551409386,-0.672372000,-1.983300000,0.417094246,1.325770000,,,,,
1749762276.629928,0.001397070,-0.005410380,-0.011210600,0.004890670,-0.008391000,0.000508635,-0.325922000,-0.010612800,1749762276.629928112,0.004386169,0.003462014,0.161085000,0.550206812,-0.672436000,-1.986280000,0.418797106,1.325700000,,,,,
1749762276.639565,,,,,,,,,,,,,,,,,,1749762276.639564991,0.000000000,0.000000000,0.330551000,0.000000000
1749762276.639732,0.001568330,-0.005492790,-0.010862600,0.006371820,-0.008281880,0.001224700,-0.322745000,-0.010348700,1749762276.639731884,0.004382198,0.003664251,0.161124000,0.549076493,-0.672502000,-1.989080000,0.420398488,1.325640000,,,,,
1749762276.649900,0.001735800,-0.005596290,-0.010528600,0.008228290,-0.008158860,0.001987210,-0.318899000,-0.010015300,1749762276.649899960,0.004398430,0.003871082,0.161164000,0.547999617,-0.672572000,-1.991750000,0.421928134,1.325580000,,,,,
1749762276.659570,,,,,,,,,,,,,,,,,,1749762276.659569979,0.000000000,0.000000000,0.328108000,0.000000000
1749762276.660051,0.001772150,-0.005691600,-0.010200800,0.009772090,-0.008063510,0.002506690,-0.314979000,-0.009708730,1749762276.660051107,0.004460219,0.003954905,0.161187000,0.546945734,-0.672641000,-1.994370000,0.423411771,1.325520000,,,,,
1749762276.669895,0.001801810,-0.005784160,-0.009935110,0.010903500,-0.007891920,0.003515260,-0.313372000,-0.009446630,1749762276.669894934,0.004520651,0.004033205,0.161209000,0.545762581,-0.672712000,-1.997290000,0.425056446,1.325460000,,,,,
1749762276.679561,,,,,,,,,,,,,,,,,,1749762276.679560900,0.000000000,0.000000000,0.325545000,0.000000000
1749762276.679699,0.001891540,-0.005963270,-0.009676510,0.012263900,-0.007545540,0.005657490,-0.312877000,-0.009139960,1749762276.679698944,0.004633757,0.004203190,0.161240000,0.544522813,-0.672796000,-2.000350000,0.426787653,1.325400000,,,,,
1749762276.689668,0.002028550,-0.006201720,-0.009466940,0.013296300,-0.007254270,0.007272890,-0.312274000,-0.008867330,1749762276.689667940,0.004780004,0.004441611,0.161279000,0.543291856,-0.672890000,-2.003390000,0.428515843,1.325330000,,,,,
1749762276.699566,,,,,,,,,,,,,,,,,,1749762276.699565887,0.000000000,0.000000000,0.322865000,0.000000000
1749762276.699744,0.002199460,-0.006429620,-0.009255280,0.013386500,-0.006985840,0.008619980,-0.311921000,-0.008721260,1749762276.699743986,0.004900831,0.004707387,0.161324000,0.542040889,-0.672985000,-2.006460000,0.430262614,1.325270000,,,,,
1749762276.709889,0.002336240,-0.006735530,-0.008988890,0.013416200,-0.006620720,0.010539800,-0.312024000,-0.008583090,1749762276.709888935,0.005104892,0.004976491,0.161366000,0.540772345,-0.673094000,-2.009590000,0.432041422,1.325210000,,,,,
1749762276.719570,,,,,,,,,,,,,,,,,,1749762276.719569921,0.000000000,0.000000000,0.320068000,0.000000000
1749762276.719897,0.002379950,-0.007014330,-0.008697230,0.012633300,-0.006325250,0.011848100,-0.310303000,-0.008562660,1749762276.719897032,0.005323952,0.005149808,0.161395000,0.539615401,-0.673202000,-2.012460000,0.433664038,1.325170000,,,,,
1749762276.729925,0.002368030,-0.007261330,-0.008330080,0.011901300,-0.005993500,0.013316100,-0.308172000,-0.008542670,1749762276.729924917,0.005537639,0.005260137,0.161417000,0.538485270,-0.673308000,-2.015260000,0.435238699,1.325130000,,,,,
1749762276.739572,,,,,,,,,,,,,,,,,,1749762276.739572048,0.000000000,0.000000000,0.317158000,0.000000000
1749762276.740010,0.002379360,-0.007556240,-0.007944520,0.010973300,-0.005638770,0.014841200,-0.305928000,-0.008558490,1749762276.740010023,0.005784160,0.005413096,0.161443000,0.537378775,-0.673423000,-2.018010000,0.436791061,1.325110000,,,,,
1749762276.749888,0.002462950,-0.007943020,-0.007518270,0.011118700,-0.005435190,0.015220900,-0.305167000,-0.008427630,1749762276.749887943,0.006080042,0.005673691,0.161479000,0.536191091,-0.673555000,-2.020960000,0.438464274,1.325090000,,,,,
1749762276.759572,,,,,,,,,,,,,,,,,,1749762276.759572029,0.000000000,0.000000000,0.314136000,0.000000000
1749762276.759974,0.002468490,-0.008367940,-0.007086710,0.010878000,-0.005157190,0.016086700,-0.303300000,-0.008351410,1749762276.759974003,0.006443894,0.005881504,0.161504000,0.535085931,-0.673696000,-2.023740000,0.440037372,1.325080000,,,,,
1749762276.769917,0.002468790,-0.008697560,-0.006646650,0.009504850,-0.004749180,0.017787900,-0.302713000,-0.008442120,1749762276.769917011,0.006722339,0.006045878,0.161529000,0.533893007,-0.673828000,-2.026690000,0.441694520,1.325070000,,,,,
1749762276.779572,,,,,,,,,,,,,,,,,,1749762276.779572010,0.000000000,0.000000000,0.311006000,0.000000000
1749762276.779913,0.002402920,-0.009090320,-0.006241720,0.008558550,-0.004615430,0.017484200,-0.302723000,-0.008484560,1749762276.779912949,0.007085289,0.006181150,0.161544000,0.532674679,-0.673972000,-2.029720000,0.443387423,1.325060000,,,,,
1749762276.789933,0.002289620,-0.009475780,-0.005805960,0.007537470,-0.004627170,0.016199900,-0.302613000,-0.008547310,1749762276.789932966,0.007462208,0.006272816,0.161552000,0.531465700,-0.674119000,-2.032730000,0.445061439,1.325060000,,,,,
1749762276.799572,,,,,,,,,,,,,,,,,,1749762276.799571991,0.000000000,0.000000000,0.307768000,0.000000000
1749762276.799896,0.002230020,-0.009821530,-0.005365230,0.006138080,-0.004559170,0.015552800,-0.301414000,-0.008675240,1749762276.799896002,0.007780087,0.006395755,0.161566000,0.530318461,-0.674264000,-2.035580000,0.446651815,1.325070000,,,,,
1749762276.809911,0.002117380,-0.010113900,-0.004850300,0.004412770,-0.004538070,0.014627600,-0.300200000,-0.008864520,1749762276.809911013,0.008073648,0.006449068,0.161572000,0.529170098,-0.674404000,-2.038420000,0.448224580,1.325090000,,,,,
