__time,filtered_pose/dx,filtered_pose/dy,filtered_pose/dz,filtered_pose/p,filtered_pose/pitch,filtered_pose/q,filtered_pose/r,filtered_pose/roll,filtered_pose/timestamp,filtered_pose/vxb,filtered_pose/vyb,filtered_pose/x,filtered_pose/xb,filtered_pose/y,filtered_pose/yaw,filtered_pose/yb,filtered_pose/z,u_control/timestamp,u_control/ux,u_control/uy,u_control/uyaw,u_control/uz
1749761169.554668,,,,,,,,,,,,,,,,,,1749761169.554667950,0.000000000,0.000000000,0.000000000,0.000000000
1749761169.556069,-0.007137000,0.013755900,-0.013589800,-0.020188300,-0.016824400,0.005207550,0.002751990,-0.008170440,1749761169.556068897,-0.013379086,-0.007820589,1.115310000,0.703246978,-0.760370000,-1.621170000,1.152181679,1.245020000,,,,,
1749761169.566080,-0.007254750,0.013323400,-0.013461400,-0.010852800,-0.016998400,0.003651210,0.003018670,-0.007016040,1749761169.566080093,-0.012941760,-0.007915506,1.115220000,0.703257249,-0.760295000,-1.621100000,1.152038791,1.244900000,,,,,
1749761169.574743,,,,,,,,,,,,,,,,,,1749761169.574743032,0.000000000,0.007539230,0.000000000,0.000000000
1749761169.576318,-0.007270940,0.013019800,-0.013288600,-0.000940523,-0.017161500,0.002277720,0.004128740,-0.005684490,1749761169.576318026,-0.012639234,-0.007914009,1.115150000,0.703390742,-0.760206000,-1.620910000,1.151830781,1.244790000,,,,,
1749761169.586056,-0.007220650,0.012640000,-0.013020200,0.007704800,-0.017315500,0.001060770,0.005059440,-0.004437890,1749761169.586055994,-0.012263841,-0.007842549,1.115080000,0.703526648,-0.760131000,-1.620730000,1.151630496,1.244700000,,,,,
1749761169.594737,,,,,,,,,,,,,,,,,,1749761169.594737053,0.000000000,0.015074900,0.000000000,0.000000000
1749761169.596304,-0.007451340,0.012547800,-0.013008600,0.017253100,-0.017334800,0.000854457,0.005375280,-0.002973650,1749761169.596303940,-0.012160968,-0.008067255,1.114980000,0.703522414,-0.760018000,-1.620640000,1.151461668,1.244570000,,,,,
1749761169.606320,-0.007586360,0.012356400,-0.012883300,0.025420100,-0.017353500,0.000667123,0.005602890,-0.001614590,1749761169.606319904,-0.011963816,-0.008191495,1.114880000,0.703534136,-0.759921000,-1.620550000,1.151293646,1.244460000,,,,,
1749761169.614737,,,,,,,,,,,,,,,,,,1749761169.614737034,0.000000000,0.022603400,0.000000000,0.000000000
1749761169.616361,-0.007618990,0.012221800,-0.012697400,0.033775300,-0.017301800,0.000977178,0.004889990,-0.000146538,1749761169.616360903,-0.011827349,-0.008217982,1.114800000,0.703376682,-0.759817000,-1.620600000,1.151243743,1.244360000,,,,,
1749761169.626387,-0.007765220,0.012377800,-0.012676400,0.041881500,-0.017228100,0.001416910,0.001183730,0.001368900,1749761169.626386881,-0.011971772,-0.008377664,1.114710000,0.702672196,-0.759672000,-1.621090000,1.151491084,1.244230000,,,,,
1749761169.634733,,,,,,,,,,,,,,,,,,1749761169.634732962,0.000000000,0.030121200,0.000000000,0.000000000
1749761169.636048,-0.007823870,0.012404000,-0.012545900,0.048573900,-0.017160100,0.001787520,-0.002056180,0.002760000,1749761169.636048079,-0.011991108,-0.008443074,1.114620000,0.702019167,-0.759544000,-1.621550000,1.151717813,1.244120000,,,,,
1749761169.646296,-0.007980830,0.012565000,-0.012429900,0.054229100,-0.016977200,0.002923850,-0.004770320,0.004067340,1749761169.646296024,-0.012140407,-0.008612978,1.114520000,0.701405210,-0.759397000,-1.621960000,1.151898158,1.244020000,,,,,
1749761169.654735,,,,,,,,,,,,,,,,,,1749761169.654735088,0.000000000,0.037624800,0.000000000,0.000000000
1749761169.656238,-0.008041850,0.012571300,-0.012306100,0.058395600,-0.017092400,0.001929200,-0.006041940,0.005214950,1749761169.656238079,-0.012141583,-0.008677033,1.114430000,0.701018046,-0.759270000,-1.622190000,1.151963045,1.243910000,,,,,
1749761169.666473,-0.007934070,0.012515300,-0.012135900,0.060975000,-0.017286500,0.000460840,-0.006101730,0.006173640,1749761169.666472912,-0.012090594,-0.008567365,1.114370000,0.700823648,-0.759153000,-1.622260000,1.151946174,1.243810000,,,,,
1749761169.674744,,,,,,,,,,,,,,,,,,1749761169.674743891,0.000000000,0.045110500,0.000000000,0.000000000
1749761169.676389,-0.007769900,0.012355700,-0.011880100,0.062682400,-0.017468300,-0.000822686,-0.006099800,0.007031460,1749761169.676388979,-0.011939147,-0.008395918,1.114310000,0.700655756,-0.759051000,-1.622320000,1.151923048,1.243730000,,,,,
1749761169.686286,-0.007630250,0.012155300,-0.011603900,0.062967700,-0.017546100,-0.001301140,-0.006479450,0.007699720,1749761169.686285973,-0.011745215,-0.008247542,1.114250000,0.700425744,-0.758956000,-1.622440000,1.151942295,1.243650000,,,,,
1749761169.694734,,,,,,,,,,,,,,,,,,1749761169.694734097,0.000000000,0.052574900,0.000000000,0.000000000
1749761169.696405,-0.007454720,0.011901000,-0.011320400,0.063229000,-0.017568600,-0.001366920,-0.006305880,0.008367360,1749761169.696404934,-0.011499993,-0.008059579,1.114200000,0.700298361,-0.758872000,-1.622480000,1.151916038,1.243570000,,,,,
1749761169.706361,-0.007517620,0.011687600,-0.011095300,0.062169700,-0.017404900,-0.000145958,-0.005522100,0.008845750,1749761169.706361055,-0.011284034,-0.008110807,1.114120000,0.700272202,-0.758784000,-1.622430000,1.151796587,1.243490000,,,,,
1749761169.714740,,,,,,,,,,,,,,,,,,1749761169.714740038,0.000000000,0.060014300,0.000000000,0.000000000
1749761169.716342,-0.007505860,0.011398200,-0.010801000,0.060696100,-0.017251600,0.000919211,-0.004790260,0.009253370,1749761169.716341972,-0.010996031,-0.008083576,1.114040000,0.700259015,-0.758709000,-1.622380000,1.151677811,1.243420000,,,,,
1749761169.726277,-0.007369810,0.011203400,-0.010487400,0.059961900,-0.017244100,0.000907599,-0.003989820,0.009753660,1749761169.726277113,-0.010809060,-0.007936907,1.113990000,0.700256320,-0.758623000,-1.622310000,1.151574428,1.243360000,,,,,
1749761169.734737,,,,,,,,,,,,,,,,,,1749761169.734736919,0.000000000,0.067425400,0.000000000,0.000000000
1749761169.736521,-0.007298750,0.011075500,-0.010250500,0.054943800,-0.017264600,0.000704462,-0.002327740,0.009624240,1749761169.736521006,-0.010686560,-0.007857218,1.113930000,0.700396820,-0.758530000,-1.622110000,1.151369663,1.243290000,,,,,
1749761169.746232,-0.007203650,0.010880000,-0.010054300,0.049207000,-0.017621400,-0.001799940,-0.000903127,0.009340220,1749761169.746232033,-0.010497668,-0.007750222,1.113870000,0.700535742,-0.758447000,-1.621920000,1.151172403,1.243220000,,,,,
1749761169.754737,,,,,,,,,,,,,,,,,,1749761169.754736900,0.000000000,0.074804600,0.000000000,0.000000000
1749761169.756158,-0.007056990,0.010613400,-0.009794330,0.043772500,-0.017954100,-0.003966200,0.000346203,0.009042760,1749761169.756158113,-0.010240201,-0.007588389,1.113820000,0.700664069,-0.758377000,-1.621750000,1.150999795,1.243150000,,,,,
1749761169.766176,-0.006881070,0.010306600,-0.009629160,0.037591100,-0.018679000,-0.008682890,0.002045230,0.008582430,1749761169.766175985,-0.009944608,-0.007394585,1.113770000,0.700893410,-0.758316000,-1.621500000,1.150771566,1.243080000,,,,,
1749761169.774736,,,,,,,,,,,,,,,,,,1749761169.774735928,0.000000000,0.082148400,0.000000000,0.000000000
1749761169.776456,-0.006635920,0.009977020,-0.009496990,0.031355000,-0.019570500,-0.014221900,0.003704670,0.008052350,1749761169.776456118,-0.009629731,-0.007130543,1.113740000,0.701138170,-0.758260000,-1.621240000,1.150556509,1.243000000,,,,,
1749761169.786482,-0.006363530,0.009601490,-0.009297720,0.025643500,-0.020395600,-0.018922300,0.005117810,0.007536130,1749761169.786482096,-0.009270054,-0.006837340,1.113710000,0.701370846,-0.758215000,-1.621000000,1.150355983,1.242940000,,,,,
1749761169.794745,,,,,,,,,,,,,,,,,,1749761169.794744968,0.000000000,0.089453400,0.000000000,0.000000000
1749761169.796221,-0.006020550,0.009423870,-0.009147640,0.017881600,-0.021146600,-0.022789000,0.008688870,0.006664900,1749761169.796221018,-0.009113565,-0.006480685,1.113700000,0.701957017,-0.758145000,-1.620430000,1.149942554,1.242870000,,,,,
1749761169.806181,-0.005668370,0.009185650,-0.008935850,0.010959900,-0.021834700,-0.025956400,0.011723600,0.005838120,1749761169.806180954,-0.008896352,-0.006112406,1.113690000,0.702506951,-0.758085000,-1.619900000,1.149557422,1.242810000,,,,,
1749761169.814749,,,,,,,,,,,,,,,,,,1749761169.814749002,0.000000000,0.096716200,0.000000000,0.000000000
1749761169.816466,-0.005248490,0.008926930,-0.008728560,0.004290950,-0.022427300,-0.028249100,0.015152100,0.004978840,1749761169.816466093,-0.008662074,-0.005674963,1.113690000,0.703165605,-0.758031000,-1.619280000,1.149119030,1.242750000,,,,,
1749761169.826098,-0.004859800,0.008635890,-0.008638910,-0.000631504,-0.022942400,-0.029849900,0.017213200,0.004306600,1749761169.826097965,-0.008392585,-0.005268849,1.113700000,0.703635212,-0.757984000,-1.618830000,1.148810221,1.242670000,,,,,
1749761169.834742,,,,,,,,,,,,,,,,,,1749761169.834742069,0.000000000,0.103933000,0.000000000,0.000000000
1749761169.836181,-0.004478080,0.008305830,-0.008484290,-0.004915070,-0.023405100,-0.030980400,0.018856700,0.003677960,1749761169.836180925,-0.008083231,-0.004868407,1.113700000,0.704068208,-0.757946000,-1.618420000,1.148519825,1.242610000,,,,,
1749761169.846366,-0.004260370,0.008041740,-0.008464450,-0.008639280,-0.023638800,-0.030456400,0.018868700,0.003087750,1749761169.846365929,-0.007830686,-0.004636884,1.113690000,0.704241939,-0.757901000,-1.618230000,1.148373909,1.242530000,,,,,
1749761169.854736,,,,,,,,,,,,,,,,,,1749761169.854736090,0.000000000,0.111101000,0.000000000,0.000000000
1749761169.856081,-0.003914280,0.007693810,-0.008417700,-0.009587060,-0.023917100,-0.030275600,0.017017100,0.002863660,1749761169.856081009,-0.007499215,-0.004275286,1.113700000,0.704119625,-0.757871000,-1.618310000,1.148438808,1.242450000,,,,,
1749761169.866450,-0.003578060,0.007322510,-0.008302430,-0.010328000,-0.024158000,-0.029849900,0.015253000,0.002660150,1749761169.866450071,-0.007143950,-0.003922453,1.113710000,0.703992813,-0.757848000,-1.618400000,1.148511068,1.242380000,,,,,
1749761169.874757,,,,,,,,,,,,,,,,,,1749761169.874757051,0.000000000,0.118217000,0.000000000,0.000000000
1749761169.876319,-0.003158600,0.007033740,-0.008220520,-0.011734300,-0.024492100,-0.030095100,0.014891600,0.002352550,1749761169.876318932,-0.006875817,-0.003489040,1.113730000,0.704075746,-0.757817000,-1.618300000,1.148459169,1.242310000,,,,,
1749761169.886352,-0.002672880,0.006812730,-0.008213580,-0.015959500,-0.024380500,-0.027255000,0.014736800,0.001621370,1749761169.886352062,-0.006678510,-0.002992505,1.113770000,0.704185188,-0.757779000,-1.618170000,1.148405785,1.242230000,,,,,
1749761169.894753,,,,,,,,,,,,,,,,,,1749761169.894752979,0.000000000,0.125277000,0.000000000,0.000000000
1749761169.896173,-0.002211190,0.006515690,-0.008241220,-0.020535100,-0.024110200,-0.023518600,0.014258500,0.000797024,1749761169.896173000,-0.006403868,-0.002516754,1.113810000,0.704250195,-0.757754000,-1.618090000,1.148388220,1.242140000,,,,,
1749761169.906328,-0.001789330,0.006199170,-0.008192310,-0.024340100,-0.023842100,-0.020054600,0.013715500,0.000038868,1749761169.906327963,-0.006107771,-0.002080035,1.113850000,0.704297231,-0.757734000,-1.618030000,1.148384974,1.242070000,,,,,
1749761169.914758,,,,,,,,,,,,,,,,,,1749761169.914757967,0.000000000,0.132277000,0.000000000,0.000000000
1749761169.916298,-0.001450760,0.005989930,-0.008164670,-0.028084500,-0.023563100,-0.016753600,0.013801800,-0.000748525,1749761169.916297913,-0.005915010,-0.001731076,1.113880000,0.704437103,-0.757703000,-1.617880000,1.148307824,1.241990000,,,,,
1749761169.926351,-0.001045140,0.005912070,-0.008274870,-0.029353100,-0.023240700,-0.013381200,0.013165300,-0.001213670,1749761169.926351070,-0.005856380,-0.001322007,1.113930000,0.704431738,-0.757654000,-1.617840000,1.148327286,1.241890000,,,,,
1749761169.934767,,,,,,,,,,,,,,,,,,1749761169.934767008,0.000000000,0.139216000,0.000000000,0.000000000
1749761169.936311,-0.000682460,0.005791880,-0.008297620,-0.030198500,-0.022930400,-0.010324300,0.012494200,-0.001630030,1749761169.936311007,-0.005753417,-0.000953846,1.113970000,0.704434836,-0.757613000,-1.617800000,1.148337137,1.241810000,,,,,
1749761169.946299,-0.000548407,0.005593100,-0.008527510,-0.031575900,-0.022607000,-0.007387600,0.010905500,-0.002132130,1749761169.946299076,-0.005561066,-0.000811212,1.113980000,0.704279076,-0.757584000,-1.617910000,1.148423241,1.241690000,,,,,
1749761169.954767,,,,,,,,,,,,,,,,,,1749761169.954766989,0.000000000,0.146089000,0.000000000,0.000000000
1749761169.956361,-0.000569471,0.005324340,-0.008928050,-0.035397800,-0.022661300,-0.007253040,0.010823800,-0.003003140,1749761169.956361055,-0.005291694,-0.000819066,1.113970000,0.704377404,-0.757567000,-1.617810000,1.148342019,1.241550000,,,,,
1749761169.966370,-0.000582781,0.005043010,-0.009197990,-0.038414600,-0.022707500,-0.007071560,0.010656700,-0.003795390,1749761169.966370106,-0.005010115,-0.000818739,1.113970000,0.704456283,-0.757554000,-1.617730000,1.148285056,1.241420000,,,,,
1749761169.974780,,,,,,,,,,,,,,,,,,1749761169.974780083,0.000000000,0.152893000,0.000000000,0.000000000
1749761169.976420,-0.000460638,0.004969670,-0.009432410,-0.040111000,-0.022959100,-0.008317070,0.009980650,-0.004426010,1749761169.976419926,-0.004942593,-0.000693241,1.113980000,0.704428340,-0.757515000,-1.617720000,1.148286171,1.241290000,,,,,
1749761169.986205,-0.000165072,0.004769240,-0.009723310,-0.040143600,-0.023503600,-0.011492200,0.008224810,-0.004831850,1749761169.986205101,-0.004756189,-0.000389312,1.114020000,0.704233230,-0.757494000,-1.617870000,1.148430790,1.241150000,,,,,
1749761169.994774,,,,,,,,,,,,,,,,,,1749761169.994774103,0.000000000,0.159625000,0.000000000,0.000000000
1749761169.996391,0.000093929,0.004552350,-0.009890670,-0.039816500,-0.024005700,-0.014157000,0.006622030,-0.005185770,1749761169.996391058,-0.004551709,-0.000121074,1.114050000,0.704043559,-0.757478000,-1.618020000,1.148565623,1.241030000,,,,,
1749761170.006417,0.000566014,0.004443460,-0.010214300,-0.035344000,-0.024400300,-0.015899300,0.005564710,-0.004934150,1749761170.006417036,-0.004465258,0.000355223,1.114120000,0.703906908,-0.757448000,-1.618110000,1.148697485,1.240890000,,,,,
1749761170.014771,,,,,,,,,,,,,,,,,,1749761170.014770985,0.000000000,0.166283000,0.000000000,0.000000000
1749761170.016358,0.000967388,0.004320040,-0.010539600,-0.029332300,-0.024864500,-0.017999500,0.004839780,-0.004414200,1749761170.016357899,-0.004360997,0.000761767,1.114190000,0.703820187,-0.757422000,-1.618160000,1.148801369,1.240740000,,,,,
1749761170.026068,0.001308560,0.004174250,-0.010729700,-0.023834300,-0.025287200,-0.019670100,0.004165250,-0.003908770,1749761170.026067972,-0.004231579,0.001109247,1.114240000,0.703738401,-0.757400000,-1.618210000,1.148885460,1.240600000,,,,,
1749761170.034757,,,,,,,,,,,,,,,,,,1749761170.034756899,0.000000000,0.172862000,0.000000000,0.000000000
1749761170.036413,0.001540090,0.004011250,-0.010839400,-0.018205000,-0.025724500,-0.021326500,0.003788050,-0.003329280,1749761170.036412954,-0.004079750,0.001348202,1.114290000,0.703706562,-0.757382000,-1.618220000,1.148941588,1.240480000,,,,,
1749761170.046262,0.001613970,0.003872870,-0.010895700,-0.013474700,-0.026078700,-0.022296400,0.003853080,-0.002824090,1749761170.046262026,-0.003944970,0.001428716,1.114320000,0.703731121,-0.757362000,-1.618180000,1.148942458,1.240370000,,,,,
1749761170.054769,,,,,,,,,,,,,,,,,,1749761170.054769039,0.000000000,0.179360000,0.000000000,0.000000000
1749761170.056332,0.001681050,0.003693550,-0.010897500,-0.008821770,-0.026394200,-0.022933400,0.003798670,-0.002282860,1749761170.056332111,-0.003768984,0.001504328,1.114340000,0.703751657,-0.757349000,-1.618150000,1.148940707,1.240260000,,,,,
1749761170.066386,0.001717120,0.003544770,-0.010951600,-0.002855600,-0.026705200,-0.023495200,0.003480540,-0.001504300,1749761170.066385984,-0.003622078,0.001547400,1.114370000,0.703735253,-0.757334000,-1.618150000,1.148969964,1.240140000,,,,,
1749761170.074764,,,,,,,,,,,,,,,,,,1749761170.074764013,0.000000000,0.185775000,0.000000000,0.000000000
1749761170.076415,0.001900030,0.003697110,-0.011360200,0.010522400,-0.027396400,-0.026635900,-0.000215930,0.000410728,1749761170.076415062,-0.003783784,0.001720964,1.114410000,0.703089340,-0.757276000,-1.618660000,1.149365898,1.239970000,,,,,
1749761170.086281,0.002042590,0.003797110,-0.011615600,0.022086000,-0.028026100,-0.029136700,-0.003434920,0.002195940,1749761170.086281061,-0.003891363,0.001856748,1.114450000,0.702495188,-0.757224000,-1.619130000,1.149733664,1.239820000,,,,,
1749761170.094735,,,,,,,,,,,,,,,,,,1749761170.094734907,0.000000000,0.192102000,0.000000000,0.000000000
1749761170.096320,0.002310650,0.003877960,-0.011997400,0.038632700,-0.029072300,-0.034332700,-0.007118790,0.004820730,1749761170.096319914,-0.003986278,0.002118317,1.114510000,0.701787852,-0.757175000,-1.619700000,1.150191433,1.239650000,,,,,
1749761170.106333,0.002434560,0.003948590,-0.012426700,0.054750900,-0.030040300,-0.038632100,-0.010665200,0.007548740,1749761170.106333017,-0.004064178,0.002236269,1.114550000,0.701069704,-0.757126000,-1.620280000,1.150635804,1.239470000,,,,,
1749761170.114723,,,,,,,,,,,,,,,,,,1749761170.114722967,0.000000000,0.198340000,0.000000000,0.000000000
1749761170.116224,0.002377500,0.003995160,-0.012782700,0.066707500,-0.030672900,-0.040327700,-0.013445300,0.009833330,1749761170.116224051,-0.004108979,0.002174880,1.114570000,0.700434848,-0.757079000,-1.620790000,1.151010826,1.239290000,,,,,
1749761170.126374,0.002365540,0.003992720,-0.013125500,0.076994200,-0.031162300,-0.040919900,-0.015790400,0.011994900,1749761170.126374006,-0.004106982,0.002161086,1.114590000,0.699842323,-0.757040000,-1.621270000,1.151364909,1.239110000,,,,,
1749761170.134742,,,,,,,,,,,,,,,,,,1749761170.134742022,0.000000000,0.204485000,0.000000000,0.000000000
1749761170.136333,0.002389580,0.004012550,-0.013362200,0.083953500,-0.031531600,-0.040645300,-0.017542100,0.013775900,1749761170.136332989,-0.004128895,0.002182402,1.114610000,0.699326243,-0.756997000,-1.621680000,1.151669534,1.238950000,,,,,
1749761170.146364,0.002059900,0.003970280,-0.013573500,0.089863600,-0.031625700,-0.038495700,-0.020413400,0.015474000,1749761170.146363974,-0.004071005,0.001852897,1.114590000,0.698613710,-0.756963000,-1.622270000,1.152060214,1.238780000,,,,,
1749761170.154766,,,,,,,,,,,,,,,,,,1749761170.154766083,0.000000000,0.210534000,0.000000000,0.000000000
1749761170.156326,0.001754390,0.003898290,-0.013637400,0.094217400,-0.031689000,-0.036281700,-0.022734600,0.017005200,1749761170.156326056,-0.003984229,0.001549344,1.114570000,0.697963575,-0.756934000,-1.622810000,1.152415816,1.238640000,,,,,
1749761170.166288,0.001190050,0.003822210,-0.013580300,0.098320600,-0.031618700,-0.033300300,-0.023706000,0.018543500,1749761170.166287899,-0.003879278,0.000988288,1.114500000,0.697512837,-0.756906000,-1.623180000,1.152602614,1.238510000,,,,,
1749761170.174738,,,,,,,,,,,,,,,,,,1749761170.174737930,0.000000000,0.216486000,0.000000000,0.000000000
1749761170.176449,0.000687774,0.003722070,-0.013410300,0.101025000,-0.031531400,-0.030407500,-0.024342600,0.019919600,1749761170.176449060,-0.003753138,0.000490706,1.114440000,0.697111635,-0.756882000,-1.623510000,1.152771549,1.238400000,,,,,
1749761170.186646,0.000005871,0.003672260,-0.013233500,0.103236000,-0.031407800,-0.027463600,-0.024498600,0.021251000,1749761170.186645985,-0.003667418,-0.000188616,1.114350000,0.696775169,-0.756852000,-1.623780000,1.152868265,1.238290000,,,,,
1749761170.194729,,,,,,,,,,,,,,,,,,1749761170.194729090,0.000000000,0.222337000,0.000000000,0.000000000
1749761170.196093,-0.000895868,0.003646750,-0.013068500,0.105650000,-0.031232200,-0.024364400,-0.024133600,0.022634200,1749761170.196093082,-0.003593982,-0.001088422,1.114220000,0.696530068,-0.756819000,-1.623970000,1.152869061,1.238180000,,,,,
1749761170.206372,-0.002052010,0.003620730,-0.012878800,0.105300000,-0.031017700,-0.021211200,-0.021528400,0.023639900,1749761170.206372023,-0.003506865,-0.002241056,1.114040000,0.696668050,-0.756786000,-1.623830000,1.152590039,1.238080000,,,,,
1749761170.214734,,,,,,,,,,,,,,,,,,1749761170.214734077,0.000000000,0.228084000,0.000000000,0.000000000
1749761170.216491,-0.003041240,0.003565990,-0.012599500,0.104063000,-0.030803400,-0.018275900,-0.019067700,0.024513100,1749761170.216490984,-0.003400215,-0.003225517,1.113880000,0.696809904,-0.756758000,-1.623690000,1.152331238,1.237990000,,,,,
1749761170.226290,-0.004551050,0.003593240,-0.012211600,0.103139000,-0.030489200,-0.014855100,-0.016088400,0.025419500,1749761170.226289988,-0.003348741,-0.004733853,1.113630000,0.697060655,-0.756719000,-1.623450000,1.151912264,1.237920000,,,,,
1749761170.234775,,,,,,,,,,,,,,,,,,1749761170.234775066,0.000000000,0.233725000,0.000000000,0.000000000
1749761170.236431,-0.005945280,0.003695110,-0.011773200,0.101295000,-0.030060200,-0.010879800,-0.013599800,0.026183000,1749761170.236430883,-0.003378319,-0.006130836,1.113380000,0.697253201,-0.756668000,-1.623250000,1.151520499,1.237860000,,,,,
1749761170.246234,-0.007107490,0.003751140,-0.011286900,0.098791200,-0.029651700,-0.007319680,-0.011310900,0.026832200,1749761170.246233940,-0.003374797,-0.007293711,1.113150000,0.697450566,-0.756623000,-1.623050000,1.151148989,1.237810000,,,,,
1749761170.254747,,,,,,,,,,,,,,,,,,1749761170.254746914,0.000000000,0.239259000,0.000000000,0.000000000
1749761170.256299,-0.008479820,0.003914130,-0.010613800,0.095464700,-0.028871800,-0.001447090,-0.009890200,0.027336800,1749761170.256299019,-0.003466668,-0.008672368,1.112880000,0.697507327,-0.756562000,-1.622960000,1.150813401,1.237800000,,,,,
1749761170.266345,-0.009600490,0.004021480,-0.009933390,0.091720800,-0.028141000,0.003682780,-0.008564710,0.027747500,1749761170.266345024,-0.003516420,-0.009796760,1.112630000,0.697580490,-0.756507000,-1.622860000,1.150491121,1.237790000,,,,,
1749761170.274735,,,,,,,,,,,,,,,,,,1749761170.274734974,0.000000000,0.244681000,0.000000000,0.000000000
1749761170.276437,-0.010681400,0.004020130,-0.009153500,0.087769100,-0.027313500,0.009124840,-0.006439750,0.028090600,1749761170.276437044,-0.003461214,-0.010875374,1.112380000,0.697806590,-0.756467000,-1.622640000,1.150085888,1.237810000,,,,,
1749761170.286400,-0.012181900,0.004033230,-0.008418330,0.084173900,-0.026231500,0.015944100,-0.003545330,0.028446000,1749761170.286400080,-0.003400870,-0.012373347,1.112060000,0.698183603,-0.756425000,-1.622290000,1.149519848,1.237820000,,,,,
1749761170.294738,,,,,,,,,,,,,,,,,,1749761170.294738054,0.000000000,0.249990000,0.000000000,0.000000000
1749761170.296145,-0.013705200,0.003999010,-0.007764520,0.081008700,-0.025356200,0.020871900,-0.001197730,0.028827900,1749761170.296144962,-0.003292597,-0.013891846,1.111710000,0.698521874,-0.756389000,-1.621980000,1.148951972,1.237830000,,,,,
1749761170.306331,-0.014911200,0.003933780,-0.007126070,0.077533300,-0.024550500,0.024980900,0.000858452,0.029133100,1749761170.306330919,-0.003170128,-0.015092011,1.111400000,0.698840850,-0.756359000,-1.621690000,1.148438228,1.237850000,,,,,
1749761170.314734,,,,,,,,,,,,,,,,,,1749761170.314733982,0.000000000,0.255184000,0.000000000,0.000000000
1749761170.316533,-0.016255000,0.003986410,-0.006747980,0.076031300,-0.023888900,0.027815500,0.002792340,0.029690200,1749761170.316533089,-0.003159095,-0.016435833,1.111060000,0.699144126,-0.756312000,-1.621400000,1.147893573,1.237830000,,,,,
1749761170.326370,-0.017714700,0.004003630,-0.006283300,0.073917900,-0.023084900,0.031434700,0.004827210,0.030143500,1749761170.326370001,-0.003108185,-0.017893542,1.110680000,0.699488569,-0.756270000,-1.621080000,1.147288158,1.237830000,,,,,
1749761170.334734,,,,,,,,,,,,,,,,,,1749761170.334733963,0.000000000,0.260260000,0.000000000,0.000000000
1749761170.336416,-0.018829700,0.003983170,-0.005822760,0.071421900,-0.022352800,0.034309900,0.006557530,0.030520000,1749761170.336416006,-0.003037410,-0.019005194,1.110340000,0.699811759,-0.756232000,-1.620780000,1.146736786,1.237840000,,,,,
1749761170.346284,-0.020362600,0.003952660,-0.005390700,0.065506900,-0.021657200,0.036736200,0.006994700,0.030374900,1749761170.346283913,-0.002933019,-0.020534274,1.109930000,0.699946304,-0.756197000,-1.620650000,1.146234566,1.237840000,,,,,
1749761170.354742,,,,,,,,,,,,,,,,,,1749761170.354742050,0.000000000,0.265216000,0.000000000,0.000000000
1749761170.356313,-0.021518100,0.003891080,-0.004966490,0.059772800,-0.021030000,0.038525100,0.007313680,0.030196900,1749761170.356312990,-0.002816536,-0.021684932,1.109560000,0.700071279,-0.756166000,-1.620530000,1.145779480,1.237850000,,,,,
1749761170.366287,-0.023115700,0.004003160,-0.004565760,0.054970000,-0.020408400,0.040152200,0.007879830,0.030096900,1749761170.366286993,-0.002852548,-0.023285700,1.109110000,0.700210509,-0.756111000,-1.620380000,1.145222284,1.237860000,,,,,
1749761170.374780,,,,,,,,,,,,,,,,,,1749761170.374779940,0.000000000,0.270051000,0.000000000,0.000000000
1749761170.376419,-0.024813700,0.004059570,-0.004346320,0.050898900,-0.020034000,0.039965100,0.008337930,0.030055100,1749761170.376419067,-0.002828478,-0.024983985,1.108630000,0.700358062,-0.756063000,-1.620230000,1.144635454,1.237840000,,,,,
1749761170.386200,-0.026073500,0.004072780,-0.004116630,0.046900700,-0.019709500,0.039448100,0.008663260,0.029983200,1749761170.386199951,-0.002782832,-0.026242538,1.108200000,0.700486101,-0.756021000,-1.620100000,1.144112850,1.237830000,,,,,
1749761170.394735,,,,,,,,,,,,,,,,,,1749761170.394735098,0.000000000,0.274761000,0.000000000,0.000000000
1749761170.396295,-0.027615500,0.004201230,-0.004185330,0.043992100,-0.020351900,0.032310600,0.008040220,0.030029700,1749761170.396295071,-0.002834853,-0.027789023,1.107720000,0.700438394,-0.755961000,-1.620110000,1.143637481,1.237780000,,,,,
1749761170.406416,-0.029149600,0.004327100,-0.004299970,0.038926700,-0.020817900,0.026879000,0.006993980,0.029733700,1749761170.406415939,-0.002882895,-0.029327664,1.107220000,0.700323093,-0.755901000,-1.620180000,1.143184157,1.237720000,,,,,
1749761170.414753,,,,,,,,,,,,,,,,,,1749761170.414752960,0.000000000,0.279346000,0.000000000,0.000000000
1749761170.416391,-0.030228100,0.004398460,-0.004361790,0.034168300,-0.021271300,0.021908300,0.006020420,0.029431600,1749761170.416390896,-0.002898801,-0.030408575,1.106770000,0.700211379,-0.755847000,-1.620250000,1.142781057,1.237670000,,,,,
1749761170.426340,-0.032479100,0.004244340,-0.004473400,0.032606600,-0.021825700,0.016584400,0.006473630,0.029546400,1749761170.426340103,-0.002637839,-0.032648862,1.106140000,0.700370022,-0.755826000,-1.620120000,1.142059751,1.237610000,,,,,
1749761170.434724,,,,,,,,,,,,,,,,,,1749761170.434724092,0.000000000,0.283803000,0.000000000,0.000000000
1749761170.436074,-0.034774000,0.004120750,-0.004618770,0.031538000,-0.022508200,0.010745400,0.007627660,0.029717200,1749761170.436074018,-0.002409287,-0.034934324,1.105480000,0.700640096,-0.755801000,-1.619890000,1.141238204,1.237540000,,,,,
1749761170.446423,-0.036987200,0.003974520,-0.004893500,0.031844900,-0.023289300,0.004628660,0.008161070,0.030077200,1749761170.446423054,-0.002160194,-0.037137358,1.104810000,0.700824077,-0.755781000,-1.619740000,1.140462919,1.237460000,,,,,
1749761170.454779,,,,,,,,,,,,,,,,,,1749761170.454778910,0.000000000,0.288131000,0.000000000,0.000000000
1749761170.456301,-0.039236300,0.003937580,-0.005226150,0.033585000,-0.024161300,-0.001691490,0.010304100,0.030648500,1749761170.456300974,-0.002028622,-0.039381169,1.104120000,0.701268333,-0.755747000,-1.619350000,1.139498674,1.237360000,,,,,
1749761170.466412,-0.041666700,0.004031770,-0.005648240,0.038122300,-0.024679700,-0.005143750,0.010741300,0.031643500,1749761170.466412067,-0.002011850,-0.041812935,1.103370000,0.701445373,-0.755694000,-1.619180000,1.138627756,1.237250000,,,,,
1749761170.474780,,,,,,,,,,,,,,,,,,1749761170.474780083,0.000000000,0.292327000,0.000000000,0.000000000
1749761170.476276,-0.043809400,0.004173260,-0.006032930,0.042818100,-0.025030100,-0.007201230,0.009315210,0.032706900,1749761170.476275921,-0.002045147,-0.043960175,1.102640000,0.701305958,-0.755633000,-1.619280000,1.137965796,1.237140000,,,,,
1749761170.486204,-0.045288500,0.004259590,-0.006314710,0.046530600,-0.025353300,-0.008930240,0.007990100,0.033674500,1749761170.486203909,-0.002055148,-0.045441927,1.101990000,0.701169789,-0.755579000,-1.619380000,1.137384066,1.237030000,,,,,
1749761170.494738,,,,,,,,,,,,,,,,,,1749761170.494738102,0.000000000,0.296391000,0.000000000,0.000000000
1749761170.496351,-0.047166900,0.004127020,-0.006718500,0.051958000,-0.025656400,-0.010402200,0.006281620,0.034928300,1749761170.496351004,-0.001823467,-0.047311983,1.101270000,0.700987540,-0.755555000,-1.619550000,1.136782934,1.236910000,,,,,
1749761170.506299,-0.050459600,0.003624060,-0.007142710,0.051615700,-0.025463000,-0.008354970,0.005064510,0.035398200,1749761170.506299019,-0.001155074,-0.050576386,1.100320000,0.700940854,-0.755587000,-1.619660000,1.135912733,1.236780000,,,,,
1749761170.514740,,,,,,,,,,,,,,,,,,1749761170.514739990,0.000000000,0.300320000,0.000000000,0.000000000
1749761170.516304,-0.053436100,0.003159310,-0.007536600,0.052806000,-0.025032400,-0.004815990,0.003612780,0.036087200,1749761170.516304016,-0.000536930,-0.053526720,1.099380000,0.700836125,-0.755618000,-1.619820000,1.135087517,1.236650000,,,,,
1749761170.526311,-0.055556500,0.002726380,-0.007813070,0.053375500,-0.024626400,-0.001689660,0.002315830,0.036698000,1749761170.526310921,0.000007732,-0.055623356,1.098540000,0.700739105,-0.755650000,-1.619970000,1.134355218,1.236540000,,,,,
1749761170.534729,,,,,,,,,,,,,,,,,,1749761170.534729004,0.000000000,0.304113000,0.000000000,0.000000000
1749761170.536196,-0.058860900,0.002403850,-0.008011700,0.054069300,-0.024037900,0.002477640,0.002186620,0.037332600,1749761170.536195993,0.000492296,-0.058907909,1.097500000,0.700809202,-0.755669000,-1.619970000,1.133317409,1.236430000,,,,,
1749761170.546141,-0.061758500,0.001947410,-0.008192160,0.056305300,-0.023960900,0.002836990,0.002308600,0.038198100,1749761170.546140909,0.001088141,-0.061779614,1.096490000,0.700946088,-0.755711000,-1.619930000,1.132282658,1.236330000,,,,,
1749761170.554756,,,,,,,,,,,,,,,,,,1749761170.554755926,0.000000000,0.307768000,0.000000000,0.000000000
1749761170.556184,-0.063736400,0.001532450,-0.008276860,0.057755000,-0.023890700,0.003124990,0.002394450,0.038971800,1749761170.556184053,0.001597194,-0.063734810,1.095590000,0.701076496,-0.755752000,-1.619890000,1.131357715,1.236230000,,,,,
1749761170.566195,-0.066228400,0.000964378,-0.007897640,0.062813300,-0.023825800,0.003356280,0.002855540,0.040284200,1749761170.566195011,0.002280916,-0.066196136,1.094590000,0.701295218,-0.755820000,-1.619800000,1.130299145,1.236200000,,,,,
1749761170.574755,,,,,,,,,,,,,,,,,,1749761170.574754953,0.000000000,0.311285000,0.000000000,0.000000000
1749761170.576359,-0.068555600,0.000348477,-0.007333650,0.068142500,-0.023627600,0.004489280,0.003976720,0.041686600,1749761170.576359034,0.002997060,-0.068490944,1.093590000,0.701637663,-0.755899000,-1.619610000,1.129170925,1.236210000,,,,,
1749761170.586181,-0.069976200,-0.000191270,-0.006777270,0.072182700,-0.023445100,0.005436760,0.004918440,0.042955000,1749761170.586180925,0.003592902,-0.069884163,1.092690000,0.701959566,-0.755974000,-1.619430000,1.128149322,1.236210000,,,,,
1749761170.594744,,,,,,,,,,,,,,,,,,1749761170.594743967,0.000000000,0.314662000,0.000000000,0.000000000
1749761170.596378,-0.072725700,-0.000987667,-0.005899810,0.072239200,-0.023751900,0.002950620,0.004022010,0.043685000,1749761170.596378088,0.004528556,-0.072591288,1.091590000,0.702029465,-0.756092000,-1.619520000,1.127119546,1.236270000,,,,,
1749761170.606235,-0.075759900,-0.001986550,-0.005082470,0.072713400,-0.023559900,0.004069200,0.001311880,0.044476300,1749761170.606235027,0.005700483,-0.075571247,1.090430000,0.701846646,-0.756247000,-1.619870000,1.126214187,1.236330000,,,,,
1749761170.614744,,,,,,,,,,,,,,,,,,1749761170.614743948,0.000000000,0.317898000,0.000000000,0.000000000
1749761170.616338,-0.077732900,-0.002839320,-0.004325280,0.072482700,-0.023382900,0.005007840,-0.001061190,0.045169900,1749761170.616338015,0.006674585,-0.077497841,1.089380000,0.701670634,-0.756391000,-1.620200000,1.125404128,1.236390000,,,,,
1749761170.626366,-0.081008200,-0.003549480,-0.003428840,0.071841200,-0.023101500,0.006599670,0.000382779,0.045801500,1749761170.626365900,0.007529477,-0.080735582,1.088130000,0.702088022,-0.756522000,-1.620000000,1.124021727,1.236480000,,,,,
1749761170.634751,,,,,,,,,,,,,,,,,,1749761170.634751081,0.000000000,0.320992000,0.000000000,0.000000000
1749761170.636048,-0.084484300,-0.003949990,-0.002703410,0.072206900,-0.022462900,0.010540800,0.004659670,0.046573100,1749761170.636048079,0.008048272,-0.084192783,1.086810000,0.702942775,-0.756616000,-1.619380000,1.122272339,1.236550000,,,,,
1749761170.646279,-0.088078300,-0.004277510,-0.001950880,0.075225100,-0.022051500,0.012647400,0.006478080,0.047733700,1749761170.646279097,0.008522739,-0.087769282,1.085450000,0.703443171,-0.756703000,-1.619070000,1.120700155,1.236630000,,,,,
1749761170.654780,,,,,,,,,,,,,,,,,,1749761170.654779911,0.000000000,0.323942000,0.000000000,0.000000000
1749761170.656367,-0.090429900,-0.004525000,-0.001277890,0.077188800,-0.021674600,0.014371000,0.008005180,0.048771200,1749761170.656367064,0.008857286,-0.090108773,1.084220000,0.703906051,-0.756782000,-1.618780000,1.119271315,1.236710000,,,,,
1749761170.666432,-0.092748500,-0.004723390,-0.000529522,0.079247100,-0.021694100,0.013247700,0.012537900,0.049842100,1749761170.666431904,0.009098270,-0.092421946,1.082980000,0.704866597,-0.756856000,-1.618040000,1.117514996,1.236810000,,,,,
1749761170.674780,,,,,,,,,,,,,,,,,,1749761170.674779892,0.000000000,0.326748000,0.000000000,0.000000000
1749761170.676341,-0.096798500,-0.005254470,0.000729087,0.086869500,-0.022083000,0.009658950,0.012660400,0.051742000,1749761170.676341057,0.009806521,-0.096443720,1.081470000,0.705218004,-0.756980000,-1.617900000,1.115913817,1.236990000,,,,,
1749761170.686374,-0.099470200,-0.005670690,0.001819310,0.092741900,-0.022453100,0.006446350,0.012655000,0.053463800,1749761170.686373949,0.010335197,-0.099094203,1.080110000,0.705539803,-0.757093000,-1.617770000,1.114468936,1.237150000,,,,,
1749761170.694780,,,,,,,,,,,,,,,,,,1749761170.694780111,0.000000000,0.329409000,0.000000000,0.000000000
1749761170.696393,-0.101882000,-0.006031390,0.003012010,0.098253000,-0.023034900,0.001998080,0.009432430,0.055191900,1749761170.696393013,0.010843254,-0.101482725,1.078770000,0.705333098,-0.757202000,-1.618110000,1.113375410,1.237340000,,,,,
1749761170.706268,-0.104323000,-0.006336080,0.004303290,0.103466000,-0.023313500,-0.000057190,0.005994910,0.056931800,1749761170.706268072,0.011305653,-0.103901956,1.077390000,0.705047269,-0.757307000,-1.618520000,1.112291083,1.237560000,,,,,
1749761170.714803,,,,,,,,,,,,,,,,,,1749761170.714802980,0.000000000,0.331925000,0.000000000,0.000000000
1749761170.716545,-0.108136000,-0.006794290,0.005633020,0.109771000,-0.023953800,-0.004460230,0.006482070,0.058882400,1749761170.716545105,0.011931243,-0.107690307,1.075800000,0.705397359,-0.757437000,-1.618390000,1.110617403,1.237800000,,,,,
1749761170.726127,-0.110502000,-0.007133370,0.006741800,0.114292000,-0.024550000,-0.008257290,0.006849140,0.060637000,1749761170.726126909,0.012369299,-0.110038981,1.074370000,0.705715358,-0.757554000,-1.618270000,1.109109910,1.238010000,,,,,
1749761170.734776,,,,,,,,,,,,,,,,,,1749761170.734776020,0.000000000,0.334293000,0.000000000,0.000000000
1749761170.736364,-0.114939000,-0.008017590,0.008428150,0.114682000,-0.024803700,-0.009434800,0.006216520,0.061836500,1749761170.736363888,0.013465373,-0.114428752,1.072620000,0.705976033,-0.757754000,-1.618290000,1.107385493,1.238330000,,,,,
1749761170.746359,-0.117788000,-0.008717050,0.009822900,0.114006000,-0.025034900,-0.010377300,0.005610240,0.062885100,1749761170.746359110,0.014302820,-0.117240903,1.071060000,0.706198714,-0.757936000,-1.618320000,1.105857079,1.238610000,,,,,
1749761170.754765,,,,,,,,,,,,,,,,,,1749761170.754765034,0.000000000,0.336515000,0.000000000,0.000000000
1749761170.756387,-0.120731000,-0.009460400,0.011298000,0.110585000,-0.025153600,-0.010479800,0.004476270,0.063528200,1749761170.756386995,0.015198356,-0.120143595,1.069450000,0.706348506,-0.758131000,-1.618430000,1.104335866,1.238930000,,,,,
1749761170.766304,-0.125462000,-0.010254900,0.013368600,0.104737000,-0.024910800,-0.008086980,0.002275300,0.063784500,1749761170.766304016,0.016250928,-0.124827015,1.067560000,0.706350572,-0.758341000,-1.618700000,1.102648763,1.239340000,,,,,
1749761170.774755,,,,,,,,,,,,,,,,,,1749761170.774755001,0.000000000,0.338589000,0.000000000,0.000000000
1749761170.776301,-0.130631000,-0.011117100,0.015424300,0.099808300,-0.024489100,-0.004627850,0.001445210,0.064115800,1749761170.776300907,0.017372653,-0.129947062,1.065550000,0.706564491,-0.758569000,-1.618800000,1.100722649,1.239770000,,,,,
1749761170.786304,-0.135674000,-0.012008800,0.017504800,0.093775100,-0.024130700,-0.001842100,0.002684790,0.064237400,1749761170.786303997,0.018478327,-0.134945163,1.063510000,0.707121830,-0.758809000,-1.618600000,1.098555113,1.240230000,,,,,
1749761170.794753,,,,,,,,,,,,,,,,,,1749761170.794753075,0.000000000,0.340514000,0.000000000,0.000000000
1749761170.796305,-0.140552000,-0.012733200,0.019425900,0.082302700,-0.023684100,0.001358460,0.001123380,0.063508400,1749761170.796304941,0.019462953,-0.139779085,1.061450000,0.707226694,-0.759035000,-1.618800000,1.096649733,1.240680000,,,,,
1749761170.806252,-0.145681000,-0.013343200,0.021227700,0.073653800,-0.023291100,0.003969950,-0.000523012,0.063074900,1749761170.806252003,0.020351687,-0.144868228,1.059300000,0.707293857,-0.759251000,-1.619030000,1.094675281,1.241140000,,,,,
1749761170.814785,,,,,,,,,,,,,,,,,,1749761170.814785004,0.000000000,0.342291000,0.000000000,0.000000000
1749761170.816528,-0.150238000,-0.013800000,0.023042200,0.067537400,-0.023033600,0.005468980,-0.002764750,0.062922800,1749761170.816528082,0.021076972,-0.149390957,1.057180000,0.707234255,-0.759450000,-1.619360000,1.092800788,1.241610000,,,,,
1749761170.826051,-0.154969000,-0.014210700,0.024743600,0.063531400,-0.023081900,0.004760350,-0.004965420,0.063016200,1749761170.826050997,0.021770784,-0.154088831,1.054990000,0.707156573,-0.759648000,-1.619710000,1.090870554,1.242090000,,,,,
1749761170.834757,,,,,,,,,,,,,,,,,,1749761170.834757090,0.000000000,0.343920000,0.000000000,0.000000000
1749761170.836384,-0.159932000,-0.014610000,0.026313600,0.061660700,-0.022874600,0.005859240,-0.006678020,0.063379700,1749761170.836384058,0.022459975,-0.159019641,1.052720000,0.707140708,-0.759848000,-1.620010000,1.088825239,1.242570000,,,,,
1749761170.846300,-0.164756000,-0.015210600,0.027866300,0.062434400,-0.022967900,0.004814100,-0.011242600,0.064108700,1749761170.846299887,0.023416733,-0.163791204,1.050420000,0.706694208,-0.760082000,-1.620740000,1.087055711,1.243060000,,,,,
1749761170.854780,,,,,,,,,,,,,,,,,,1749761170.854779959,0.000000000,0.345399000,0.000000000,0.000000000
1749761170.856355,-0.167499000,-0.015599300,0.028972500,0.062555700,-0.023058200,0.003860790,-0.015120300,0.064750700,1749761170.856354952,0.024055109,-0.166495060,1.048370000,0.706266314,-0.760290000,-1.621420000,1.085499164,1.243500000,,,,,
1749761170.866378,-0.170632000,-0.016184500,0.030458800,0.059721000,-0.023165000,0.002859950,-0.015344600,0.064964400,1749761170.866378069,0.024828622,-0.169589967,1.046240000,0.706419767,-0.760531000,-1.621600000,1.083511261,1.244000000,,,,,
1749761170.874780,,,,,,,,,,,,,,,,,,1749761170.874779940,0.000000000,0.346729000,0.000000000,0.000000000
1749761170.876336,-0.176456000,-0.016642700,0.032500600,0.055477600,-0.023086700,0.003202090,-0.015582000,0.064945100,1749761170.876336098,0.025615307,-0.175378321,1.043690000,0.706572567,-0.760760000,-1.621790000,1.081110448,1.244600000,,,,,
1749761170.886325,-0.182105000,-0.017067000,0.034389300,0.051626400,-0.023045500,0.003265770,-0.017219900,0.064940400,1749761170.886324883,0.026397581,-0.180988069,1.041100000,0.706511605,-0.760988000,-1.622180000,1.078811058,1.245200000,,,,,
1749761170.894773,,,,,,,,,,,,,,,,,,1749761170.894773006,0.000000000,0.347910000,0.000000000,0.000000000
1749761170.896329,-0.185414000,-0.017285600,0.035730400,0.047813500,-0.023008900,0.003292350,-0.018494600,0.064902700,1749761170.896328926,0.026852186,-0.184271820,1.038800000,0.706443874,-0.761190000,-1.622540000,1.076778858,1.245740000,,,,,
1749761170.906305,-0.190940000,-0.017888900,0.037397400,0.046676700,-0.023443700,0.000072908,-0.017879100,0.065215700,1749761170.906305075,0.027757564,-0.189756723,1.036150000,0.706744908,-0.761451000,-1.622630000,1.074209515,1.246340000,,,,,
1749761170.914773,,,,,,,,,,,,,,,,,,1749761170.914772987,0.000000000,0.348943000,0.000000000,0.000000000
1749761170.916236,-0.196135000,-0.018434300,0.038767700,0.044785500,-0.024070900,-0.004249070,-0.018009900,0.065407700,1749761170.916235924,0.028610370,-0.194910770,1.033480000,0.706926570,-0.761709000,-1.622830000,1.071697875,1.246910000,,,,,
1749761170.926183,-0.198924000,-0.018746300,0.039618400,0.042741000,-0.024655100,-0.007977370,-0.017964400,0.065558500,1749761170.926182985,0.029102586,-0.197674533,1.031110000,0.707086031,-0.761938000,-1.623010000,1.069470286,1.247420000,,,,,
1749761170.934778,,,,,,,,,,,,,,,,,,1749761170.934777975,0.000000000,0.349826000,0.000000000,0.000000000
1749761170.936391,-0.204750000,-0.019528300,0.041380200,0.037841200,-0.025849800,-0.015651900,-0.015122800,0.065274100,1749761170.936391115,0.030138750,-0.203459020,1.028280000,0.707790297,-0.762239000,-1.622770000,1.066490013,1.248080000,,,,,
1749761170.946287,-0.210540000,-0.020259200,0.043020600,0.028541400,-0.026779200,-0.020971900,-0.011716900,0.064301400,1749761170.946286917,0.031098324,-0.209213817,1.025390000,0.708603615,-0.762541000,-1.622430000,1.063378740,1.248730000,,,,,
1749761170.954745,,,,,,,,,,,,,,,,,,1749761170.954745054,0.000000000,0.350560000,0.000000000,0.000000000
1749761170.956298,-0.215858000,-0.020892100,0.044582200,0.015275300,-0.027166400,-0.022193400,-0.009755280,0.062659500,1749761170.956298113,0.031968382,-0.214497502,1.022510000,0.709226140,-0.762835000,-1.622260000,1.060397199,1.249390000,,,,,
1749761170.966039,-0.221421000,-0.021641200,0.046142100,0.003837000,-0.027045800,-0.019835500,-0.008853510,0.061150500,1749761170.966038942,0.032996056,-0.220015593,1.019550000,0.709727707,-0.763153000,-1.622230000,1.057436185,1.250060000,,,,,
1749761170.974731,,,,,,,,,,,,,,,,,,1749761170.974730968,0.000000000,0.351146000,0.000000000,0.000000000
1749761170.976363,-0.224307000,-0.022102200,0.047092600,-0.006163660,-0.026920100,-0.017605400,-0.007989360,0.059735900,1749761170.976362944,0.033595904,-0.222875420,1.016910000,0.710189249,-0.763437000,-1.622190000,1.054785870,1.250660000,,,,,
1749761170.986306,-0.230154000,-0.022823000,0.048315300,-0.019424800,-0.027055900,-0.017327900,-0.005741250,0.057747700,1749761170.986305952,0.034558948,-0.228686318,1.013820000,0.710935463,-0.763762000,-1.621940000,1.051538945,1.251310000,,,,,
1749761170.994744,,,,,,,,,,,,,,,,,,1749761170.994744062,0.000000000,0.351584000,0.000000000,0.000000000
1749761170.996367,-0.233210000,-0.023248900,0.048952900,-0.030807900,-0.027171700,-0.016932600,-0.003731530,0.055899700,1749761170.996366978,0.035087222,-0.231724626,1.011070000,0.711606875,-0.764052000,-1.621710000,1.048643724,1.251880000,,,,,
1749761171.006392,-0.235720000,-0.023786700,0.049507900,-0.038328300,-0.027172300,-0.015771100,-0.006980180,0.054499000,1749761171.006392002,0.035871503,-0.234185740,1.008380000,0.711520832,-0.764363000,-1.622220000,1.046336049,1.252450000,,,,,
1749761171.014725,,,,,,,,,,,,,,,,,,1749761171.014724970,0.000000000,0.351874000,0.000000000,0.000000000
1749761171.016052,-0.241822000,-0.024569400,0.050551300,-0.041459600,-0.026744400,-0.011740200,-0.008089840,0.053660800,1749761171.016052008,0.037022071,-0.240230933,1.005130000,0.711799486,-0.764715000,-1.622450000,1.043272179,1.253100000,,,,,
1749761171.026309,-0.244998000,-0.025033800,0.051012800,-0.043820900,-0.026336400,-0.008123830,-0.008985090,0.052903200,1749761171.026309013,0.037700940,-0.243370808,1.002250000,0.712042262,-0.765028000,-1.622660000,1.040561733,1.253670000,,,,,
1749761171.034744,,,,,,,,,,,,,,,,,,1749761171.034744024,0.000000000,0.352018000,0.000000000,0.000000000
1749761171.036303,-0.248123000,-0.025352900,0.051232200,-0.045605600,-0.026235700,-0.006871500,-0.007769400,0.052205700,1749761171.036303043,0.038159429,-0.246478499,0.999350000,0.712581590,-0.765324000,-1.622570000,1.037616849,1.254210000,,,,,
1749761171.046278,-0.254565000,-0.026174900,0.051906700,-0.045645900,-0.026393900,-0.007487420,-0.010804400,0.051743800,1749761171.046278000,0.039445191,-0.252848851,0.995932000,0.712593081,-0.765697000,-1.623090000,1.034593420,1.254820000,,,,,
1749761171.054744,,,,,,,,,,,,,,,,,,1749761171.054744005,0.000000000,0.352015000,0.000000000,0.000000000
1749761171.056292,-0.260796000,-0.026965400,0.052214800,-0.046014800,-0.026261800,-0.006062690,-0.011551000,0.051233700,1749761171.056292057,0.040617290,-0.259021084,0.992482000,0.712923023,-0.766074000,-1.623310000,1.031324710,1.255390000,,,,,
1749761171.066193,-0.263916000,-0.027415300,0.052020800,-0.045928700,-0.026134300,-0.004767580,-0.012099300,0.050786100,1749761171.066193104,0.041280138,-0.262105330,0.989420000,0.713222897,-0.766409000,-1.623500000,1.028420046,1.255880000,,,,,
1749761171.074766,,,,,,,,,,,,,,,,,,1749761171.074765921,0.000000000,0.351866000,0.000000000,0.000000000
1749761171.076363,-0.270241000,-0.028390300,0.051970200,-0.039028000,-0.026738600,-0.008599220,-0.010801400,0.051329300,1749761171.076363087,0.042570878,-0.268372740,0.985862000,0.713887244,-0.766825000,-1.623440000,1.024846069,1.256390000,,,,,
1749761171.086268,-0.275889000,-0.029256000,0.051826900,-0.033875200,-0.027049300,-0.010145700,-0.010196900,0.051687700,1749761171.086267948,0.043738052,-0.273966488,0.982339000,0.714461627,-0.767235000,-1.623460000,1.021363813,1.256890000,,,,,
1749761171.094764,,,,,,,,,,,,,,,,,,1749761171.094763994,0.000000000,0.351572000,0.000000000,0.000000000
1749761171.096424,-0.278366000,-0.029751200,0.051243000,-0.029085400,-0.027333400,-0.011403300,-0.009579760,0.052044800,1749761171.096424103,0.044365717,-0.276413543,0.979220000,0.714979122,-0.767599000,-1.623470000,1.018275448,1.257330000,,,,,
1749761171.106331,-0.283982000,-0.030586200,0.051221200,-0.024099600,-0.027445900,-0.011392300,-0.009557010,0.052478300,1749761171.106331110,0.045520616,-0.281973696,0.975621000,0.715495700,-0.768018000,-1.623560000,1.014767899,1.257840000,,,,,
1749761171.114749,,,,,,,,,,,,,,,,,,1749761171.114748955,0.000000000,0.351135000,0.000000000,0.000000000
1749761171.116304,-0.289406000,-0.031512900,0.051215500,-0.021065900,-0.027528100,-0.011174000,-0.009058940,0.052678000,1749761171.116303921,0.046737830,-0.287340340,0.971993000,0.716106201,-0.768458000,-1.623580000,1.011182475,1.258350000,,,,,
1749761171.126350,-0.291569000,-0.032041300,0.050757100,-0.018236000,-0.027597800,-0.010884800,-0.008544720,0.052878500,1749761171.126349926,0.047385402,-0.289471502,0.968785000,0.716646747,-0.768850000,-1.623600000,1.008013958,1.258790000,,,,,
1749761171.134769,,,,,,,,,,,,,,,,,,1749761171.134768963,0.000000000,0.350554000,0.000000000,0.000000000
1749761171.136356,-0.297424000,-0.033252400,0.050767600,-0.016350600,-0.027468200,-0.009243360,-0.011060800,0.052970100,1749761171.136356115,0.049036695,-0.295232384,0.965018000,0.716889875,-0.769347000,-1.624050000,1.004601142,1.259300000,,,,,
1749761171.146345,-0.299893000,-0.034013100,0.050327200,-0.014562900,-0.027340900,-0.007731220,-0.013155300,0.053066300,1749761171.146344900,0.050052750,-0.297636397,0.961686000,0.717088996,-0.769790000,-1.624470000,1.001598711,1.259750000,,,,,
1749761171.154743,,,,,,,,,,,,,,,,,,1749761171.154742956,0.000000000,0.349831000,0.000000000,0.000000000
1749761171.156367,-0.302258000,-0.034802500,0.049657100,-0.016067700,-0.027724200,-0.009837150,-0.014967000,0.052702000,1749761171.156367064,0.051084869,-0.299935741,0.958343000,0.717332302,-0.770244000,-1.624860000,0.998564717,1.260150000,,,,,
1749761171.166186,-0.308252000,-0.035763200,0.049247300,-0.024675500,-0.028248300,-0.012767400,-0.013576400,0.051290800,1749761171.166186094,0.052352772,-0.305871688,0.954450000,0.718079690,-0.770732000,-1.624810000,0.994667872,1.260590000,,,,,
1749761171.174745,,,,,,,,,,,,,,,,,,1749761171.174745083,0.000000000,0.348967000,0.000000000,0.000000000
1749761171.176449,-0.310745000,-0.036283600,0.048454200,-0.031957300,-0.028730500,-0.015207700,-0.012244500,0.049986100,1749761171.176449060,0.052988503,-0.308336137,0.951005000,0.718757519,-0.771165000,-1.624750000,0.991208149,1.260970000,,,,,
1749761171.186493,-0.313017000,-0.036713800,0.047645000,-0.036499000,-0.029151400,-0.017058400,-0.012502900,0.049006700,1749761171.186492920,0.053590293,-0.310573061,0.947567000,0.719210245,-0.771591000,-1.624910000,0.987913212,1.261330000,,,,,
1749761171.194742,,,,,,,,,,,,,,,,,,1749761171.194741964,0.000000000,0.347964000,0.000000000,0.000000000
1749761171.196333,-0.319110000,-0.037648400,0.046961000,-0.030455600,-0.029948500,-0.021370400,-0.010649000,0.049519700,1749761171.196332932,0.054808753,-0.316614268,0.943552000,0.720067413,-0.772094000,-1.624770000,0.983830495,1.261710000,,,,,
1749761171.206056,-0.324545000,-0.038533800,0.045977100,-0.023807200,-0.031163800,-0.028264800,-0.011486500,0.050181100,1749761171.206056118,0.056056905,-0.321981264,0.939571000,0.720570851,-0.772599000,-1.624990000,0.980041085,1.262040000,,,,,
1749761171.214762,,,,,,,,,,,,,,,,,,1749761171.214761972,0.000000000,0.346821000,0.000000000,0.000000000
1749761171.216379,-0.330520000,-0.039553500,0.045005200,-0.023468000,-0.032324800,-0.034310600,-0.011492600,0.049992300,1749761171.216378927,0.057438104,-0.327885367,0.935458000,0.721208737,-0.773132000,-1.625110000,0.976049546,1.262360000,,,,,
1749761171.226496,-0.335622000,-0.040606200,0.044149200,-0.027792500,-0.033222500,-0.038127700,-0.011042200,0.049129300,1749761171.226495981,0.058782870,-0.332919757,0.931411000,0.721928024,-0.773681000,-1.625160000,0.972074415,1.262680000,,,,,
1749761171.234738,,,,,,,,,,,,,,,,,,1749761171.234738111,0.000000000,0.345542000,0.000000000,0.000000000
1749761171.236320,-0.340793000,-0.041683400,0.043441200,-0.031150200,-0.033762800,-0.039222800,-0.010949600,0.048363600,1749761171.236320019,0.060173257,-0.338018570,0.927304000,0.722615551,-0.774243000,-1.625260000,0.968076287,1.263020000,,,,,
1749761171.246336,-0.345601000,-0.042795000,0.042682700,-0.031247800,-0.034216800,-0.039647800,-0.010927300,0.048037900,1749761171.246335983,0.061579216,-0.342752773,0.923197000,0.723320860,-0.774822000,-1.625360000,0.964079232,1.263340000,,,,,
1749761171.254735,,,,,,,,,,,,,,,,,,1749761171.254734993,0.000000000,0.344127000,0.000000000,0.000000000
1749761171.256066,-0.349749000,-0.043597900,0.041944300,-0.032283000,-0.035071800,-0.042803400,-0.009681180,0.047575000,1749761171.256066084,0.062582859,-0.346855194,0.919139000,0.724152562,-0.775366000,-1.625290000,0.960006251,1.263660000,,,,,
1749761171.266279,-0.354056000,-0.044320100,0.041100900,-0.035653500,-0.035879000,-0.045413800,-0.008417980,0.046762500,1749761171.266278982,0.063506974,-0.351122182,0.915016000,0.725003355,-0.775907000,-1.625200000,0.955853591,1.263960000,,,,,
1749761171.274736,,,,,,,,,,,,,,,,,,1749761171.274735928,0.000000000,0.342577000,0.000000000,0.000000000
1749761171.276380,-0.354673000,-0.044556900,0.040002000,-0.038274700,-0.036605200,-0.047286200,-0.007242750,0.046025200,1749761171.276380062,0.063748836,-0.351730494,0.911385000,0.725754268,-0.776385000,-1.625120000,0.952195898,1.264210000,,,,,
1749761171.286415,-0.359154000,-0.045327400,0.039156800,-0.044202200,-0.036741500,-0.044969400,-0.008498620,0.044781300,1749761171.286415100,0.064850543,-0.356146846,0.907188000,0.726301299,-0.776942000,-1.625370000,0.948216938,1.264490000,,,,,
1749761171.294741,,,,,,,,,,,,,,,,,,1749761171.294740915,0.000000000,0.340895000,0.000000000,0.000000000
1749761171.296361,-0.363637000,-0.046250800,0.038294600,-0.048062200,-0.036810600,-0.042349900,-0.008245720,0.043778400,1749761171.296360970,0.066035129,-0.360569502,0.902945000,0.727072664,-0.777530000,-1.625420000,0.944048683,1.264760000,,,,,
1749761171.306063,-0.367608000,-0.047051700,0.037367500,-0.052394200,-0.037247400,-0.042441600,-0.007812370,0.042668500,1749761171.306062937,0.067058927,-0.364489512,0.898732000,0.727861019,-0.778108000,-1.625440000,0.939888081,1.265000000,,,,,
1749761171.314740,,,,,,,,,,,,,,,,,,1749761171.314739943,0.000000000,0.339082000,0.000000000,0.000000000
1749761171.316371,-0.367813000,-0.047333000,0.036228800,-0.055704900,-0.037628800,-0.042145700,-0.007365590,0.041663500,1749761171.316370964,0.067354650,-0.364678169,0.895026000,0.728565301,-0.778620000,-1.625450000,0.936222862,1.265210000,,,,,
1749761171.326366,-0.372095000,-0.047854600,0.035035800,-0.061834300,-0.037819300,-0.040555700,-0.004525010,0.040216000,1749761171.326365948,0.067983944,-0.368948418,0.890725000,0.729665254,-0.779169000,-1.625110000,0.931710241,1.265400000,,,,,
1749761171.334777,,,,,,,,,,,,,,,,,,1749761171.334777117,0.000000000,0.337139000,0.000000000,0.000000000
1749761171.336332,-0.372531000,-0.047885400,0.033686100,-0.066627600,-0.037971400,-0.038811200,-0.002009820,0.038901300,1749761171.336332083,0.067920162,-0.369403856,0.886941000,0.730649873,-0.779652000,-1.624790000,0.927724281,1.265550000,,,,,
1749761171.346420,-0.373162000,-0.048121200,0.032450200,-0.069860500,-0.038417700,-0.039211700,-0.003727750,0.037765300,1749761171.346420050,0.068289575,-0.370002787,0.883124000,0.731118628,-0.780165000,-1.625060000,0.924137965,1.265710000,,,,,
1749761171.354747,,,,,,,,,,,,,,,,,,1749761171.354747057,0.000000000,0.335068000,0.000000000,0.000000000
1749761171.356431,-0.377132000,-0.048863200,0.031515300,-0.067959500,-0.039132700,-0.041434300,-0.004059720,0.037342900,1749761171.356431007,0.069279457,-0.373920466,0.878816000,0.731857623,-0.780754000,-1.625150000,0.919934122,1.265900000,,,,,
1749761171.366226,-0.381537000,-0.049549400,0.030600900,-0.068354400,-0.039341600,-0.040019800,-0.003560560,0.036605900,1749761171.366225958,0.070192605,-0.378283787,0.874404000,0.732711912,-0.781342000,-1.625120000,0.915538601,1.266080000,,,,,
1749761171.374755,,,,,,,,,,,,,,,,,,1749761171.374754906,0.000000000,0.332871000,0.000000000,0.000000000
1749761171.376394,-0.381998000,-0.049708600,0.029533000,-0.068093100,-0.039511200,-0.038432800,-0.003094090,0.035960300,1749761171.376394033,0.070365239,-0.378737574,0.870522000,0.733468277,-0.781861000,-1.625090000,0.911668504,1.266230000,,,,,
1749761171.386358,-0.386800000,-0.050441800,0.028343100,-0.072412300,-0.039109900,-0.033025000,-0.004073280,0.034651900,1749761171.386358023,0.071423141,-0.383480573,0.866005000,0.734162278,-0.782465000,-1.625260000,0.907315758,1.266360000,,,,,
1749761171.394778,,,,,,,,,,,,,,,,,,1749761171.394778013,0.000000000,0.330551000,0.000000000,0.000000000
1749761171.396303,-0.387559000,-0.050634000,0.027055200,-0.075534600,-0.038713100,-0.028020500,-0.004890420,0.033474200,1749761171.396302938,0.071717849,-0.384216515,0.862026000,0.734765544,-0.782997000,-1.625420000,0.903489193,1.266450000,,,,,
1749761171.406447,-0.388468000,-0.050778800,0.025843100,-0.078466500,-0.038316200,-0.023360000,-0.005407160,0.032292900,1749761171.406446934,0.071958275,-0.385107622,0.858019000,0.735402579,-0.783524000,-1.625540000,0.899605196,1.266550000,,,,,
1749761171.414740,,,,,,,,,,,,,,,,,,1749761171.414740086,0.000000000,0.328108000,0.000000000,0.000000000
1749761171.416553,-0.393332000,-0.051156300,0.024949200,-0.080059500,-0.038521800,-0.023167700,-0.006503130,0.031276800,1749761171.416553020,0.072687136,-0.389927698,0.853427000,0.736019064,-0.784087000,-1.625760000,0.895212827,1.266680000,,,,,
1749761171.426426,-0.397818000,-0.051518300,0.024054400,-0.081896600,-0.038532600,-0.021647300,-0.007700730,0.030209300,1749761171.426425934,0.073385739,-0.394370168,0.848842000,0.736629222,-0.784651000,-1.625990000,0.890835183,1.266800000,,,,,
1749761171.434735,,,,,,,,,,,,,,,,,,1749761171.434735060,0.000000000,0.325545000,0.000000000,0.000000000
1749761171.436323,-0.398205000,-0.051377400,0.023061700,-0.082772100,-0.038528800,-0.020130800,-0.008676060,0.029263100,1749761171.436322927,0.073353249,-0.394748224,0.844808000,0.737150885,-0.785146000,-1.626210000,0.886996827,1.266890000,,,,,
1749761171.446379,-0.402345000,-0.051763800,0.022110900,-0.075614700,-0.038885700,-0.021201700,-0.008697120,0.029475200,1749761171.446378946,0.074004248,-0.398853809,0.840224000,0.737894472,-0.785716000,-1.626300000,0.882517847,1.266980000,,,,,
1749761171.454735,,,,,,,,,,,,,,,,,,1749761171.454735041,0.000000000,0.322865000,0.000000000,0.000000000
1749761171.456145,-0.406695000,-0.052081500,0.021044000,-0.069426000,-0.039013500,-0.020622100,-0.008777250,0.029618200,1749761171.456145048,0.074603094,-0.403172028,0.835569000,0.738628047,-0.786280000,-1.626400000,0.877975171,1.267050000,,,,,
1749761171.466233,-0.406884000,-0.051897100,0.019928100,-0.063418700,-0.039119800,-0.019934400,-0.008769340,0.029796700,1749761171.466233015,0.074465785,-0.403364284,0.831474000,0.739270208,-0.786774000,-1.626490000,0.873980491,1.267100000,,,,,
1749761171.474768,,,,,,,,,,,,,,,,,,1749761171.474767923,0.000000000,0.320068000,0.000000000,0.000000000
1749761171.476318,-0.411244000,-0.052136300,0.019085000,-0.060864900,-0.039346200,-0.020120400,-0.009274200,0.029533500,1749761171.476317883,0.075012545,-0.407692212,0.826772000,0.739944987,-0.787327000,-1.626650000,0.869434967,1.267180000,,,,,
1749761171.486404,-0.415107000,-0.052427500,0.018320900,-0.056266300,-0.040019600,-0.023370900,-0.008968720,0.029593000,1749761171.486403942,0.075539518,-0.411529155,0.822099000,0.740725735,-0.787891000,-1.626700000,0.864837776,1.267260000,,,,,
1749761171.494744,,,,,,,,,,,,,,,,,,1749761171.494744062,0.000000000,0.317158000,0.000000000,0.000000000
1749761171.496351,-0.414796000,-0.052217000,0.017492900,-0.051761100,-0.040634700,-0.025996300,-0.008623120,0.029684800,1749761171.496351004,0.075328419,-0.411227390,0.817993000,0.741413953,-0.788385000,-1.626740000,0.860795450,1.267320000,,,,,
1749761171.506314,-0.418567000,-0.052023700,0.016953500,-0.051122900,-0.041030000,-0.026927600,-0.007224010,0.029259900,1749761171.506314039,0.075296474,-0.415012337,0.813297000,0.742272485,-0.788879000,-1.626620000,0.856045352,1.267410000,,,,,
1749761171.514735,,,,,,,,,,,,,,,,,,1749761171.514734983,0.000000000,0.314136000,0.000000000,0.000000000
1749761171.516411,-0.422641000,-0.051827900,0.016338200,-0.048772300,-0.041054800,-0.025244700,-0.004607470,0.029090200,1749761171.516411066,0.075198365,-0.419114247,0.808519000,0.743294174,-0.789371000,-1.626310000,0.851071866,1.267490000,,,,,
1749761171.526415,-0.422449000,-0.051198400,0.015657300,-0.046292200,-0.041061700,-0.023554800,-0.002286760,0.028962800,1749761171.526415110,0.074437681,-0.418979075,0.804321000,0.744198015,-0.789797000,-1.626020000,0.846688187,1.267560000,,,,,
1749761171.534736,,,,,,,,,,,,,,,,,,1749761171.534735918,0.000000000,0.311006000,0.000000000,0.000000000
1749761171.536325,-0.426065000,-0.050920600,0.014905900,-0.040032100,-0.041592300,-0.025585700,-0.001998770,0.029409400,1749761171.536324978,0.074351440,-0.422606383,0.799571000,0.744948314,-0.790269000,-1.626000000,0.841956582,1.267610000,,,,,
1749761171.546315,-0.429458000,-0.050693500,0.014063400,-0.036853300,-0.042395700,-0.029354500,-0.002394030,0.029470900,1749761171.546314955,0.074345977,-0.426000799,0.794817000,0.745618913,-0.790745000,-1.626080000,0.837295740,1.267630000,,,,,
1749761171.554760,,,,,,,,,,,,,,,,,,1749761171.554759979,0.000000000,0.307768000,0.000000000,0.000000000
1749761171.556401,-0.428611000,-0.050046600,0.013204800,-0.033757100,-0.043128600,-0.032378400,-0.002717230,0.029552200,1749761171.556401014,0.073683027,-0.425185681,0.790646000,0.746203430,-0.791158000,-1.626150000,0.833206169,1.267650000,,,,,
