__time,filtered_pose/dx,filtered_pose/dy,filtered_pose/dz,filtered_pose/p,filtered_pose/pitch,filtered_pose/q,filtered_pose/r,filtered_pose/roll,filtered_pose/timestamp,filtered_pose/vxb,filtered_pose/vyb,filtered_pose/x,filtered_pose/xb,filtered_pose/y,filtered_pose/yaw,filtered_pose/yb,filtered_pose/z,u_control/timestamp,u_control/ux,u_control/uy,u_control/uyaw,u_control/uz
1749760039.066678,0.027195000,-0.021958900,0.011594600,0.016736100,-0.017687200,-0.014272000,-0.005472240,-0.010233700,1749760039.066678047,0.028050094,-0.020855539,-0.146682000,-0.128613232,-0.449601000,-0.039938900,-0.455099225,1.230310000,,,,,
1749760039.076717,0.026845100,-0.022105900,0.010613500,0.014745300,-0.017511100,-0.012077400,-0.004334800,-0.010355600,1749760039.076716900,0.027704018,-0.021019457,-0.146461000,-0.128433145,-0.449842000,-0.039828300,-0.455317007,1.230280000,,,,,
1749760039.077975,,,,,,,,,,,,,,,,,,1749760039.077975035,0.000000000,0.000000000,0.000000000,0.000000000
1749760039.086364,0.026314000,-0.022386200,0.009661120,0.012942500,-0.017366500,-0.010250800,-0.003931500,-0.010470000,1749760039.086364031,0.027184176,-0.021321095,-0.146269000,-0.128237789,-0.450104000,-0.039813100,-0.455569205,1.230250000,,,,,
1749760039.096483,0.025696800,-0.022614300,0.008757710,0.011720500,-0.017255600,-0.008781770,-0.003137570,-0.010518100,1749760039.096482992,0.026574905,-0.021575600,-0.146096000,-0.128089339,-0.450361000,-0.039737100,-0.455809382,1.230220000,,,,,
1749760039.098047,,,,,,,,,,,,,,,,,,1749760039.098047018,0.000000000,0.000000000,0.000000000,0.007539230
1749760039.106698,0.025162300,-0.022782400,0.007838610,0.011143000,-0.017238400,-0.008059310,-0.001446450,-0.010484800,1749760039.106698036,0.026042838,-0.021770386,-0.145916000,-0.127997324,-0.450611000,-0.039522700,-0.456024602,1.230170000,,,,,
1749760039.116892,0.024702500,-0.022958700,0.007030410,0.009150020,-0.017343700,-0.008229110,-0.000331296,-0.010663000,1749760039.116892099,0.025587123,-0.021968490,-0.145732000,-0.127870730,-0.450865000,-0.039375200,-0.456252277,1.230130000,,,,,
1749760039.118044,,,,,,,,,,,,,,,,,,1749760039.118043900,0.000000000,0.000000000,0.000000000,0.015074900
1749760039.126654,0.024357500,-0.023134900,0.006189090,0.007012720,-0.017520200,-0.008877620,-0.000189893,-0.010882000,1749760039.126653910,0.025248945,-0.022158569,-0.145535000,-0.127671697,-0.451120000,-0.039358000,-0.456497129,1.230080000,,,,,
1749760039.136595,0.024012200,-0.023246200,0.005263650,0.004078470,-0.017550300,-0.008473650,-0.000549035,-0.011238100,1749760039.136595011,0.024909495,-0.022282024,-0.145341000,-0.127443464,-0.451367000,-0.039412000,-0.456743187,1.230010000,,,,,
1749760039.138042,,,,,,,,,,,,,,,,,,1749760039.138041973,0.000000000,0.000000000,0.000000000,0.022603400
1749760039.146631,0.023547400,-0.023447700,0.004264760,0.001123370,-0.017295700,-0.006138320,-0.000729202,-0.011626700,1749760039.146631002,0.024453709,-0.022500907,-0.145169000,-0.127246787,-0.451629000,-0.039443700,-0.457002240,1.229910000,,,,,
1749760039.156660,0.022964500,-0.023647100,0.003293070,-0.002478750,-0.016910500,-0.003064450,-0.000451004,-0.012138800,1749760039.156660080,0.023878373,-0.022723928,-0.145018000,-0.127100669,-0.451892000,-0.039410600,-0.457254874,1.229820000,,,,,
1749760039.158055,,,,,,,,,,,,,,,,,,1749760039.158055067,0.000000000,0.000000000,0.000000000,0.030121200
1749760039.166680,0.022456700,-0.023848300,0.002426730,-0.006787250,-0.016544100,-0.000331476,-0.000254633,-0.012789500,1749760039.166680098,0.023378344,-0.022945540,-0.144862000,-0.126945290,-0.452158000,-0.039386600,-0.457511475,1.229720000,,,,,
1749760039.176708,0.021852800,-0.024030000,0.001655430,-0.010270700,-0.016202900,0.002040250,0.000173742,-0.013363400,1749760039.176707983,0.022780685,-0.023152239,-0.144725000,-0.126825290,-0.452423000,-0.039326900,-0.457763304,1.229630000,,,,,
1749760039.178046,,,,,,,,,,,,,,,,,,1749760039.178045988,0.000000000,0.000000000,0.000000000,0.037624800
1749760039.186513,0.021297600,-0.024269700,0.000925838,-0.013486500,-0.015924700,0.003814690,0.000599808,-0.013933400,1749760039.186512947,0.022233847,-0.023414998,-0.144587000,-0.126705761,-0.452698000,-0.039263200,-0.458024595,1.229550000,,,,,
1749760039.196657,0.020788700,-0.024519200,0.000274103,-0.017181600,-0.015900600,0.003717470,0.001159170,-0.014605000,1749760039.196656942,0.021733068,-0.023686177,-0.144448000,-0.126595880,-0.452977000,-0.039176000,-0.458286887,1.229460000,,,,,
1749760039.198047,,,,,,,,,,,,,,,,,,1749760039.198046923,0.000000000,0.000000000,0.000000000,0.045110500
1749760039.206643,0.020453100,-0.024739600,-0.000360290,-0.021702900,-0.016049000,0.002440790,0.001434000,-0.015433700,1749760039.206643105,0.021405126,-0.023920654,-0.144289000,-0.126449768,-0.453254000,-0.039124500,-0.458550935,1.229370000,,,,,
1749760039.216710,0.020145800,-0.024899500,-0.001070860,-0.026273000,-0.016083600,0.002034340,0.000876019,-0.016314700,1749760039.216710091,0.021105922,-0.024091044,-0.144129000,-0.126248687,-0.453525000,-0.039191200,-0.458823891,1.229260000,,,,,
1749760039.218044,,,,,,,,,,,,,,,,,,1749760039.218044043,0.000000000,0.000000000,0.000000000,0.052574900
1749760039.226722,0.019845000,-0.025021600,-0.001821250,-0.029794900,-0.016032900,0.002243430,0.000705062,-0.017089100,1749760039.226722002,0.020810527,-0.024224501,-0.143972000,-0.126073955,-0.453792000,-0.039207300,-0.459086565,1.229140000,,,,,
1749760039.236470,0.019470600,-0.025142100,-0.002615630,-0.033273000,-0.015738400,0.004115990,-0.000567387,-0.017892400,1749760039.236469984,0.020445469,-0.024355949,-0.143827000,-0.125836927,-0.454059000,-0.039385100,-0.459370057,1.229010000,,,,,
1749760039.238036,,,,,,,,,,,,,,,,,,1749760039.238035917,0.000000000,0.000000000,0.000000000,0.060014300
1749760039.246605,0.018994300,-0.025328400,-0.003318960,-0.036172000,-0.015463800,0.005722590,-0.001986530,-0.018646300,1749760039.246604919,0.019982075,-0.024556627,-0.143702000,-0.125603683,-0.454338000,-0.039596900,-0.459670532,1.228880000,,,,,
1749760039.256633,0.018565500,-0.025464000,-0.003906420,-0.038831600,-0.015374600,0.005942810,-0.001846110,-0.019394400,1749760039.256633043,0.019558967,-0.024709106,-0.143574000,-0.125465206,-0.454611000,-0.039596400,-0.459938188,1.228760000,,,,,
1749760039.258044,,,,,,,,,,,,,,,,,,1749760039.258044004,0.000000000,0.000000000,0.000000000,0.067425400
1749760039.266669,0.018058400,-0.025549900,-0.004378010,-0.041075600,-0.015299800,0.006048530,-0.002015900,-0.020108700,1749760039.266669035,0.019056734,-0.024814191,-0.143462000,-0.125322890,-0.454878000,-0.039639500,-0.460205947,1.228660000,,,,,
1749760039.276722,0.017669700,-0.025557800,-0.004840830,-0.043276100,-0.015285300,0.005732400,-0.001999320,-0.020839100,1749760039.276721954,0.018669095,-0.024837156,-0.143338000,-0.125180606,-0.455135000,-0.039657300,-0.460460059,1.228540000,,,,,
1749760039.278046,,,,,,,,,,,,,,,,,,1749760039.278045893,0.000000000,0.000000000,0.000000000,0.074804600
1749760039.286470,0.017201400,-0.025521700,-0.005304810,-0.044546900,-0.015303400,0.005212860,-0.001475250,-0.021456500,1749760039.286469936,0.018198337,-0.024820674,-0.143230000,-0.125088671,-0.455385000,-0.039601100,-0.460698552,1.228430000,,,,,
1749760039.296633,0.016610200,-0.025487200,-0.005820780,-0.046515800,-0.015278300,0.005027100,-0.001455170,-0.022188100,1749760039.296633005,0.017606530,-0.024809398,-0.143143000,-0.124986356,-0.455635000,-0.039613000,-0.460946399,1.228300000,,,,,
1749760039.298045,,,,,,,,,,,,,,,,,,1749760039.298044920,0.000000000,0.000000000,0.000000000,0.082148400
1749760039.306604,0.015864200,-0.025453800,-0.006330080,-0.047656900,-0.015137800,0.005648290,-0.001014520,-0.022819000,1749760039.306603909,0.016858564,-0.024806402,-0.143086000,-0.124942329,-0.455885000,-0.039563500,-0.461187761,1.228170000,,,,,
1749760039.316642,0.015215100,-0.025385100,-0.006811450,-0.047643300,-0.014980000,0.006345450,-0.000693281,-0.023293600,1749760039.316642046,0.016206351,-0.024764021,-0.143021000,-0.124884532,-0.456130000,-0.039527000,-0.461425440,1.228040000,,,,,
1749760039.318046,,,,,,,,,,,,,,,,,,1749760039.318046093,0.000000000,0.000000000,0.000000000,0.089453400
1749760039.326721,0.014542900,-0.025229300,-0.007246040,-0.046999300,-0.014789700,0.007218210,0.000304395,-0.023676500,1749760039.326720953,0.015525117,-0.024637050,-0.142967000,-0.124885199,-0.456361000,-0.039388900,-0.461636884,1.227900000,,,,,
1749760039.336648,0.013743500,-0.025053900,-0.007642370,-0.045666400,-0.014617200,0.007909280,0.001017440,-0.023952800,1749760039.336647987,0.014716819,-0.024494835,-0.142938000,-0.124896516,-0.456588000,-0.039282300,-0.461849254,1.227770000,,,,,
1749760039.338048,,,,,,,,,,,,,,,,,,1749760039.338047981,0.000000000,0.000000000,0.000000000,0.096716200
1749760039.346619,0.012925100,-0.024679200,-0.007920030,-0.044100500,-0.014460800,0.008441400,0.001629740,-0.024182000,1749760039.346618891,0.013881942,-0.024153940,-0.142919000,-0.124915621,-0.456784000,-0.039183200,-0.462031980,1.227660000,,,,,
1749760039.356697,0.012191800,-0.024443100,-0.008280910,-0.040517900,-0.014296100,0.008993670,0.002344040,-0.024102500,1749760039.356697083,0.013137080,-0.023948325,-0.142896000,-0.124939849,-0.456996000,-0.039063100,-0.462227915,1.227530000,,,,,
1749760039.358047,,,,,,,,,,,,,,,,,,1749760039.358047009,0.000000000,0.000000000,0.000000000,0.103933000
1749760039.366631,0.011576400,-0.024177000,-0.008627160,-0.036106600,-0.014206000,0.008995130,0.003235440,-0.023866800,1749760039.366631031,0.012508132,-0.023708374,-0.142864000,-0.124970533,-0.457202000,-0.038910200,-0.462413405,1.227390000,,,,,
1749760039.376730,0.011010100,-0.023883000,-0.008953180,-0.032279500,-0.014122000,0.008954170,0.003015130,-0.023671800,1749760039.376729965,0.011930815,-0.023436630,-0.142830000,-0.124929002,-0.457401000,-0.038909800,-0.462610882,1.227260000,,,,,
1749760039.378045,,,,,,,,,,,,,,,,,,1749760039.378045082,0.000000000,0.000000000,0.000000000,0.111101000
1749760039.386484,0.010522900,-0.023621200,-0.009258680,-0.028723600,-0.013983300,0.009291990,0.002236900,-0.023478000,1749760039.386483908,0.011435722,-0.023193033,-0.142791000,-0.124843846,-0.457602000,-0.038992700,-0.462820564,1.227130000,,,,,
1749760039.396595,0.009964350,-0.023382600,-0.009550250,-0.025604700,-0.013864100,0.009473320,0.000671420,-0.023312100,1749760039.396595001,0.010873008,-0.022974158,-0.142767000,-0.124717060,-0.457803000,-0.039197800,-0.463046065,1.226990000,,,,,
1749760039.398043,,,,,,,,,,,,,,,,,,1749760039.398042917,0.000000000,0.000000000,0.000000000,0.118217000
1749760039.406646,0.009342880,-0.023101800,-0.009855490,-0.022576700,-0.013681500,0.010078100,-0.000440216,-0.023128300,1749760039.406646013,0.010244528,-0.022716343,-0.142758000,-0.124628754,-0.457997000,-0.039352600,-0.463258861,1.226850000,,,,,
1749760039.416808,0.008896980,-0.022777000,-0.010054800,-0.019282300,-0.013641500,0.009659750,-0.000046371,-0.022875400,1749760039.416807890,0.009785011,-0.022409853,-0.142729000,-0.124617046,-0.458180000,-0.039299800,-0.463433999,1.226720000,,,,,
1749760039.418049,,,,,,,,,,,,,,,,,,1749760039.418049097,0.000000000,0.000000000,0.000000000,0.125277000
1749760039.426787,0.008541560,-0.022481800,-0.010111200,-0.016371800,-0.013742000,0.008302890,0.000653849,-0.022645400,1749760039.426786900,0.009416026,-0.022129800,-0.142692000,-0.124619770,-0.458365000,-0.039198500,-0.463604781,1.226610000,,,,,
1749760039.436620,0.008288420,-0.022307400,-0.010166800,-0.012290200,-0.013835300,0.007088990,0.001171910,-0.022216100,1749760039.436619997,0.009154449,-0.021966203,-0.142643000,-0.124600908,-0.458565000,-0.039116700,-0.463792516,1.226500000,,,,,
1749760039.438043,,,,,,,,,,,,,,,,,,1749760039.438043118,0.000000000,0.000000000,0.000000000,0.132277000
1749760039.446985,0.008137860,-0.022103800,-0.010284900,-0.007767830,-0.013843200,0.006547090,0.001867680,-0.021682000,1749760039.446985006,0.008993587,-0.021769661,-0.142582000,-0.124584744,-0.458758000,-0.039003900,-0.463968933,1.226390000,,,,,
1749760039.456412,0.007902240,-0.021873100,-0.010467400,-0.003509610,-0.013520800,0.008315090,0.002692280,-0.021141100,1749760039.456412077,0.008746165,-0.021549536,-0.142535000,-0.124594733,-0.458946000,-0.038865400,-0.464137705,1.226260000,,,,,
1749760039.458039,,,,,,,,,,,,,,,,,,1749760039.458039045,0.000000000,0.000000000,0.000000000,0.139216000
1749760039.466439,0.007620820,-0.021551600,-0.010618600,0.000659552,-0.013146000,0.010322800,0.003301800,-0.020570500,1749760039.466439009,0.008450013,-0.021240189,-0.142497000,-0.124603705,-0.459118000,-0.038749900,-0.464293710,1.226130000,,,,,
1749760039.476459,0.007163870,-0.021189000,-0.010678000,0.004481240,-0.012722400,0.012528300,0.004120180,-0.020008600,1749760039.476459026,0.007976184,-0.020896776,-0.142487000,-0.124657948,-0.459281000,-0.038598000,-0.464437271,1.226020000,,,,,
1749760039.478038,,,,,,,,,,,,,,,,,,1749760039.478038073,0.000000000,0.000000000,0.000000000,0.146089000
1749760039.486640,0.006666450,-0.020868600,-0.010694000,0.008328200,-0.012242200,0.014970700,0.004540600,-0.019404900,1749760039.486639977,0.007464664,-0.020596573,-0.142487000,-0.124699109,-0.459446000,-0.038495700,-0.464589393,1.225910000,,,,,
1749760039.496726,0.006199840,-0.020542800,-0.010651600,0.011500800,-0.011743400,0.017373900,0.005039680,-0.018860700,1749760039.496726036,0.006983469,-0.020289796,-0.142489000,-0.124749704,-0.459607000,-0.038377800,-0.464735646,1.225810000,,,,,
1749760039.498049,,,,,,,,,,,,,,,,,,1749760039.498049021,0.000000000,0.000000000,0.000000000,0.152893000
1749760039.506555,0.005765380,-0.020142000,-0.010505900,0.014205700,-0.011368200,0.018760300,0.005856830,-0.018352800,1749760039.506555080,0.006530584,-0.019907065,-0.142490000,-0.124823673,-0.459754000,-0.038208700,-0.464861475,1.225720000,,,,,
1749760039.516618,0.005387100,-0.019781000,-0.010320800,0.017090300,-0.010989800,0.020073600,0.006532810,-0.017791600,1749760039.516618013,0.006135723,-0.019561741,-0.142487000,-0.124887896,-0.459903000,-0.038051900,-0.464990675,1.225640000,,,,,
1749760039.518059,,,,,,,,,,,,,,,,,,1749760039.518059015,0.000000000,0.000000000,0.000000000,0.159625000
1749760039.526744,0.005066490,-0.019412000,-0.010027800,0.020000000,-0.010897400,0.019328200,0.007614220,-0.017198000,1749760039.526743889,0.005797036,-0.019206495,-0.142480000,-0.124978827,-0.460048000,-0.037829500,-0.465107520,1.225580000,,,,,
1749760039.536693,0.004811580,-0.019098000,-0.009645110,0.021334100,-0.010992800,0.017341100,0.008172960,-0.016804200,1749760039.536693096,0.005527460,-0.018903230,-0.142466000,-0.125032423,-0.460196000,-0.037672200,-0.465235223,1.225540000,,,,,
1749760039.538056,,,,,,,,,,,,,,,,,,1749760039.538055897,0.000000000,0.000000000,0.000000000,0.166283000
1749760039.546741,0.004590210,-0.018767600,-0.009162920,0.021337000,-0.011136100,0.015160800,0.007453590,-0.016590400,1749760039.546741009,0.005294226,-0.018581281,-0.142450000,-0.125000438,-0.460339000,-0.037695000,-0.465380369,1.225510000,,,,,
1749760039.556709,0.004346080,-0.018369100,-0.008615590,0.021462500,-0.011378600,0.012448300,0.008974100,-0.016358800,1749760039.556709051,0.005029876,-0.018193752,-0.142440000,-0.125123099,-0.460469000,-0.037399500,-0.465472946,1.225500000,,,,,
1749760039.558059,,,,,,,,,,,,,,,,,,1749760039.558058977,0.000000000,0.000000000,0.000000000,0.172862000
1749760039.566676,0.003977500,-0.017977200,-0.007961680,0.020799300,-0.011905800,0.007962660,0.008947350,-0.016240500,1749760039.566675901,0.004645372,-0.017816306,-0.142450000,-0.125168291,-0.460596000,-0.037313700,-0.465589494,1.225510000,,,,,
1749760039.576668,0.003558540,-0.017494500,-0.007198510,0.019410100,-0.012552000,0.002966580,0.009716230,-0.016234400,1749760039.576668024,0.004205205,-0.017350417,-0.142471000,-0.125278906,-0.460705000,-0.037112500,-0.465674005,1.225540000,,,,,
1749760039.578044,,,,,,,,,,,,,,,,,,1749760039.578043938,0.000000000,0.000000000,0.000000000,0.179360000
1749760039.586616,0.003249610,-0.016955100,-0.006433570,0.017510300,-0.013124400,-0.001177640,0.010598900,-0.016316300,1749760039.586616039,0.003872682,-0.016823725,-0.142480000,-0.125389283,-0.460802000,-0.036887100,-0.465743021,1.225580000,,,,,
1749760039.596753,0.002951660,-0.016334900,-0.005710070,0.015700000,-0.013659300,-0.004778250,0.011274200,-0.016404200,1749760039.596752882,0.003548753,-0.016215659,-0.142491000,-0.125492433,-0.460881000,-0.036683000,-0.465796769,1.225620000,,,,,
1749760039.598044,,,,,,,,,,,,,,,,,,1749760039.598043919,0.000000000,0.000000000,0.000000000,0.185775000
1749760039.606591,0.002518630,-0.015747400,-0.004817750,0.014392900,-0.014003000,-0.006815320,0.012406300,-0.016437100,1749760039.606590986,0.003090131,-0.015645293,-0.142524000,-0.125651687,-0.460959000,-0.036405800,-0.465841114,1.225690000,,,,,
1749760039.616802,0.002078080,-0.015215200,-0.003875630,0.013144800,-0.014434900,-0.009318690,0.013150400,-0.016474500,1749760039.616801977,0.002626989,-0.015130091,-0.142563000,-0.125795933,-0.461039000,-0.036173600,-0.465893284,1.225780000,,,,,
1749760039.618053,,,,,,,,,,,,,,,,,,1749760039.618052959,0.000000000,0.000000000,0.000000000,0.192102000
1749760039.626801,0.001675800,-0.014616700,-0.003020400,0.011940900,-0.014833000,-0.011417500,0.013682400,-0.016517900,1749760039.626801014,0.002200290,-0.014546991,-0.142601000,-0.125928811,-0.461105000,-0.035964800,-0.465934331,1.225860000,,,,,
1749760039.636667,0.001390760,-0.014160900,-0.002188490,0.011426600,-0.015008400,-0.011839200,0.012825700,-0.016473200,1749760039.636667013,0.001898871,-0.014101758,-0.142626000,-0.125956650,-0.461185000,-0.035952500,-0.466013629,1.225960000,,,,,
1749760039.638044,,,,,,,,,,,,,,,,,,1749760039.638044119,0.000000000,0.000000000,0.000000000,0.198340000
1749760039.646794,0.001206180,-0.013756900,-0.001426070,0.011402900,-0.014906200,-0.010320500,0.011938600,-0.016362400,1749760039.646794081,0.001699897,-0.013704653,-0.142638000,-0.125965379,-0.461268000,-0.035953100,-0.466097082,1.226040000,,,,,
1749760039.656433,0.000920294,-0.013330800,-0.000504940,0.011795400,-0.015058800,-0.010660600,0.010053900,-0.016191300,1749760039.656433105,0.001400931,-0.013288889,-0.142668000,-0.125920685,-0.461343000,-0.036107500,-0.466192560,1.226160000,,,,,
1749760039.658039,,,,,,,,,,,,,,,,,,1749760039.658039093,0.000000000,0.000000000,0.000000000,0.204485000
1749760039.666757,0.000659240,-0.012909500,0.000459766,0.011741000,-0.015325400,-0.011761900,0.007998050,-0.016081300,1749760039.666757107,0.001127391,-0.012877064,-0.142697000,-0.125854651,-0.461415000,-0.036305700,-0.466290513,1.226300000,,,,,
1749760039.676740,0.000421223,-0.012471300,0.001517030,0.010535000,-0.015380300,-0.011330000,0.006730520,-0.016139100,1749760039.676739931,0.000874921,-0.012447701,-0.142725000,-0.125831688,-0.461481000,-0.036409800,-0.466370588,1.226460000,,,,,
1749760039.678042,,,,,,,,,,,,,,,,,,1749760039.678041935,0.000000000,0.000000000,0.000000000,0.210534000
1749760039.686648,0.000333044,-0.012071200,0.002649790,0.009039170,-0.015287300,-0.009910420,0.006305920,-0.016251100,1749760039.686647892,0.000772169,-0.012051081,-0.142733000,-0.125839893,-0.461547000,-0.036404200,-0.466436131,1.226640000,,,,,
1749760039.696477,0.000184906,-0.011738200,0.003751540,0.008354860,-0.015054700,-0.007626790,0.006055230,-0.016260100,1749760039.696476936,0.000611697,-0.011723709,-0.142751000,-0.125867633,-0.461620000,-0.036377600,-0.466506389,1.226820000,,,,,
1749760039.698034,,,,,,,,,,,,,,,,,,1749760039.698034048,0.000000000,0.000000000,0.000000000,0.216486000
1749760039.706516,0.000007132,-0.011424800,0.004942240,0.008121890,-0.014693800,-0.004618050,0.004418180,-0.016210400,1749760039.706516027,0.000424667,-0.011416907,-0.142775000,-0.125806272,-0.461692000,-0.036554900,-0.466601527,1.227030000,,,,,
1749760039.716777,-0.000126706,-0.011059800,0.006271680,0.009188250,-0.014586500,-0.003561190,0.003314580,-0.015974200,1749760039.716777086,0.000278862,-0.011057010,-0.142795000,-0.125769849,-0.461753000,-0.036671000,-0.466677823,1.227280000,,,,,
1749760039.718047,,,,,,,,,,,,,,,,,,1749760039.718046904,0.000000000,0.000000000,0.000000000,0.222337000
1749760039.726738,-0.000267262,-0.010737300,0.007574810,0.009914970,-0.014440900,-0.002313760,0.002914030,-0.015776800,1749760039.726737976,0.000126845,-0.010739877,-0.142816000,-0.125776856,-0.461816000,-0.036696000,-0.466744695,1.227530000,,,,,
1749760039.736708,-0.000569985,-0.010400900,0.008904690,0.011173600,-0.013986800,0.000970499,0.001408000,-0.015494800,1749760039.736707926,-0.000186040,-0.010414845,-0.142863000,-0.125733105,-0.461875000,-0.036885700,-0.466829239,1.227800000,,,,,
1749760039.738043,,,,,,,,,,,,,,,,,,1749760039.738043070,0.000000000,0.000000000,0.000000000,0.228084000
1749760039.746428,-0.001032300,-0.010069900,0.010343100,0.014099700,-0.013395200,0.004976050,0.000211817,-0.014957900,1749760039.746428013,-0.000658634,-0.010101224,-0.142936000,-0.125729426,-0.461931000,-0.037045400,-0.466907978,1.228100000,,,,,
1749760039.756812,-0.001622870,-0.009641730,0.011772300,0.016720400,-0.012845300,0.008418340,-0.001355570,-0.014436200,1749760039.756812096,-0.001262469,-0.009695506,-0.143032000,-0.125718606,-0.461969000,-0.037271000,-0.466977882,1.228410000,,,,,
1749760039.758049,,,,,,,,,,,,,,,,,,1749760039.758049011,0.000000000,0.000000000,0.000000000,0.233725000
1749760039.766714,-0.002216940,-0.009238780,0.013198700,0.018514400,-0.012527500,0.010026500,-0.002433460,-0.014008400,1749760039.766714096,-0.001869556,-0.009315291,-0.143135000,-0.125740630,-0.462007000,-0.037441200,-0.467041101,1.228730000,,,,,
1749760039.776658,-0.002788240,-0.008846280,0.014657200,0.019967700,-0.012429600,0.010010100,-0.001881550,-0.013612100,1749760039.776658058,-0.002455648,-0.008944314,-0.143240000,-0.125870319,-0.462043000,-0.037385300,-0.467073971,1.229080000,,,,,
1749760039.778044,,,,,,,,,,,,,,,,,,1749760039.778043985,0.000000000,0.000000000,0.000000000,0.239259000
1749760039.786661,-0.003289690,-0.008481130,0.016052100,0.020435900,-0.012246000,0.010584900,-0.000759806,-0.013344400,1749760039.786660910,-0.002971635,-0.008597733,-0.143341000,-0.126037249,-0.462078000,-0.037241200,-0.467094564,1.229420000,,,,,
1749760039.796380,-0.003788540,-0.008178880,0.017505100,0.021062900,-0.011963600,0.011800100,-0.000455550,-0.013048900,1749760039.796380043,-0.003481697,-0.008314139,-0.143446000,-0.126157747,-0.462119000,-0.037204600,-0.467134828,1.229800000,,,,,
1749760039.798035,,,,,,,,,,,,,,,,,,1749760039.798034906,0.000000000,0.000000000,0.000000000,0.244681000
1749760039.806522,-0.004238740,-0.007866630,0.018939200,0.020909400,-0.011573400,0.013673900,-0.001188360,-0.012860600,1749760039.806521893,-0.003942309,-0.008019288,-0.143549000,-0.126207480,-0.462155000,-0.037315600,-0.467188647,1.230180000,,,,,
1749760039.816638,-0.004469750,-0.007474220,0.020439300,0.019406300,-0.011417000,0.013809000,-0.001243050,-0.012869900,1749760039.816637993,-0.004187647,-0.007635852,-0.143625000,-0.126273355,-0.462177000,-0.037335400,-0.467215967,1.230590000,,,,,
1749760039.818051,,,,,,,,,,,,,,,,,,1749760039.818051100,0.000000000,0.000000000,0.000000000,0.249990000
1749760039.826633,-0.004661090,-0.007140000,0.021927600,0.018487000,-0.011232100,0.014131700,-0.001231720,-0.012809400,1749760039.826632977,-0.004391250,-0.007309055,-0.143698000,-0.126340288,-0.462203000,-0.037346200,-0.467246038,1.231010000,,,,,
1749760039.836798,-0.004951490,-0.006807000,0.023360900,0.017471100,-0.010757400,0.016426300,-0.001609860,-0.012772100,1749760039.836797953,-0.004693411,-0.006987445,-0.143786000,-0.126395967,-0.462226000,-0.037413400,-0.467280803,1.231440000,,,,,
1749760039.838046,,,,,,,,,,,,,,,,,,1749760039.838046074,0.000000000,0.000000000,0.000000000,0.255184000
1749760039.846474,-0.005180320,-0.006563270,0.024847500,0.015626000,-0.010023800,0.020344700,-0.001882420,-0.012865400,1749760039.846473932,-0.004930822,-0.006752720,-0.143869000,-0.126451644,-0.462259000,-0.037469100,-0.467323928,1.231880000,,,,,
1749760039.856682,-0.005374230,-0.006333630,0.026327500,0.013916400,-0.009244750,0.024307000,-0.000808893,-0.012957600,1749760039.856682062,-0.005134093,-0.006529801,-0.143949000,-0.126594463,-0.462291000,-0.037332000,-0.467341551,1.232350000,,,,,
1749760039.858046,,,,,,,,,,,,,,,,,,1749760039.858046055,0.000000000,0.000000000,0.000000000,0.260260000
1749760039.866670,-0.005498960,-0.006103650,0.028002300,0.011852400,-0.008714050,0.026286800,0.000670926,-0.013118200,1749760039.866669893,-0.005268624,-0.006303547,-0.144021000,-0.126761990,-0.462321000,-0.037125100,-0.467348000,1.232850000,,,,,
1749760039.876630,-0.005633290,-0.005783310,0.029737100,0.011812200,-0.008303190,0.027305500,0.000425019,-0.013005600,1749760039.876630068,-0.005414578,-0.005988570,-0.144096000,-0.126822828,-0.462336000,-0.037154100,-0.467369452,1.233390000,,,,,
1749760039.878056,,,,,,,,,,,,,,,,,,1749760039.878056049,0.000000000,0.000000000,0.000000000,0.265216000
1749760039.886626,-0.005912980,-0.005549140,0.031588200,0.014005100,-0.007928500,0.028005100,-0.000295658,-0.012568900,1749760039.886626005,-0.005702194,-0.005765524,-0.144193000,-0.126871933,-0.462359000,-0.037254600,-0.467408792,1.233950000,,,,,
1749760039.896668,-0.006173890,-0.005290130,0.033354100,0.013404000,-0.007662690,0.027907000,-0.002619960,-0.012516100,1749760039.896667957,-0.005970691,-0.005518446,-0.144290000,-0.126808981,-0.462377000,-0.037595200,-0.467473611,1.234530000,,,,,
1749760039.898047,,,,,,,,,,,,,,,,,,1749760039.898046970,0.000000000,0.000000000,0.000000000,0.270051000
1749760039.906659,-0.006343670,-0.005029440,0.035136400,0.012353100,-0.007541760,0.026818500,-0.003274180,-0.012534800,1749760039.906658888,-0.006149511,-0.005265067,-0.144376000,-0.126837696,-0.462392000,-0.037716400,-0.467507209,1.235120000,,,,,
1749760039.916701,-0.006507670,-0.004726920,0.037044600,0.011770200,-0.007830550,0.022984700,-0.002925570,-0.012495900,1749760039.916701078,-0.006324891,-0.004968833,-0.144463000,-0.126932738,-0.462399000,-0.037698500,-0.467515212,1.235750000,,,,,
1749760039.918046,,,,,,,,,,,,,,,,,,1749760039.918045998,0.000000000,0.000000000,0.000000000,0.274761000
1749760039.926645,-0.006873270,-0.004460260,0.038959700,0.009568780,-0.008110790,0.019473800,-0.003790060,-0.012698100,1749760039.926645041,-0.006699551,-0.004717179,-0.144581000,-0.126977931,-0.462407000,-0.037853400,-0.467547328,1.236400000,,,,,
1749760039.936377,-0.007029480,-0.004336500,0.040846800,0.006921410,-0.008036820,0.018642500,-0.003409470,-0.012987000,1749760039.936377048,-0.006860412,-0.004599300,-0.144673000,-0.127076980,-0.462434000,-0.037836000,-0.467575580,1.237060000,,,,,
1749760039.938033,,,,,,,,,,,,,,,,,,1749760039.938033104,0.000000000,0.000000000,0.000000000,0.279346000
1749760039.946650,-0.007103340,-0.004190250,0.042129400,0.004553330,-0.007979620,0.017753000,-0.003047660,-0.013261800,1749760039.946650028,-0.006939834,-0.004455821,-0.144754000,-0.127165740,-0.462456000,-0.037817500,-0.467598275,1.237650000,,,,,
1749760039.956613,-0.007354390,-0.003939100,0.044313200,0.002111030,-0.007900510,0.017075600,-0.000234951,-0.013571100,1749760039.956613064,-0.007201793,-0.004211619,-0.144861000,-0.127449268,-0.462461000,-0.037439400,-0.467559162,1.238390000,,,,,
1749760039.958048,,,,,,,,,,,,,,,,,,1749760039.958048105,0.000000000,0.000000000,0.000000000,0.283803000
1749760039.966663,-0.007471420,-0.003772680,0.046617000,0.002143400,-0.008067050,0.014753900,-0.000284108,-0.013545300,1749760039.966662884,-0.007324932,-0.004049766,-0.144952000,-0.127535163,-0.462477000,-0.037448900,-0.467579769,1.239170000,,,,,
1749760039.976615,-0.007693180,-0.003545570,0.048900900,0.001818840,-0.008723450,0.009220250,-0.000686023,-0.013571000,1749760039.976614952,-0.007554805,-0.003831580,-0.145059000,-0.127613322,-0.462481000,-0.037510100,-0.467595583,1.239970000,,,,,
1749760039.978039,,,,,,,,,,,,,,,,,,1749760039.978039026,0.000000000,0.000000000,0.000000000,0.288131000
1749760039.986801,-0.007721860,-0.003453640,0.051139200,0.001904690,-0.009258050,0.004905840,-0.001214200,-0.013540300,1749760039.986800909,-0.007586600,-0.003741425,-0.145140000,-0.127654346,-0.462503000,-0.037593700,-0.467631278,1.240780000,,,,,
1749760039.996427,-0.007740920,-0.003306860,0.053420600,-0.000684644,-0.009479130,0.003046470,-0.000569120,-0.013897500,1749760039.996427059,-0.007611456,-0.003594844,-0.145220000,-0.127771923,-0.462517000,-0.037512100,-0.467637851,1.241630000,,,,,
1749760039.998034,,,,,,,,,,,,,,,,,,1749760039.998034000,0.000000000,0.000000000,0.000000000,0.292327000
1749760040.006530,-0.007578870,-0.003304520,0.055765700,-0.005374550,-0.009656130,0.001618430,0.000464931,-0.014585700,1749760040.006530046,-0.007450126,-0.003585351,-0.145274000,-0.127892262,-0.462549000,-0.037367600,-0.467653378,1.242500000,,,,,
1749760040.016679,-0.007475210,-0.003199340,0.058019100,-0.011773400,-0.009540230,0.002304850,0.000493830,-0.015569100,1749760040.016679049,-0.007350499,-0.003476307,-0.145335000,-0.127956709,-0.462567000,-0.037358700,-0.467672505,1.243390000,,,,,
1749760040.018052,,,,,,,,,,,,,,,,,,1749760040.018052101,0.000000000,0.000000000,0.000000000,0.296391000
1749760040.026533,-0.007761020,-0.003042440,0.060414400,-0.013341300,-0.009399780,0.003112890,0.001691530,-0.015914600,1749760040.026532888,-0.007642565,-0.003328824,-0.145451000,-0.128155959,-0.462576000,-0.037179800,-0.467662912,1.244310000,,,,,
1749760040.036622,-0.008116170,-0.002878550,0.062821000,-0.013111300,-0.009484910,0.002312650,0.000209899,-0.016014600,1749760040.036622047,-0.008002931,-0.003179836,-0.145580000,-0.128191868,-0.462583000,-0.037378100,-0.467700132,1.245270000,,,,,
1749760040.038057,,,,,,,,,,,,,,,,,,1749760040.038057089,0.000000000,0.000000000,0.000000000,0.300320000
1749760040.046709,-0.008429780,-0.002684260,0.065178100,-0.013052200,-0.009536830,0.001796110,-0.002508500,-0.016137100,1749760040.046709061,-0.008322404,-0.003000671,-0.145707000,-0.128135008,-0.462583000,-0.037771000,-0.467755258,1.246240000,,,,,
1749760040.056647,-0.008425230,-0.002457510,0.067616800,-0.016612500,-0.009824520,-0.000307736,-0.001980420,-0.016784900,1749760040.056647062,-0.008326564,-0.002773480,-0.145790000,-0.128242358,-0.462577000,-0.037719300,-0.467745767,1.247240000,,,,,
1749760040.058056,,,,,,,,,,,,,,,,,,1749760040.058056116,0.000000000,0.000000000,0.000000000,0.304113000
1749760040.066462,-0.008486250,-0.002266050,0.070019700,-0.020782600,-0.009750500,0.000222928,-0.001572840,-0.017556800,1749760040.066462040,-0.008394862,-0.002584127,-0.145883000,-0.128353834,-0.462574000,-0.037679900,-0.467741220,1.248270000,,,,,
1749760040.076785,-0.008577160,-0.002033390,0.072395700,-0.023934500,-0.009610100,0.001174020,-0.001234150,-0.018222600,1749760040.076785088,-0.008494551,-0.002354772,-0.145982000,-0.128468847,-0.462563000,-0.037646400,-0.467729653,1.249310000,,,,,
1749760040.078058,,,,,,,,,,,,,,,,,,1749760040.078058004,0.000000000,0.000000000,0.000000000,0.307768000
1749760040.086666,-0.008752240,-0.001780400,0.074709800,-0.023250700,-0.009406530,0.002494410,-0.003196140,-0.018362600,1749760040.086666107,-0.008678401,-0.002111132,-0.146093000,-0.128441265,-0.462547000,-0.037943800,-0.467756062,1.250370000,,,,,
1749760040.096654,-0.009065030,-0.001510470,0.077004900,-0.019494300,-0.009213500,0.003651340,-0.006334530,-0.018049400,1749760040.096653938,-0.009000301,-0.001857653,-0.146226000,-0.128346779,-0.462525000,-0.038431700,-0.467801799,1.251460000,,,,,
1749760040.098047,,,,,,,,,,,,,,,,,,1749760040.098047018,0.000000000,0.000000000,0.000000000,0.311285000
1749760040.106859,-0.009138200,-0.001259200,0.079406600,-0.018823500,-0.009190500,0.003558320,-0.006335410,-0.018146800,1749760040.106858969,-0.009082969,-0.001609957,-0.146327000,-0.128418807,-0.462504000,-0.038495200,-0.467792851,1.252570000,,,,,
1749760040.116513,-0.009214670,-0.000984313,0.081688700,-0.022741200,-0.009102090,0.003921940,-0.006651760,-0.018904200,1749760040.116513014,-0.009169815,-0.001339219,-0.146429000,-0.128470681,-0.462476000,-0.038604500,-0.467782841,1.253700000,,,,,
1749760040.118037,,,,,,,,,,,,,,,,,,1749760040.118036985,0.000000000,0.000000000,0.000000000,0.314662000
1749760040.126805,-0.009379110,-0.000812853,0.083998500,-0.024998100,-0.009021980,0.004203420,-0.006694500,-0.019459600,1749760040.126805067,-0.009340665,-0.001174912,-0.146546000,-0.128554165,-0.462461000,-0.038677200,-0.467781715,1.254850000,,,,,
1749760040.136624,-0.009513670,-0.000561375,0.086117300,-0.024788200,-0.008886120,0.004849230,-0.007609540,-0.019679000,1749760040.136624098,-0.009484662,-0.000930722,-0.146659000,-0.128574656,-0.462433000,-0.038877100,-0.467783817,1.256000000,,,,,
1749760040.138045,,,,,,,,,,,,,,,,,,1749760040.138045073,0.000000000,0.000000000,0.000000000,0.317898000
1749760040.146716,-0.009844120,-0.000378292,0.088404500,-0.023717200,-0.008895910,0.004448070,-0.008395720,-0.019771300,1749760040.146716118,-0.009821833,-0.000762490,-0.146802000,-0.128629346,-0.462412000,-0.039067400,-0.467792878,1.257190000,,,,,
1749760040.156690,-0.010085500,-0.000097365,0.090751500,-0.025356600,-0.008581100,0.006308810,-0.008633270,-0.020246700,1749760040.156689882,-0.010073943,-0.000492398,-0.146936000,-0.128709258,-0.462375000,-0.039185900,-0.467776395,1.258420000,,,,,
1749760040.158046,,,,,,,,,,,,,,,,,,1749760040.158046007,0.000000000,0.000000000,0.000000000,0.320992000
1749760040.166425,-0.010156500,0.000143769,0.093098000,-0.026983000,-0.008406270,0.007077900,-0.008602440,-0.020736500,1749760040.166424990,-0.010154315,-0.000255063,-0.147047000,-0.128783196,-0.462341000,-0.039267800,-0.467757318,1.259670000,,,,,
1749760040.176505,-0.010380700,0.000417530,0.095265000,-0.026689400,-0.008279630,0.007462410,-0.008434360,-0.020963700,1749760040.176505089,-0.010389090,0.000009046,-0.147181000,-0.128889890,-0.462300000,-0.039329400,-0.467729551,1.260910000,,,,,
1749760040.178034,,,,,,,,,,,,,,,,,,1749760040.178034067,0.000000000,0.000000000,0.000000000,0.323942000
1749760040.186656,-0.010678400,0.000758177,0.097503200,-0.023030500,-0.007579370,0.011768800,-0.008498430,-0.020699000,1749760040.186655998,-0.010699985,0.000336722,-0.147328000,-0.128995124,-0.462246000,-0.039423000,-0.467693449,1.262190000,,,,,
1749760040.196628,-0.011017500,0.001196080,0.099761900,-0.023167000,-0.007081860,0.014383200,-0.007782210,-0.020949100,1749760040.196628094,-0.011056066,0.000761130,-0.147484000,-0.129162686,-0.462175000,-0.039404000,-0.467626198,1.263490000,,,,,
1749760040.198056,,,,,,,,,,,,,,,,,,1749760040.198055983,0.000000000,0.000000000,0.000000000,0.326748000
1749760040.206684,-0.011110000,0.001514050,0.102072000,-0.023644800,-0.007145840,0.012952800,-0.008928360,-0.021250200,1749760040.206684113,-0.011161283,0.001072483,-0.147608000,-0.129174643,-0.462117000,-0.039648300,-0.467604700,1.264830000,,,,,
1749760040.216414,-0.011131300,0.001813630,0.104266000,-0.023207300,-0.007040100,0.012789100,-0.009686200,-0.021423100,1749760040.216413975,-0.011194714,0.001368751,-0.147722000,-0.129197660,-0.462058000,-0.039847700,-0.467576036,1.266170000,,,,,
1749760040.218038,,,,,,,,,,,,,,,,,,1749760040.218038082,0.000000000,0.000000000,0.000000000,0.329409000
1749760040.226719,-0.011074600,0.002190400,0.106406000,-0.020673500,-0.006836190,0.013312300,-0.008211860,-0.021287100,1749760040.226718903,-0.011152863,0.001748790,-0.147825000,-0.129358371,-0.461985000,-0.039730300,-0.467492014,1.267520000,,,,,
1749760040.236727,-0.011227900,0.002555940,0.108624000,-0.017545900,-0.006578930,0.014166700,-0.009459600,-0.021039400,1749760040.236726999,-0.011321116,0.002104971,-0.147958000,-0.129371121,-0.461910000,-0.039993700,-0.467456448,1.268910000,,,,,
1749760040.238064,,,,,,,,,,,,,,,,,,1749760040.238064051,0.000000000,0.000000000,0.000000000,0.331925000
1749760040.246633,-0.011303700,0.002890110,0.110924000,-0.014303800,-0.006571550,0.013242400,-0.009400980,-0.020743900,1749760040.246633053,-0.011410426,0.002434860,-0.148081000,-0.129456739,-0.461836000,-0.040079800,-0.467398573,1.270330000,,,,,
1749760040.256675,-0.011269600,0.003155700,0.111946000,-0.011352200,-0.006573180,0.012319700,-0.009266650,-0.020458100,1749760040.256675005,-0.011387197,0.002700755,-0.148189000,-0.129532560,-0.461768000,-0.040154300,-0.467344607,1.271580000,,,,,
1749760040.258046,,,,,,,,,,,,,,,,,,1749760040.258045912,0.000000000,0.000000000,0.000000000,0.334293000
1749760040.266693,-0.011124500,0.003527020,0.114214000,-0.009602150,-0.006085440,0.014828900,-0.008718950,-0.020317400,1749760040.266693115,-0.011257160,0.003077453,-0.148281000,-0.129621777,-0.461683000,-0.040167400,-0.467265067,1.273030000,,,,,
1749760040.276628,-0.010988500,0.003958100,0.116706000,-0.007600070,-0.005813410,0.015680700,-0.009882530,-0.020122500,1749760040.276628017,-0.011139480,0.003510793,-0.148372000,-0.129596945,-0.461585000,-0.040423600,-0.467204018,1.274540000,,,,,
1749760040.278050,,,,,,,,,,,,,,,,,,1749760040.278049946,0.000000000,0.000000000,0.000000000,0.336515000
1749760040.286592,-0.010772700,0.004298670,0.117844000,-0.005788260,-0.005568950,0.016284000,-0.010808900,-0.019935300,1749760040.286592007,-0.010938521,0.003857253,-0.148451000,-0.129570449,-0.461496000,-0.040657000,-0.467148538,1.275870000,,,,,
1749760040.296648,-0.010826700,0.004626400,0.120364000,-0.001227190,-0.005391750,0.016382800,-0.009269910,-0.019330500,1749760040.296648026,-0.011005314,0.004183788,-0.148566000,-0.129742997,-0.461405000,-0.040541500,-0.467047305,1.277410000,,,,,
1749760040.298045,,,,,,,,,,,,,,,,,,1749760040.298044920,0.000000000,0.000000000,0.000000000,0.338589000
1749760040.306705,-0.010728600,0.005004430,0.122811000,0.001426370,-0.005115520,0.017156500,-0.006773240,-0.018957300,1749760040.306704998,-0.010921383,0.004568432,-0.148660000,-0.129967085,-0.461304000,-0.040271500,-0.466915124,1.278970000,,,,,
1749760040.316640,-0.010749200,0.005423940,0.125314000,0.005389090,-0.005042080,0.016481100,-0.006368150,-0.018367300,1749760040.316639900,-0.010958900,0.004986675,-0.148771000,-0.130078310,-0.461193000,-0.040280400,-0.466809840,1.280570000,,,,,
1749760040.318048,,,,,,,,,,,,,,,,,,1749760040.318048000,0.000000000,0.000000000,0.000000000,0.340514000
1749760040.326789,-0.010908100,0.005850930,0.127789000,0.011934600,-0.005068700,0.015163400,-0.006019770,-0.017362500,1749760040.326788902,-0.011134937,0.005406774,-0.148901000,-0.130206762,-0.461077000,-0.040293500,-0.466700875,1.282180000,,,,,
1749760040.336561,-0.010744700,0.006212280,0.130102000,0.015720300,-0.005039220,0.014322700,-0.005737580,-0.016693100,1749760040.336560965,-0.010986336,0.005774202,-0.148987000,-0.130288205,-0.460966000,-0.040312700,-0.466595931,1.283790000,,,,,
1749760040.338039,,,,,,,,,,,,,,,,,,1749760040.338038921,0.000000000,0.000000000,0.000000000,0.342291000
1749760040.346658,-0.010618400,0.006444740,0.132415000,0.017398000,-0.004858730,0.014579100,-0.004751570,-0.016292200,1749760040.346657991,-0.010868991,0.006012497,-0.149076000,-0.130421074,-0.460870000,-0.040226800,-0.466492395,1.285430000,,,,,
1749760040.356640,-0.010600700,0.006673320,0.134695000,0.020894600,-0.005201120,0.011218900,-0.006522370,-0.015610200,1749760040.356640100,-0.010862400,0.006238294,-0.149179000,-0.130385767,-0.460772000,-0.040531600,-0.466438379,1.287080000,,,,,
1749760040.358043,,,,,,,,,,,,,,,,,,1749760040.358042955,0.000000000,0.000000000,0.000000000,0.343920000
1749760040.366547,-0.010490300,0.006887800,0.137055000,0.024779300,-0.005634240,0.007465460,-0.005169910,-0.014836900,1749760040.366547108,-0.010759934,0.006458484,-0.149269000,-0.130540854,-0.460675000,-0.040400300,-0.466327970,1.288770000,,,,,
1749760040.376742,-0.010277600,0.006966980,0.139379000,0.024011400,-0.005615730,0.007078960,-0.005233510,-0.014700700,1749760040.376741886,-0.010551004,0.006545546,-0.149343000,-0.130589623,-0.460594000,-0.040461300,-0.466257992,1.290480000,,,,,
1749760040.378050,,,,,,,,,,,,,,,,,,1749760040.378050089,0.000000000,0.000000000,0.000000000,0.345399000
1749760040.386534,-0.010074300,0.007187650,0.141601000,0.024400900,-0.005719120,0.005880100,-0.005530960,-0.014404000,1749760040.386533976,-0.010357444,0.006773270,-0.149417000,-0.130623170,-0.460492000,-0.040556800,-0.466171545,1.292200000,,,,,
1749760040.396703,-0.009809350,0.007329970,0.143932000,0.025910200,-0.005973260,0.003726070,-0.003555400,-0.013940700,1749760040.396703005,-0.010096877,0.006928555,-0.149479000,-0.130796837,-0.460400000,-0.040325100,-0.466051841,1.293950000,,,,,
1749760040.398042,,,,,,,,,,,,,,,,,,1749760040.398041964,0.000000000,0.000000000,0.000000000,0.346729000
1749760040.406668,-0.009357670,0.007423280,0.146339000,0.024647500,-0.005923200,0.003814160,-0.001421430,-0.013865000,1749760040.406667948,-0.009647393,0.007042647,-0.149511000,-0.130960221,-0.460313000,-0.040050600,-0.465930271,1.295740000,,,,,
1749760040.416621,-0.009204790,0.007465690,0.148558000,0.022261300,-0.005730650,0.004876940,-0.003309370,-0.013965200,1749760040.416620970,-0.009498379,0.007088404,-0.149583000,-0.130900962,-0.460233000,-0.040339100,-0.465891003,1.297530000,,,,,
1749760040.418040,,,,,,,,,,,,,,,,,,1749760040.418040037,0.000000000,0.000000000,0.000000000,0.347910000
1749760040.426653,-0.009041870,0.007343970,0.150796000,0.023013900,-0.005990070,0.002755660,-0.003797660,-0.013633300,1749760040.426652908,-0.009331409,0.006972382,-0.149651000,-0.130922711,-0.460176000,-0.040443200,-0.465850423,1.299340000,,,,,
1749760040.436506,-0.008668900,0.007239730,0.153148000,0.021331000,-0.006128300,0.001614540,-0.004701130,-0.013647600,1749760040.436506033,-0.008955694,0.006881792,-0.149687000,-0.130882253,-0.460117000,-0.040612400,-0.465815079,1.301190000,,,,,
1749760040.438036,,,,,,,,,,,,,,,,,,1749760040.438035965,0.000000000,0.000000000,0.000000000,0.348943000
1749760040.446481,-0.008528950,0.007219850,0.155279000,0.017834100,-0.006089820,0.001768220,-0.006145400,-0.013942400,1749760040.446480989,-0.008816815,0.006865347,-0.149754000,-0.130832391,-0.460048000,-0.040869200,-0.465782469,1.303030000,,,,,
1749760040.456669,-0.008331480,0.007138600,0.155760000,0.014629200,-0.006054960,0.001886470,-0.007349430,-0.014229600,1749760040.456669092,-0.008617796,0.006790196,-0.149810000,-0.130780736,-0.459987000,-0.041105600,-0.465754737,1.304650000,,,,,
1749760040.458043,,,,,,,,,,,,,,,,,,1749760040.458043098,0.000000000,0.000000000,0.000000000,0.349826000
1749760040.466619,-0.007868970,0.007017420,0.158197000,0.014736200,-0.006080380,0.001581660,-0.008265760,-0.014067800,1749760040.466619015,-0.008152079,0.006686441,-0.149826000,-0.130702683,-0.459934000,-0.041312200,-0.465729453,1.306560000,,,,,
1749760040.476643,-0.007648390,0.006898130,0.160515000,0.012917500,-0.005947270,0.002388980,-0.008809270,-0.014184700,1749760040.476643085,-0.007927823,0.006575081,-0.149873000,-0.130676530,-0.459881000,-0.041473900,-0.465699576,1.308480000,,,,,
1749760040.478033,,,,,,,,,,,,,,,,,,1749760040.478033066,0.000000000,0.000000000,0.000000000,0.350560000
1749760040.486481,-0.007186790,0.006704500,0.163053000,0.012820200,-0.006058760,0.001457160,-0.008346670,-0.014069600,1749760040.486480951,-0.007458725,0.006400601,-0.149882000,-0.130677537,-0.459840000,-0.041494700,-0.465661702,1.310460000,,,,,
1749760040.496700,-0.006867200,0.006592770,0.165310000,0.012126000,-0.005808910,0.003076610,-0.007781880,-0.014042300,1749760040.496700048,-0.007134785,0.006302214,-0.149908000,-0.130704931,-0.459789000,-0.041496200,-0.465612021,1.312420000,,,,,
1749760040.498043,,,,,,,,,,,,,,,,,,1749760040.498043060,0.000000000,0.000000000,0.000000000,0.351146000
1749760040.506658,-0.006621070,0.006419320,0.167554000,0.008352430,-0.005535720,0.004745270,-0.005686470,-0.014469300,1749760040.506658077,-0.006880279,0.006140683,-0.149941000,-0.130845146,-0.459748000,-0.041269500,-0.465542774,1.314390000,,,,,
1749760040.516731,-0.006085680,0.006307030,0.169962000,0.006527130,-0.005537630,0.004405530,-0.006137670,-0.014650900,1749760040.516731024,-0.006341454,0.006049801,-0.149929000,-0.130778071,-0.459701000,-0.041392000,-0.465511343,1.316420000,,,,,
1749760040.518047,,,,,,,,,,,,,,,,,,1749760040.518047094,0.000000000,0.000000000,0.000000000,0.351584000
1749760040.526506,-0.005687040,0.005999610,0.172218000,0.002778690,-0.005263060,0.005992190,-0.004611800,-0.015130200,1749760040.526505947,-0.005929511,0.005760091,-0.149932000,-0.130856471,-0.459682000,-0.041231700,-0.465471513,1.318450000,,,,,
1749760040.536677,-0.005429710,0.005796000,0.174281000,0.000684930,-0.005260100,0.005600130,-0.003303390,-0.015406600,1749760040.536676884,-0.005663205,0.005568077,-0.149952000,-0.130944713,-0.459652000,-0.041087700,-0.465423512,1.320470000,,,,,
1749760040.538041,,,,,,,,,,,,,,,,,,1749760040.538041115,0.000000000,0.000000000,0.000000000,0.351874000
1749760040.546626,-0.004990190,0.005524720,0.176253000,0.000661450,-0.005251590,0.005273190,-0.003924250,-0.015403200,1749760040.546626091,-0.005213567,0.005314437,-0.149942000,-0.130878163,-0.459633000,-0.041210900,-0.465420245,1.322500000,,,,,
1749760040.556632,-0.004431620,0.005238720,0.178353000,-0.001748960,-0.005022150,0.006489520,-0.003229210,-0.015746800,1749760040.556632042,-0.004643377,0.005051979,-0.149911000,-0.130876482,-0.459619000,-0.041149200,-0.465396905,1.324570000,,,,,
1749760040.558040,,,,,,,,,,,,,,,,,,1749760040.558039904,0.000000000,0.000000000,0.000000000,0.352018000
1749760040.566821,-0.004071440,0.004944980,0.180238000,-0.003492120,-0.005106350,0.005463290,-0.002332640,-0.016017500,1749760040.566821098,-0.004270950,0.004773723,-0.149903000,-0.130914466,-0.459610000,-0.041051200,-0.465374757,1.326620000,,,,,
1749760040.576483,-0.003362560,0.004660250,0.182023000,-0.004022880,-0.005153890,0.004760000,-0.001379190,-0.016129500,1749760040.576483011,-0.003550462,0.004518735,-0.149841000,-0.130906456,-0.459602000,-0.040936000,-0.465349142,1.328690000,,,,,
1749760040.578036,,,,,,,,,,,,,,,,,,1749760040.578036070,0.000000000,0.000000000,0.000000000,0.352015000
1749760040.586614,-0.002797430,0.004363340,0.183720000,-0.005900700,-0.004618090,0.008120360,-0.002771070,-0.016442600,1749760040.586613894,-0.002974571,0.004244559,-0.149792000,-0.130757143,-0.459598000,-0.041152000,-0.465371394,1.330750000,,,,,
1749760040.596614,-0.002469220,0.003988770,0.185324000,-0.009635740,-0.004299560,0.009753890,-0.003854670,-0.017044200,1749760040.596613884,-0.002631948,0.003883321,-0.149772000,-0.130650517,-0.459609000,-0.041337200,-0.465405766,1.332820000,,,,,
1749760040.598040,,,,,,,,,,,,,,,,,,1749760040.598040104,0.000000000,0.000000000,0.000000000,0.351866000
1749760040.606616,-0.001681140,0.003637300,0.186938000,-0.013347400,-0.003993430,0.011189700,-0.003979500,-0.017679800,1749760040.606616020,-0.001830219,0.003564615,-0.149683000,-0.130534749,-0.459620000,-0.041393900,-0.465420481,1.334910000,,,,,
1749760040.616758,-0.001127740,0.003378680,0.188450000,-0.015164100,-0.003818540,0.011623200,-0.003628270,-0.018077200,1749760040.616758108,-0.001266553,0.003329132,-0.149619000,-0.130476022,-0.459621000,-0.041382600,-0.465417357,1.337000000,,,,,
1749760040.618055,,,,,,,,,,,,,,,,,,1749760040.618055105,0.000000000,0.000000000,0.000000000,0.351572000
1749760040.626452,-0.000321289,0.003014200,0.190042000,-0.018171800,-0.003621830,0.012177200,-0.001556790,-0.018665800,1749760040.626451969,-0.000444920,0.002998445,-0.149513000,-0.130492434,-0.459641000,-0.041118000,-0.465398443,1.339110000,,,,,
1749760040.636691,0.000533549,0.002729860,0.191569000,-0.021452600,-0.003398570,0.012875800,-0.001688340,-0.019324200,1749760040.636691093,0.000420788,0.002749499,-0.149392000,-0.130354981,-0.459652000,-0.041152600,-0.465408970,1.341240000,,,,,
1749760040.638044,,,,,,,,,,,,,,,,,,1749760040.638044119,0.000000000,0.000000000,0.000000000,0.351135000
1749760040.646403,0.000975985,0.002543060,0.192905000,-0.024220700,-0.003446790,0.011657600,-0.000973814,-0.019940900,1749760040.646403074,0.000870759,0.002580984,-0.149322000,-0.130325484,-0.459652000,-0.041065700,-0.465394767,1.343350000,,,,,
1749760040.656535,0.001740310,0.002221810,0.194189000,-0.026909400,-0.003246480,0.012233900,-0.001633560,-0.020573700,1749760040.656534910,0.001647386,0.002291558,-0.149202000,-0.130155575,-0.459673000,-0.041171300,-0.465424570,1.345460000,,,,,
1749760040.658042,,,,,,,,,,,,,,,,,,1749760040.658041954,0.000000000,0.000000000,0.000000000,0.350554000
1749760040.666836,0.002439110,0.002051030,0.195430000,-0.027261900,-0.003183830,0.011823100,-0.000476694,-0.020894000,1749760040.666836023,0.002352949,0.002149328,-0.149083000,-0.130107196,-0.459675000,-0.041019600,-0.465401938,1.347580000,,,,,
1749760040.676631,0.003024980,0.001850990,0.196570000,-0.026954400,-0.003141750,0.011298900,0.000104032,-0.021121900,1749760040.676630974,0.002946687,0.001973247,-0.148973000,-0.130033966,-0.459684000,-0.040940000,-0.465396070,1.349700000,,,,,
1749760040.678048,,,,,,,,,,,,,,,,,,1749760040.678047895,0.000000000,0.000000000,0.000000000,0.349831000
1749760040.686627,0.003753970,0.001730390,0.197624000,-0.025139200,-0.002938500,0.011920200,0.000172547,-0.021127800,1749760040.686626911,0.003680023,0.001882544,-0.148837000,-0.129903240,-0.459683000,-0.040929000,-0.465388076,1.351820000,,,,,
1749760040.696694,0.004243720,0.001580710,0.198527000,-0.026665100,-0.003029110,0.010476100,0.001001120,-0.021600800,1749760040.696693897,0.004175701,0.001752519,-0.148728000,-0.129850990,-0.459687000,-0.040806900,-0.465371761,1.353930000,,,,,
1749760040.698048,,,,,,,,,,,,,,,,,,1749760040.698048115,0.000000000,0.000000000,0.000000000,0.348967000
1749760040.706653,0.004632890,0.001436290,0.197555000,-0.027758600,-0.003120640,0.009124930,0.001714240,-0.022026400,1749760040.706653118,0.004570623,0.001623577,-0.148629000,-0.129804693,-0.459693000,-0.040693300,-0.465358975,1.355770000,,,,,
1749760040.716677,0.005292360,0.001272110,0.198634000,-0.030380300,-0.003066190,0.008871690,0.001146540,-0.022684800,1749760040.716676950,0.005236130,0.001486703,-0.148487000,-0.129632056,-0.459702000,-0.040758600,-0.465370656,1.357910000,,,,,
1749760040.718046,,,,,,,,,,,,,,,,,,1749760040.718045950,0.000000000,0.000000000,0.000000000,0.347964000
1749760040.726745,0.005938020,0.001124750,0.199527000,-0.030037200,-0.003209590,0.007273990,-0.000262095,-0.022938800,1749760040.726744890,0.005886994,0.001366912,-0.148341000,-0.129395898,-0.459711000,-0.040951800,-0.465398708,1.360020000,,,,,
1749760040.736515,0.006448020,0.000986394,0.198538000,-0.029472200,-0.003348460,0.005817420,-0.001487180,-0.023157100,1749760040.736515045,0.006402005,0.001250707,-0.148207000,-0.129177589,-0.459720000,-0.041132400,-0.465425551,1.361870000,,,,,
1749760040.738046,,,,,,,,,,,,,,,,,,1749760040.738045931,0.000000000,0.000000000,0.000000000,0.346821000
1749760040.746687,0.007401870,0.000805346,0.199764000,-0.029866100,-0.003175970,0.006604260,-0.004198920,-0.023509000,1749760040.746686935,0.007362039,0.001112045,-0.148004000,-0.128783822,-0.459736000,-0.041541200,-0.465485876,1.364040000,,,,,
1749760040.756681,0.008240990,0.000728396,0.200794000,-0.029150200,-0.003153350,0.006305370,-0.005931420,-0.023703700,1749760040.756680965,0.008203316,0.001072419,-0.147808000,-0.128451150,-0.459739000,-0.041834900,-0.465518480,1.366190000,,,,,
1749760040.758048,,,,,,,,,,,,,,,,,,1749760040.758048058,0.000000000,0.000000000,0.000000000,0.345542000
1749760040.766684,0.009149860,0.000735786,0.201965000,-0.029285100,-0.003340470,0.004583400,-0.004854310,-0.024014800,1749760040.766684055,0.009111190,0.001116928,-0.147594000,-0.128282918,-0.459731000,-0.041737700,-0.465489070,1.368360000,,,,,
1749760040.776697,0.009795950,0.000788520,0.202848000,-0.029025400,-0.003419580,0.003723400,-0.005652450,-0.024269900,1749760040.776696920,0.009754320,0.001198180,-0.147408000,-0.128021135,-0.459716000,-0.041902200,-0.465487388,1.370510000,,,,,
1749760040.778046,,,,,,,,,,,,,,,,,,1749760040.778045893,0.000000000,0.000000000,0.000000000,0.344127000
1749760040.786663,0.010735300,0.000862930,0.203805000,-0.028418700,-0.003474630,0.003088160,-0.004631510,-0.024472000,1749760040.786663055,0.010689849,0.001310892,-0.147174000,-0.127830864,-0.459697000,-0.041810400,-0.465446869,1.372680000,,,,,
1749760040.796710,0.011458600,0.000920125,0.202834000,-0.027638400,-0.003528140,0.002507300,-0.003700910,-0.024642800,1749760040.796710014,0.011410251,0.001397256,-0.146961000,-0.127660137,-0.459680000,-0.041721500,-0.465409634,1.374580000,,,,,
1749760040.798044,,,,,,,,,,,,,,,,,,1749760040.798043966,0.000000000,0.000000000,0.000000000,0.342577000
1749760040.806902,0.012308000,0.000931014,0.203833000,-0.026724300,-0.003685290,0.001253020,-0.004696530,-0.024786400,1749760040.806901932,0.012258195,0.001445790,-0.146723000,-0.127338239,-0.459669000,-0.041903200,-0.465411862,1.376750000,,,,,
1749760040.816475,0.013266000,0.001093220,0.205016000,-0.022791700,-0.003870640,-0.000108992,-0.004796780,-0.024482300,1749760040.816474915,0.013208458,0.001648798,-0.146461000,-0.127049231,-0.459636000,-0.041964700,-0.465375730,1.378960000,,,,,
1749760040.818055,,,,,,,,,,,,,,,,,,1749760040.818054914,0.000000000,0.000000000,0.000000000,0.340895000
1749760040.826653,0.014050000,0.001320200,0.206000000,-0.023917200,-0.004184100,-0.002259120,-0.004991690,-0.024873800,1749760040.826653004,0.013982099,0.001909536,-0.146215000,-0.126769747,-0.459593000,-0.042041000,-0.465332121,1.381150000,,,,,
1749760040.836711,0.015067000,0.001501150,0.207095000,-0.023259100,-0.004614940,-0.005069120,-0.003753930,-0.025017300,1749760040.836710930,0.014990873,0.002131121,-0.145926000,-0.126543123,-0.459553000,-0.041911100,-0.465263576,1.383370000,,,,,
1749760040.838045,,,,,,,,,,,,,,,,,,1749760040.838044882,0.000000000,0.000000000,0.000000000,0.339082000
1749760040.846508,0.016125900,0.001710250,0.208027000,-0.021006000,-0.005170340,-0.008543120,-0.002867890,-0.024922600,1749760040.846508026,0.016040299,0.002382942,-0.145622000,-0.126283701,-0.459508000,-0.041819900,-0.465194363,1.385580000,,,,,
1749760040.856641,0.017001900,0.001944850,0.208873000,-0.021070700,-0.005832280,-0.012511300,-0.002703770,-0.025142000,1749760040.856641054,0.016905712,0.002654043,-0.145333000,-0.125994849,-0.459456000,-0.041824800,-0.465130944,1.387780000,,,,,
1749760040.858046,,,,,,,,,,,,,,,,,,1749760040.858046055,0.000000000,0.000000000,0.000000000,0.337139000
1749760040.866672,0.017751200,0.002310060,0.209703000,-0.019312000,-0.006533950,-0.016479900,-0.002800470,-0.025097200,1749760040.866672039,0.017638961,0.003050987,-0.145054000,-0.125700036,-0.459384000,-0.041865800,-0.465052495,1.389990000,,,,,
1749760040.876631,0.018528100,0.002708400,0.210272000,-0.017679200,-0.007092910,-0.019193000,-0.002087220,-0.025053100,1749760040.876631021,0.018398772,0.003480103,-0.144764000,-0.125448831,-0.459303000,-0.041790200,-0.464949946,1.392170000,,,,,
1749760040.878045,,,,,,,,,,,,,,,,,,1749760040.878045082,0.000000000,0.000000000,0.000000000,0.335068000
1749760040.886657,0.019401000,0.003146830,0.210978000,-0.014983100,-0.007812340,-0.022823900,-0.001965030,-0.024838200,1749760040.886657000,0.019252581,0.003954678,-0.144452000,-0.125139464,-0.459212000,-0.041793300,-0.464846379,1.394380000,,,,,
1749760040.896644,0.020252600,0.003608310,0.211714000,-0.013301900,-0.008414320,-0.025396400,-0.001585530,-0.024743800,1749760040.896644115,0.020084313,0.004450625,-0.144134000,-0.124842288,-0.459114000,-0.041757900,-0.464730759,1.396590000,,,,,
1749760040.898046,,,,,,,,,,,,,,,,,,1749760040.898046017,0.000000000,0.000000000,0.000000000,0.332871000
1749760040.906645,0.020949000,0.003963120,0.212225000,-0.012609800,-0.008810720,-0.026376800,-0.002807430,-0.024776300,1749760040.906645060,0.020764360,0.004838211,-0.143831000,-0.124453411,-0.459026000,-0.041951200,-0.464654252,1.398780000,,,,,
1749760040.916612,0.021645300,0.004315470,0.212764000,-0.013347700,-0.009489210,-0.029231400,-0.000347699,-0.025009600,1749760040.916611910,0.021446987,0.005212393,-0.143520000,-0.124299424,-0.458935000,-0.041622000,-0.464509395,1.400980000,,,,,
1749760040.918063,,,,,,,,,,,,,,,,,,1749760040.918062925,0.000000000,0.000000000,0.000000000,0.330551000
1749760040.926711,0.022356800,0.004717550,0.212975000,-0.011341400,-0.010015000,-0.030838100,0.000803446,-0.024851600,1749760040.926711082,0.022142064,0.005640104,-0.143200000,-0.124059970,-0.458834000,-0.041458200,-0.464374852,1.403140000,,,,,
1749760040.936620,0.022938000,0.005125690,0.213320000,-0.009644300,-0.010361300,-0.031099200,0.002375310,-0.024718400,1749760040.936619997,0.022707284,0.006066614,-0.142892000,-0.123866416,-0.458727000,-0.041221800,-0.464225910,1.405320000,,,,,
1749760040.938045,,,,,,,,,,,,,,,,,,1749760040.938045025,0.000000000,0.000000000,0.000000000,0.328108000
1749760040.946741,0.023745400,0.005413590,0.213608000,-0.007353810,-0.010686500,-0.031197600,0.001667120,-0.024482100,1749760040.946741104,0.023501628,0.006389401,-0.142545000,-0.123486831,-0.458634000,-0.041300900,-0.464128458,1.407500000,,,,,
1749760040.956806,0.024403700,0.005724520,0.213618000,-0.006736820,-0.010784300,-0.029723200,0.001507200,-0.024466000,1749760040.956805944,0.024146484,0.006727406,-0.142212000,-0.123155140,-0.458535000,-0.041307500,-0.464016606,1.409640000,,,,,
1749760040.958046,,,,,,,,,,,,,,,,,,1749760040.958045959,0.000000000,0.000000000,0.000000000,0.325545000
1749760040.966686,0.025057700,0.006099120,0.213926000,-0.004595630,-0.010744200,-0.027400900,0.001493890,-0.024222300,1749760040.966686010,0.024784551,0.007128369,-0.141873000,-0.122827131,-0.458423000,-0.041294400,-0.463889093,1.411820000,,,,,
1749760040.976739,0.025439000,0.006476350,0.213859000,-0.003589230,-0.010882100,-0.026464200,0.002632760,-0.024122100,1749760040.976738930,0.025151309,0.007516481,-0.141567000,-0.122609841,-0.458307000,-0.041114000,-0.463738448,1.413950000,,,,,
1749760040.978045,,,,,,,,,,,,,,,,,,1749760040.978044987,0.000000000,0.000000000,0.000000000,0.322865000
1749760040.986630,0.026007200,0.006927120,0.213940000,-0.001977440,-0.010595100,-0.022667300,0.003364280,-0.023923800,1749760040.986629963,0.025701560,0.007986817,-0.141230000,-0.122339941,-0.458177000,-0.040981400,-0.463578489,1.416100000,,,,,
1749760040.996653,0.026446000,0.007414530,0.213901000,-0.000108536,-0.010439400,-0.020035200,0.003921020,-0.023672000,1749760040.996653080,0.026120996,0.008488802,-0.140906000,-0.122075057,-0.458037000,-0.040866800,-0.463411345,1.418230000,,,,,
1749760040.998046,,,,,,,,,,,,,,,,,,1749760040.998045921,0.000000000,0.000000000,0.000000000,0.320068000
1749760041.006656,0.026903700,0.007889180,0.213577000,0.002910990,-0.010231900,-0.017227900,0.002554110,-0.023234400,1749760041.006655931,0.026557489,0.008985989,-0.140576000,-0.121677330,-0.457894000,-0.041026200,-0.463274383,1.420320000,,,,,
1749760041.016645,0.027429500,0.008394060,0.213624000,0.004298320,-0.010306800,-0.016557800,0.003078690,-0.023003800,1749760041.016644955,0.027063108,0.009509254,-0.140230000,-0.121384999,-0.457742000,-0.040924400,-0.463095966,1.422460000,,,,,
1749760041.018046,,,,,,,,,,,,,,,,,,1749760041.018045902,0.000000000,0.000000000,0.000000000,0.317158000
1749760041.026827,0.028081500,0.008798370,0.213493000,0.005977020,-0.010299600,-0.015368600,0.005191360,-0.022716900,1749760041.026827097,0.027701375,0.009930547,-0.139861000,-0.121178486,-0.457599000,-0.040586700,-0.462897093,1.424580000,,,,,
1749760041.036702,0.028582900,0.009232320,0.213232000,0.008806020,-0.010015900,-0.012357700,0.004973780,-0.022246100,1749760041.036701918,0.028184965,0.010383912,-0.139507000,-0.120840298,-0.457448000,-0.040566400,-0.462729401,1.426680000,,,,,
1749760041.038046,,,,,,,,,,,,,,,,,,1749760041.038045883,0.000000000,0.000000000,0.000000000,0.314136000
1749760041.046672,0.029126000,0.009678500,0.213262000,0.009102630,-0.009892580,-0.010658400,0.007604430,-0.022115000,1749760041.046672106,0.028714208,0.010839350,-0.139143000,-0.120682732,-0.457291000,-0.040134500,-0.462505688,1.428820000,,,,,
