__time,filtered_pose/dx,filtered_pose/dy,filtered_pose/dz,filtered_pose/p,filtered_pose/pitch,filtered_pose/q,filtered_pose/r,filtered_pose/roll,filtered_pose/timestamp,filtered_pose/vxb,filtered_pose/vyb,filtered_pose/x,filtered_pose/xb,filtered_pose/y,filtered_pose/yaw,filtered_pose/yb,filtered_pose/z,u_control/timestamp,u_control/ux,u_control/uy,u_control/uyaw,u_control/uz
1749760114.787283,-0.009082000,0.006400210,-0.000569200,0.001916590,0.001074720,0.008663570,0.002473080,0.000389090,1749760114.787282944,-0.009266555,0.006129957,-0.099549400,-0.088324368,-0.379672000,-0.029455600,-0.382439167,1.283320000,,,,,
1749760114.797749,-0.008958470,0.006624330,-0.000212947,0.000701389,0.001153050,0.008606420,0.002336830,0.000231709,1749760114.797749043,-0.009149648,0.006357662,-0.099622300,-0.088401966,-0.379575000,-0.029450700,-0.382343923,1.283360000,,,,,
1749760114.798000,,,,,,,,,,,,,,,,,,1749760114.798000097,0.000000000,0.000000000,0.000000000,0.300000000
1749760114.807408,-0.008864940,0.006819700,0.000174310,-0.000293233,0.001199700,0.008335140,0.002436200,0.000094222,1749760114.807408094,-0.009061664,0.006556044,-0.099698300,-0.088495150,-0.379481000,-0.029412900,-0.382248857,1.283420000,,,,,
1749760114.817321,-0.008757340,0.006991570,0.000509039,-0.001148110,0.001275640,0.008284150,0.002814400,-0.000032909,1749760114.817321062,-0.008958631,0.006731715,-0.099771300,-0.088601159,-0.379388000,-0.029333600,-0.382151019,1.283470000,,,,,
1749760114.818063,,,,,,,,,,,,,,,,,,1749760114.818063021,0.000000000,0.000000000,0.000000000,0.300000000
1749760114.827404,-0.008685200,0.007147150,0.000862280,-0.001656010,0.001195190,0.007160160,0.003250390,-0.000118179,1749760114.827404022,-0.008890455,0.006890157,-0.099848400,-0.088715911,-0.379295000,-0.029242100,-0.382052205,1.283520000,,,,,
1749760114.837155,-0.008626850,0.007310900,0.001219970,-0.002357740,0.000948173,0.004967060,0.003944560,-0.000236686,1749760114.837155104,-0.008835977,0.007056721,-0.099926700,-0.088847870,-0.379200000,-0.029108800,-0.381947695,1.283590000,,,,,
1749760114.838059,,,,,,,,,,,,,,,,,,1749760114.838058949,0.000000000,0.000000000,0.000000000,0.300000000
1749760114.847253,-0.008504410,0.007426350,0.001509760,-0.002950800,0.000662573,0.002659340,0.004487440,-0.000346425,1749760114.847253084,-0.008716099,0.007176718,-0.099995200,-0.088964172,-0.379110000,-0.028990400,-0.381849196,1.283640000,,,,,
1749760114.857552,-0.008443390,0.007560200,0.001713840,-0.004230330,0.000479091,0.001213350,0.004125690,-0.000561826,1749760114.857552052,-0.008659041,0.007312214,-0.100071000,-0.089039725,-0.379016000,-0.028998100,-0.381758118,1.283680000,,,,,
1749760114.858072,,,,,,,,,,,,,,,,,,1749760114.858072042,0.000000000,0.000000000,0.000000000,0.300000000
1749760114.867514,-0.008330280,0.007692400,0.001915560,-0.005197690,0.000273276,-0.000286824,0.003718110,-0.000744670,1749760114.867513895,-0.008549946,0.007447484,-0.100139000,-0.089103581,-0.378921000,-0.029016100,-0.381666733,1.283730000,,,,,
1749760114.877457,-0.008288930,0.007818120,0.002140230,-0.005725200,0.000088272,-0.001540490,0.003080190,-0.000873284,1749760114.877456903,-0.008512681,0.007573878,-0.100217000,-0.089163127,-0.378826000,-0.029071600,-0.381578986,1.283780000,,,,,
1749760114.878079,,,,,,,,,,,,,,,,,,1749760114.878078938,0.000000000,0.000000000,0.000000000,0.300000000
1749760114.887459,-0.008237750,0.007924150,0.002333820,-0.005905620,-0.000071184,-0.002532020,0.002892630,-0.000956747,1749760114.887459040,-0.008464577,0.007681381,-0.100292000,-0.089242172,-0.378733000,-0.029068000,-0.381487884,1.283830000,,,,,
1749760114.897473,-0.008186340,0.007989730,0.002511090,-0.005761270,-0.000246775,-0.003566360,0.002714150,-0.000994832,1749760114.897473097,-0.008415071,0.007748453,-0.100367000,-0.089320871,-0.378644000,-0.029065000,-0.381400833,1.283880000,,,,,
1749760114.898069,,,,,,,,,,,,,,,,,,1749760114.898068905,0.000000000,0.000000000,0.000000000,0.300000000
1749760114.907466,-0.008134390,0.008012820,0.002634970,-0.005320100,-0.000381889,-0.004250890,0.002074930,-0.000988351,1749760114.907465935,-0.008364326,0.007772493,-0.100441000,-0.089372161,-0.378561000,-0.029130800,-0.381325900,1.283920000,,,,,
1749760114.917405,-0.008106280,0.008085980,0.002753890,-0.004541330,-0.000581350,-0.005331220,0.001121190,-0.000928410,1749760114.917404890,-0.008339283,0.007845458,-0.100519000,-0.089407868,-0.378470000,-0.029248600,-0.381247746,1.283970000,,,,,
1749760114.918079,,,,,,,,,,,,,,,,,,1749760114.918078899,0.000000000,0.000000000,0.000000000,0.300000000
1749760114.927289,-0.008129220,0.008161300,0.002882000,-0.004471200,-0.000716907,-0.005897320,0.000096553,-0.000963635,1749760114.927289009,-0.008365505,0.007918924,-0.100603000,-0.089442074,-0.378378000,-0.029386200,-0.381170552,1.284010000,,,,,
1749760114.937515,-0.008151840,0.008248560,0.002980030,-0.004170530,-0.000784335,-0.005955520,-0.001895490,-0.000964665,1749760114.937515020,-0.008392989,0.008003061,-0.100688000,-0.089419854,-0.378284000,-0.029674700,-0.381104904,1.284060000,,,,,
1749760114.938069,,,,,,,,,,,,,,,,,,1749760114.938069105,0.000000000,0.000000000,0.000000000,0.300000000
1749760114.947532,-0.008178030,0.008382880,0.003083190,-0.003648540,-0.000840320,-0.005930950,-0.003561620,-0.000930535,1749760114.947531939,-0.008425276,0.008134346,-0.100773000,-0.089408398,-0.378182000,-0.029935700,-0.381028819,1.284100000,,,,,
1749760114.957466,-0.008119130,0.008572780,0.003190960,-0.003311450,-0.000826127,-0.005425020,-0.004745490,-0.000918048,1749760114.957465887,-0.008373814,0.008324185,-0.100846000,-0.089405636,-0.378070000,-0.030143300,-0.380937623,1.284150000,,,,,
1749760114.958084,,,,,,,,,,,,,,,,,,1749760114.958084106,0.000000000,0.000000000,0.000000000,0.300000000
1749760114.967432,-0.008191120,0.008797890,0.003418120,-0.003098520,-0.000747238,-0.004508600,-0.005064440,-0.000920226,1749760114.967432022,-0.008453358,0.008546230,-0.100938000,-0.089465430,-0.377952000,-0.030237100,-0.380830843,1.284210000,,,,,
1749760114.977237,-0.007961960,0.009156180,0.003795860,-0.003619240,-0.000769428,-0.004351000,-0.002936090,-0.001026860,1749760114.977236986,-0.008232830,0.008913414,-0.100986000,-0.089616084,-0.377812000,-0.029978500,-0.380669196,1.284300000,,,,,
1749760114.978061,,,,,,,,,,,,,,,,,,1749760114.978060961,0.000000000,0.000000000,0.000000000,0.300000000
1749760114.987443,-0.007786900,0.009476340,0.004268420,-0.003191270,-0.000950913,-0.005300700,-0.002263620,-0.001000880,1749760114.987442970,-0.008066814,0.009239228,-0.101041000,-0.089701186,-0.377674000,-0.029910200,-0.380526781,1.284410000,,,,,
1749760114.997380,-0.007639160,0.009748160,0.004796100,-0.002591090,-0.001125300,-0.006136170,-0.001188230,-0.000945597,1749760114.997380018,-0.007925998,0.009516404,-0.101097000,-0.089812018,-0.377539000,-0.029776600,-0.380381521,1.284530000,,,,,
1749760114.998068,,,,,,,,,,,,,,,,,,1749760114.998068094,0.000000000,0.000000000,0.000000000,0.300000000
1749760115.007449,-0.007505850,0.009999980,0.005393610,-0.001441940,-0.001457340,-0.007999330,-0.001421380,-0.000804556,1749760115.007448912,-0.007800691,0.009771725,-0.101154000,-0.089855605,-0.377405000,-0.029822300,-0.380253384,1.284660000,,,,,
1749760115.017139,-0.007434720,0.010247700,0.006065480,0.001227550,-0.001615050,-0.008534270,-0.000957103,-0.000431147,1749760115.017138958,-0.007736446,0.010021867,-0.101219000,-0.089944853,-0.377269000,-0.029769100,-0.380114598,1.284810000,,,,,
1749760115.018060,,,,,,,,,,,,,,,,,,1749760115.018059969,0.000000000,0.000000000,0.000000000,0.300000000
1749760115.027331,-0.007421410,0.010471200,0.006803370,0.005214760,-0.001812970,-0.009309140,-0.001096410,0.000160397,1749760115.027331114,-0.007730099,0.010245434,-0.101291000,-0.090009516,-0.377134000,-0.029798900,-0.379984483,1.284980000,,,,,
1749760115.037473,-0.007434770,0.010629700,0.007764540,0.009594950,-0.002465590,-0.013160500,-0.001532540,0.000848908,1749760115.037472963,-0.007748949,0.010402890,-0.101367000,-0.090061043,-0.377007000,-0.029873200,-0.379866497,1.285190000,,,,,
1749760115.038065,,,,,,,,,,,,,,,,,,1749760115.038064957,0.000000000,0.000000000,0.000000000,0.300000000
1749760115.047536,-0.007394320,0.010852100,0.008841320,0.011628500,-0.003182930,-0.017192100,-0.001185470,0.001240300,1749760115.047535896,-0.007714787,0.010626670,-0.101436000,-0.090147492,-0.376868000,-0.029838100,-0.379726456,1.285420000,,,,,
1749760115.057492,-0.007227840,0.010918700,0.010055200,0.010954200,-0.004109140,-0.022384100,-0.002692260,0.001258610,1749760115.057492018,-0.007552837,0.010696464,-0.101486000,-0.090113374,-0.376750000,-0.030068900,-0.379630808,1.285690000,,,,,
1749760115.058068,,,,,,,,,,,,,,,,,,1749760115.058068037,0.000000000,0.000000000,0.000000000,0.300000000
1749760115.067410,-0.007188540,0.011041800,0.011588600,0.011492900,-0.005045880,-0.027291100,-0.001767150,0.001446420,1749760115.067409992,-0.007516092,0.010821498,-0.101552000,-0.090223958,-0.376623000,-0.029961400,-0.379496153,1.286010000,,,,,
1749760115.077388,-0.007323200,0.011106700,0.013202200,0.012935700,-0.005728790,-0.030113100,-0.001835460,0.001770960,1749760115.077388048,-0.007652936,0.010882123,-0.101644000,-0.090309041,-0.376503000,-0.029989000,-0.379381456,1.286360000,,,,,
1749760115.078065,,,,,,,,,,,,,,,,,,1749760115.078064919,0.000000000,0.000000000,0.000000000,0.300000000
1749760115.087381,-0.007782340,0.011238300,0.014940300,0.014522800,-0.006595380,-0.034005300,-0.001571130,0.002130890,1749760115.087380886,-0.008115596,0.011000060,-0.101784000,-0.090460461,-0.376373000,-0.029969000,-0.379253903,1.286750000,,,,,
1749760115.097397,-0.008366920,0.011348700,0.016943400,0.015499800,-0.007462500,-0.037633200,-0.002464820,0.002418070,1749760115.097397089,-0.008704835,0.011091627,-0.101946000,-0.090571089,-0.376244000,-0.030114500,-0.379142997,1.287190000,,,,,
1749760115.098072,,,,,,,,,,,,,,,,,,1749760115.098072052,0.000000000,0.000000000,0.000000000,0.300000000
1749760115.107431,-0.008707230,0.011370400,0.019041000,0.015069300,-0.008244670,-0.040426600,-0.002138330,0.002510520,1749760115.107430935,-0.009045391,0.011103277,-0.102079000,-0.090716164,-0.376128000,-0.030091700,-0.379028986,1.287660000,,,,,
1749760115.117368,-0.008843330,0.011352400,0.021241300,0.013193700,-0.008783570,-0.041353300,-0.003103800,0.002388720,1749760115.117367983,-0.009182680,0.011079705,-0.102186000,-0.090765182,-0.376017000,-0.030253400,-0.378935937,1.288170000,,,,,
1749760115.118066,,,,,,,,,,,,,,,,,,1749760115.118066072,0.000000000,0.000000000,0.000000000,0.300000000
1749760115.127455,-0.008928180,0.011342500,0.023400100,0.010811600,-0.009539610,-0.043710900,-0.003168270,0.002174580,1749760115.127454996,-0.009267638,0.011066869,-0.102287000,-0.090854219,-0.375905000,-0.030293800,-0.378830714,1.288700000,,,,,
1749760115.137377,-0.008909230,0.011276300,0.025614200,0.009207060,-0.010606000,-0.048042500,-0.003073760,0.002049590,1749760115.137377024,-0.009246889,0.011001108,-0.102374000,-0.090937550,-0.375801000,-0.030311700,-0.378731025,1.289250000,,,,,
1749760115.138068,,,,,,,,,,,,,,,,,,1749760115.138067961,0.000000000,0.000000000,0.000000000,0.300000000
1749760115.147379,-0.008945730,0.011261900,0.027890500,0.008063140,-0.011897900,-0.053628000,-0.001086490,0.001975470,1749760115.147378922,-0.009280102,0.010988002,-0.102468000,-0.091132515,-0.375690000,-0.030053800,-0.378599435,1.289840000,,,,,
1749760115.157379,-0.009287950,0.011329700,0.030196500,0.005494480,-0.013180000,-0.058761500,-0.000019184,0.001682920,1749760115.157378912,-0.009622612,0.011046875,-0.102607000,-0.091329694,-0.375568000,-0.029909600,-0.378468501,1.290450000,,,,,
1749760115.158067,,,,,,,,,,,,,,,,,,1749760115.158066988,0.000000000,0.000000000,0.000000000,0.300000000
1749760115.167433,-0.009871900,0.011444500,0.032486500,0.002994670,-0.014710800,-0.065253500,0.000853380,0.001374690,1749760115.167433023,-0.010208323,0.011145453,-0.102785000,-0.091559400,-0.375438000,-0.029783000,-0.378332294,1.291090000,,,,,
1749760115.177403,-0.010538100,0.011578800,0.034794300,0.000403256,-0.015981800,-0.069510500,0.001637920,0.001028150,1749760115.177402973,-0.010876848,0.011261188,-0.102980000,-0.091804633,-0.375304000,-0.029660500,-0.378192917,1.291750000,,,,,
1749760115.178066,,,,,,,,,,,,,,,,,,1749760115.178066015,0.000000000,0.000000000,0.000000000,0.300000000
1749760115.187392,-0.011270800,0.011587900,0.037162000,-0.000789590,-0.016795100,-0.070324100,0.001641510,0.000858881,1749760115.187391996,-0.011609305,0.011248751,-0.103192000,-0.092026399,-0.375187000,-0.029643600,-0.378080700,1.292440000,,,,,
1749760115.197393,-0.011830200,0.011600900,0.039462700,-0.000274800,-0.017276200,-0.068795300,0.001006040,0.000925775,1749760115.197392941,-0.012169698,0.011244241,-0.103386000,-0.092195123,-0.375069000,-0.029719500,-0.377975501,1.293150000,,,,,
1749760115.198069,,,,,,,,,,,,,,,,,,1749760115.198069096,0.000000000,0.000000000,0.000000000,0.300000000
1749760115.207482,-0.012229800,0.011623900,0.041743500,-0.001501940,-0.017692900,-0.066928000,0.001805320,0.000744746,1749760115.207482100,-0.012568385,0.011256943,-0.103562000,-0.092422267,-0.374950000,-0.029593300,-0.377850122,1.293870000,,,,,
1749760115.217550,-0.012768200,0.011617800,0.044007400,-0.004499360,-0.018256900,-0.066203100,0.002343930,0.000294256,1749760115.217550039,-0.013105286,0.011236177,-0.103763000,-0.092662987,-0.374834000,-0.029497000,-0.377731199,1.294620000,,,,,
1749760115.218071,,,,,,,,,,,,,,,,,,1749760115.218070984,0.000000000,0.000000000,0.000000000,0.300000000
1749760115.227449,-0.013321000,0.011707400,0.046220600,-0.006240370,-0.018585800,-0.063910200,0.001376490,-0.000003676,1749760115.227448940,-0.013661813,0.011307835,-0.103971000,-0.092830483,-0.374705000,-0.029614100,-0.377619262,1.295380000,,,,,
1749760115.237475,-0.014176400,0.011936200,0.048504200,-0.006046050,-0.019096700,-0.063028000,0.002674180,-0.000037848,1749760115.237474918,-0.014521283,0.011514144,-0.104228000,-0.093168173,-0.374555000,-0.029411800,-0.377458098,1.296170000,,,,,
1749760115.238070,,,,,,,,,,,,,,,,,,1749760115.238070011,0.000000000,0.000000000,0.000000000,0.300000000
1749760115.247393,-0.015262700,0.012194200,0.050718800,-0.007360170,-0.019597600,-0.062137200,0.001057660,-0.000289226,1749760115.247392893,-0.015617143,0.011736838,-0.104528000,-0.093394140,-0.374398000,-0.029619900,-0.377329431,1.296980000,,,,,
1749760115.257380,-0.016293300,0.012474700,0.052758400,-0.009404190,-0.020334300,-0.062931100,0.000725646,-0.000659788,1749760115.257380009,-0.016656050,0.011986065,-0.104830000,-0.093686616,-0.374235000,-0.029657600,-0.377178979,1.297780000,,,,,
1749760115.258078,,,,,,,,,,,,,,,,,,1749760115.258078098,0.000000000,0.000000000,0.000000000,0.300000000
1749760115.267247,-0.017202000,0.012709300,0.054589500,-0.009788600,-0.021079800,-0.063730900,0.001069960,-0.000809677,1749760115.267246962,-0.017570609,0.012194623,-0.105125000,-0.094007804,-0.374076000,-0.029600300,-0.377023411,1.298580000,,,,,
1749760115.277514,-0.018183600,0.012953400,0.056478000,-0.008602490,-0.021468200,-0.062017900,0.001549540,-0.000735242,1749760115.277513981,-0.018558005,0.012411056,-0.105440000,-0.094357761,-0.373914000,-0.029519900,-0.376863219,1.299400000,,,,,
1749760115.278065,,,,,,,,,,,,,,,,,,1749760115.278064966,0.000000000,0.000000000,0.000000000,0.300000000
1749760115.287447,-0.019089800,0.013135400,0.058464600,-0.006949610,-0.021664700,-0.059101300,0.001355500,-0.000581134,1749760115.287446976,-0.019469342,0.012565983,-0.105753000,-0.094670445,-0.373758000,-0.029532600,-0.376717728,1.300250000,,,,,
1749760115.297199,-0.019822600,0.013351500,0.060491000,-0.008067510,-0.021944000,-0.056955800,0.001546630,-0.000813040,1749760115.297199011,-0.020207676,0.012761185,-0.106051000,-0.094988680,-0.373595000,-0.029491300,-0.376559676,1.301130000,,,,,
1749760115.298086,,,,,,,,,,,,,,,,,,1749760115.298085928,0.000000000,0.000000000,0.000000000,0.300000000
1749760115.307315,-0.020669100,0.013449100,0.062560100,-0.010792600,-0.022484700,-0.056757100,-0.001436930,-0.001289630,1749760115.307315111,-0.021062049,0.012824979,-0.106372000,-0.095156552,-0.373447000,-0.029909300,-0.376461014,1.302040000,,,,,
1749760115.317396,-0.021527500,0.013560000,0.064471300,-0.012280700,-0.023044100,-0.056701100,-0.003937480,-0.001613740,1749760115.317395926,-0.021928255,0.012901880,-0.106703000,-0.095349784,-0.373297000,-0.030286900,-0.376357010,1.302940000,,,,,
1749760115.318083,,,,,,,,,,,,,,,,,,1749760115.318083048,0.000000000,0.000000000,0.000000000,0.300000000
1749760115.327386,-0.022706400,0.013769700,0.066080000,-0.011055100,-0.023348600,-0.054894000,-0.004786190,-0.001558500,1749760115.327385902,-0.023115091,0.013072023,-0.107090000,-0.095680424,-0.373131000,-0.030449600,-0.376218378,1.303820000,,,,,
1749760115.337377,-0.024196700,0.014141700,0.067630200,-0.007427510,-0.023529000,-0.052357100,-0.003460610,-0.001142020,1749760115.337377071,-0.024614087,0.013402040,-0.107534000,-0.096184476,-0.372939000,-0.030304900,-0.376026070,1.304700000,,,,,
1749760115.338071,,,,,,,,,,,,,,,,,,1749760115.338071108,0.000000000,0.000000000,0.000000000,0.300000000
1749760115.347633,-0.025762500,0.014476900,0.069065900,-0.006020070,-0.023815600,-0.050726400,-0.004090520,-0.001011820,1749760115.347632885,-0.026191051,0.013686340,-0.108003000,-0.096611622,-0.372749000,-0.030431000,-0.375862554,1.305590000,,,,,
1749760115.357235,-0.027110600,0.014848500,0.070554600,-0.007410410,-0.023987400,-0.048417000,-0.003890500,-0.001274010,1749760115.357234955,-0.027550000,0.014016422,-0.108456000,-0.097065996,-0.372550000,-0.030442900,-0.375678584,1.306500000,,,,,
1749760115.358060,,,,,,,,,,,,,,,,,,1749760115.358059883,0.000000000,0.000000000,0.000000000,0.300000000
1749760115.367444,-0.028261900,0.015164700,0.072112600,-0.009507090,-0.024019400,-0.045304900,-0.004509420,-0.001652720,1749760115.367444038,-0.028712232,0.014293734,-0.108895000,-0.097462333,-0.372356000,-0.030571700,-0.375510593,1.307430000,,,,,
1749760115.377369,-0.029586100,0.015415300,0.073534100,-0.010611000,-0.024098100,-0.042728400,-0.005919370,-0.001908180,1749760115.377368927,-0.030047097,0.014496232,-0.109370000,-0.097849058,-0.372168000,-0.030821600,-0.375361664,1.308360000,,,,,
1749760115.378065,,,,,,,,,,,,,,,,,,1749760115.378065109,0.000000000,0.000000000,0.000000000,0.300000000
1749760115.387451,-0.030910200,0.015823300,0.075058900,-0.009439230,-0.024081700,-0.039674300,-0.004235610,-0.001844050,1749760115.387450933,-0.031380385,0.014869052,-0.109858000,-0.098412974,-0.371954000,-0.030636200,-0.375144565,1.309310000,,,,,
1749760115.397439,-0.032328800,0.016222900,0.076518400,-0.006575060,-0.023839100,-0.035273700,-0.002705980,-0.001522330,1749760115.397439003,-0.032807820,0.015230913,-0.110373000,-0.099001800,-0.371738000,-0.030456300,-0.374926637,1.310280000,,,,,
1749760115.398067,,,,,,,,,,,,,,,,,,1749760115.398066998,0.000000000,0.000000000,0.000000000,0.300000000
1749760115.407280,-0.033894800,0.016810900,0.077903800,-0.005517260,-0.023531700,-0.030729500,-0.002636810,-0.001434400,1749760115.407279968,-0.034391268,0.015770369,-0.110924000,-0.099553727,-0.371490000,-0.030473300,-0.374697224,1.311240000,,,,,
1749760115.417508,-0.035500800,0.017327400,0.079101400,-0.005285820,-0.023541200,-0.028679700,-0.002439820,-0.001455950,1749760115.417507887,-0.036012223,0.016237775,-0.111496000,-0.100133689,-0.371247000,-0.030471100,-0.374471544,1.312190000,,,,,
1749760115.418067,,,,,,,,,,,,,,,,,,1749760115.418066978,0.000000000,0.000000000,0.000000000,0.300000000
1749760115.427437,-0.037076500,0.017965400,0.080168700,-0.003785980,-0.023914500,-0.029275000,-0.002129800,-0.001290910,1749760115.427437067,-0.037606281,0.016828252,-0.112080000,-0.100733268,-0.370981000,-0.030450400,-0.374221375,1.313140000,,,,,
1749760115.437442,-0.038514000,0.018533700,0.081334800,-0.002597850,-0.024267100,-0.029687200,-0.000320296,-0.001156150,1749760115.437442064,-0.039056224,0.017361959,-0.112660000,-0.101411326,-0.370719000,-0.030208800,-0.373952665,1.314110000,,,,,
1749760115.438067,,,,,,,,,,,,,,,,,,1749760115.438066959,0.000000000,0.000000000,0.000000000,0.300000000
1749760115.447507,-0.039824700,0.019121500,0.082613800,-0.001466200,-0.024180600,-0.027048600,0.001216470,-0.001017720,1749760115.447506905,-0.040380138,0.017918786,-0.113235000,-0.102076460,-0.370448000,-0.029988800,-0.373676708,1.315110000,,,,,
1749760115.457427,-0.041332600,0.019656700,0.083908300,-0.000762873,-0.023944100,-0.023559000,0.002632570,-0.000930203,1749760115.457427025,-0.041899396,0.018417663,-0.113853000,-0.102783615,-0.370179000,-0.029770900,-0.373403972,1.316130000,,,,,
1749760115.458071,,,,,,,,,,,,,,,,,,1749760115.458070993,0.000000000,0.000000000,0.000000000,0.300000000
1749760115.467443,-0.042814300,0.020075000,0.085081200,-0.001612790,-0.023914100,-0.021730900,0.002925360,-0.001061310,1749760115.467442989,-0.043391596,0.018794662,-0.114481000,-0.103444698,-0.369922000,-0.029702000,-0.373158652,1.317130000,,,,,
1749760115.477433,-0.044259900,0.020531000,0.086107100,-0.000514465,-0.023844100,-0.019753300,0.003399110,-0.000917871,1749760115.477432966,-0.044848216,0.019211930,-0.115120000,-0.104127927,-0.369655000,-0.029603900,-0.372900534,1.318130000,,,,,
1749760115.478066,,,,,,,,,,,,,,,,,,1749760115.478065968,0.000000000,0.000000000,0.000000000,0.300000000
1749760115.487509,-0.045782900,0.021009300,0.087005200,0.000055712,-0.024002700,-0.019485200,0.004243570,-0.000840179,1749760115.487509012,-0.046381629,0.019652204,-0.115783000,-0.104857132,-0.369380000,-0.029447300,-0.372628863,1.319130000,,,,,
1749760115.497139,-0.047517100,0.021539000,0.087913000,-0.002960320,-0.024387600,-0.020793200,0.004298810,-0.001277800,1749760115.497138977,-0.048129656,0.020133044,-0.116493000,-0.105594078,-0.369093000,-0.029396800,-0.372357560,1.320130000,,,,,
1749760115.498055,,,,,,,,,,,,,,,,,,1749760115.498054981,0.000000000,0.000000000,0.000000000,0.300000000
1749760115.507405,-0.049106500,0.022074900,0.088793000,-0.003640900,-0.024505300,-0.020172300,0.005346740,-0.001406280,1749760115.507405043,-0.049730095,0.020631704,-0.117199000,-0.106381014,-0.368800000,-0.029201600,-0.372064679,1.321140000,,,,,
1749760115.517411,-0.050689200,0.022674500,0.089543400,-0.003949440,-0.024352900,-0.017734300,0.007064450,-0.001487510,1749760115.517410994,-0.051323206,0.021200390,-0.117920000,-0.107223343,-0.368492000,-0.028898600,-0.371745390,1.322130000,,,,,
1749760115.518076,,,,,,,,,,,,,,,,,,1749760115.518075943,0.000000000,0.000000000,0.000000000,0.300000000
1749760115.527398,-0.052171300,0.023138200,0.090253300,-0.002876630,-0.024231200,-0.015676300,0.008654390,-0.001371140,1749760115.527398109,-0.052811560,0.021637006,-0.118642000,-0.108065605,-0.368198000,-0.028596900,-0.371439788,1.323130000,,,,,
1749760115.537445,-0.053672400,0.023539900,0.091077400,-0.002116790,-0.024250800,-0.014732400,0.009418860,-0.001289520,1749760115.537445068,-0.054319184,0.022006354,-0.119382000,-0.108886936,-0.367908000,-0.028399300,-0.371149557,1.324150000,,,,,
1749760115.538079,,,,,,,,,,,,,,,,,,1749760115.538079023,0.000000000,0.000000000,0.000000000,0.300000000
1749760115.547528,-0.055182100,0.023855800,0.091828100,-0.001831390,-0.023935200,-0.011545600,0.008920500,-0.001269230,1749760115.547528028,-0.055836760,0.022280475,-0.120138000,-0.109658696,-0.367627000,-0.028377500,-0.370887747,1.325170000,,,,,
1749760115.557405,-0.056826000,0.024257500,0.092518700,-0.000394479,-0.023437700,-0.007326950,0.009282400,-0.001078780,1749760115.557404995,-0.057488186,0.022643522,-0.120929000,-0.110510356,-0.367330000,-0.028235700,-0.370597643,1.326190000,,,,,
1749760115.558100,,,,,,,,,,,,,,,,,,1749760115.558099985,0.000000000,0.000000000,0.000000000,0.300000000
1749760115.567407,-0.058481800,0.024597700,0.093125200,0.002759460,-0.023022700,-0.003965680,0.010409400,-0.000624515,1749760115.567406893,-0.059147045,0.022952012,-0.121738000,-0.111422263,-0.367038000,-0.027979200,-0.370300032,1.327200000,,,,,
1749760115.577471,-0.060112000,0.024797400,0.093690600,0.004809450,-0.022696200,-0.001445410,0.009289570,-0.000299094,1749760115.577471018,-0.060783547,0.023102466,-0.122559000,-0.112228950,-0.366763000,-0.028037800,-0.370054684,1.328220000,,,,,
1749760115.578068,,,,,,,,,,,,,,,,,,1749760115.578068018,0.000000000,0.000000000,0.000000000,0.300000000
1749760115.587494,-0.061984900,0.024843600,0.094310600,0.003936530,-0.022383800,0.000804321,0.006690010,-0.000377820,1749760115.587493896,-0.062663582,0.023078297,-0.123433000,-0.113004424,-0.366508000,-0.028322600,-0.369856485,1.329250000,,,,,
1749760115.597142,-0.063896400,0.024903700,0.094779600,0.002527430,-0.021134800,0.009345830,0.006734740,-0.000543170,1749760115.597141981,-0.064574323,0.023088982,-0.124330000,-0.113935473,-0.366251000,-0.028249200,-0.369616628,1.330260000,,,,,
1749760115.598058,,,,,,,,,,,,,,,,,,1749760115.598057985,0.000000000,0.000000000,0.000000000,0.300000000
1749760115.607296,-0.065541800,0.024934200,0.095389400,0.001968400,-0.019940700,0.016922200,0.005367050,-0.000599113,1749760115.607295990,-0.066222956,0.023064300,-0.125208000,-0.114771795,-0.365997000,-0.028380500,-0.369402602,1.331290000,,,,,
1749760115.617441,-0.066895900,0.025000400,0.095890600,0.002217110,-0.018824400,0.023441100,0.003264660,-0.000543296,1749760115.617440939,-0.067584202,0.023075031,-0.126060000,-0.115537813,-0.365739000,-0.028632300,-0.369197987,1.332320000,,,,,
1749760115.618069,,,,,,,,,,,,,,,,,,1749760115.618068933,0.000000000,0.000000000,0.000000000,0.300000000
1749760115.627553,-0.068445100,0.025158100,0.096237500,0.000678452,-0.017673300,0.029750400,0.002885320,-0.000744665,1749760115.627552986,-0.069137801,0.023186767,-0.126954000,-0.116430998,-0.365466000,-0.028654700,-0.368953301,1.333330000,,,,,
1749760115.637266,-0.070125300,0.025427600,0.096781000,0.002874860,-0.016426100,0.036287300,0.004492480,-0.000418781,1749760115.637265921,-0.070818890,0.023426594,-0.127883000,-0.117464657,-0.365175000,-0.028392400,-0.368658238,1.334370000,,,,,
1749760115.638060,,,,,,,,,,,,,,,,,,1749760115.638060093,0.000000000,0.000000000,0.000000000,0.300000000
1749760115.647288,-0.071703400,0.025616300,0.097223500,0.005409660,-0.015140600,0.042638400,0.004187850,-0.000021772,1749760115.647288084,-0.072401695,0.023570468,-0.128813000,-0.118402545,-0.364893000,-0.028391700,-0.368402671,1.335400000,,,,,
1749760115.657444,-0.073041800,0.025854300,0.097641700,0.006471140,-0.013746300,0.049300400,0.003104520,0.000186539,1749760115.657444000,-0.073749057,0.023761860,-0.129725000,-0.119279918,-0.364602000,-0.028507200,-0.368151457,1.336440000,,,,,
1749760115.658100,,,,,,,,,,,,,,,,,,1749760115.658099890,0.000000000,0.000000000,0.000000000,0.300000000
1749760115.667485,-0.074176100,0.026058400,0.098178100,0.005062960,-0.012439700,0.054900500,0.001358970,0.000046667,1749760115.667484999,-0.074894039,0.023916875,-0.130620000,-0.120100868,-0.364314000,-0.028729800,-0.367915828,1.337490000,,,,,
1749760115.677513,-0.075082700,0.026239700,0.098936500,0.007115700,-0.010908200,0.061662900,-0.000542222,0.000395522,1749760115.677512884,-0.075811792,0.024052150,-0.131494000,-0.120886202,-0.364027000,-0.028992400,-0.367685810,1.338580000,,,,,
1749760115.678070,,,,,,,,,,,,,,,,,,1749760115.678070068,0.000000000,0.000000000,0.000000000,0.300000000
1749760115.687490,-0.075960300,0.026453800,0.099695200,0.010057600,-0.009316250,0.068376500,-0.001329980,0.000894082,1749760115.687489986,-0.076698135,0.024231524,-0.132372000,-0.121728272,-0.363734000,-0.029112300,-0.367432983,1.339680000,,,,,
1749760115.697429,-0.076773100,0.026714200,0.100406000,0.010979900,-0.007930030,0.073211600,-0.001610970,0.001128650,1749760115.697428942,-0.077519494,0.024463961,-0.133250000,-0.122594856,-0.363431000,-0.029166400,-0.367162301,1.340780000,,,,,
1749760115.698066,,,,,,,,,,,,,,,,,,1749760115.698065996,0.000000000,0.000000000,0.000000000,0.300000000
1749760115.707431,-0.077652100,0.026944200,0.101042000,0.009560490,-0.006489510,0.078087600,-0.002268230,0.001032240,1749760115.707431078,-0.078407580,0.024659479,-0.134145000,-0.123457279,-0.363131000,-0.029278000,-0.366902309,1.341880000,,,,,
1749760115.717466,-0.078578300,0.027270400,0.101529000,0.009641180,-0.004650610,0.085370200,0.000487313,0.001139570,1749760115.717466116,-0.079333502,0.024988384,-0.135056000,-0.124515592,-0.362814000,-0.028900400,-0.366565123,1.342960000,,,,,
1749760115.718072,,,,,,,,,,,,,,,,,,1749760115.718071938,0.000000000,0.000000000,0.000000000,0.300000000
1749760115.727293,-0.079210100,0.027683500,0.102278000,0.010031600,-0.002969490,0.091065400,0.002385810,0.001292690,1749760115.727293015,-0.079969848,0.025405503,-0.135934000,-0.125505652,-0.362481000,-0.028619700,-0.366222418,1.344080000,,,,,
1749760115.737413,-0.079626900,0.027967900,0.103178000,0.009655680,-0.001577540,0.094378300,0.001814800,0.001338400,1749760115.737412930,-0.080396133,0.025673108,-0.136786000,-0.126344776,-0.362163000,-0.028678800,-0.365936396,1.345240000,,,,,
1749760115.738069,,,,,,,,,,,,,,,,,,1749760115.738069057,0.000000000,0.000000000,0.000000000,0.300000000
1749760115.747441,-0.079919700,0.028163900,0.104157000,0.008745760,-0.000532670,0.095074100,-0.001256040,0.001302760,1749760115.747441053,-0.080705493,0.025826092,-0.137625000,-0.127035752,-0.361855000,-0.029106800,-0.365706986,1.346410000,,,,,
1749760115.757455,-0.079984600,0.028296500,0.105107000,0.009948710,0.000541469,0.095923500,-0.002375930,0.001564990,1749760115.757455111,-0.080778771,0.025942595,-0.138434000,-0.127789144,-0.361554000,-0.029282000,-0.365452052,1.347590000,,,,,
1749760115.758068,,,,,,,,,,,,,,,,,,1749760115.758068085,0.000000000,0.000000000,0.000000000,0.300000000
1749760115.767407,-0.080230000,0.028406900,0.106077000,0.011033600,0.001779690,0.097843800,-0.002753560,0.001822090,1749760115.767406940,-0.081029345,0.026039394,-0.139269000,-0.128603837,-0.361255000,-0.029360600,-0.365187736,1.348780000,,,,,
1749760115.777163,-0.080474300,0.028584600,0.107089000,0.010633700,0.002993380,0.099463000,-0.002585100,0.001874330,1749760115.777163029,-0.081278838,0.026209594,-0.140107000,-0.129449445,-0.360945000,-0.029363700,-0.364902872,1.349990000,,,,,
1749760115.778055,,,,,,,,,,,,,,,,,,1749760115.778054953,0.000000000,0.000000000,0.000000000,0.300000000
1749760115.787246,-0.080504600,0.028635400,0.107963000,0.009006670,0.004174850,0.100749000,-0.002694480,0.001744290,1749760115.787245989,-0.081311711,0.026256092,-0.140916000,-0.130251493,-0.360652000,-0.029405400,-0.364639182,1.351190000,,,,,
1749760115.797414,-0.080443600,0.028652800,0.108782000,0.005924540,0.005177690,0.100717000,-0.002694920,0.001386570,1749760115.797414064,-0.081251961,0.026273076,-0.141712000,-0.131045771,-0.360363000,-0.029432500,-0.364377261,1.352390000,,,,,
1749760115.798064,,,,,,,,,,,,,,,,,,1749760115.798063993,0.000000000,0.000000000,0.000000000,0.300000000
1749760115.807379,-0.080522800,0.028662600,0.109937000,0.007976430,0.005853480,0.098436100,-0.003363440,0.001743920,1749760115.807379007,-0.081334674,0.026270456,-0.142528000,-0.131824742,-0.360075000,-0.029556500,-0.364129749,1.353640000,,,,,
1749760115.817284,-0.080387100,0.028721500,0.110989000,0.009015140,0.006406790,0.095469100,-0.004123500,0.001974590,1749760115.817284107,-0.081204567,0.026321639,-0.143314000,-0.132566683,-0.359780000,-0.029700600,-0.363877212,1.354890000,,,,,
1749760115.818055,,,,,,,,,,,,,,,,,,1749760115.818054914,0.000000000,0.000000000,0.000000000,0.300000000
1749760115.827285,-0.080044100,0.028782500,0.111969000,0.008998690,0.006749200,0.091254700,-0.003586390,0.002062350,1749760115.827285051,-0.080862559,0.026395774,-0.144068000,-0.133342521,-0.359484000,-0.029663800,-0.363598827,1.356150000,,,,,
1749760115.837478,-0.079829700,0.028807400,0.113160000,0.008557270,0.007110810,0.087462500,-0.002465250,0.002088210,1749760115.837477922,-0.080645635,0.026437264,-0.144837000,-0.134165985,-0.359192000,-0.029536800,-0.363312727,1.357440000,,,,,
1749760115.838064,,,,,,,,,,,,,,,,,,1749760115.838063955,0.000000000,0.000000000,0.000000000,0.300000000
1749760115.847596,-0.079653800,0.028851300,0.114352000,0.007389290,0.007558970,0.084527000,-0.001181170,0.002004100,1749760115.847595930,-0.080466819,0.026499367,-0.145610000,-0.135006105,-0.358898000,-0.029374900,-0.363019831,1.358740000,,,,,
1749760115.857377,-0.079267300,0.028787600,0.115522000,0.007361060,0.007599460,0.078987600,-0.003254550,0.002073890,1749760115.857377052,-0.080086888,0.026421981,-0.146350000,-0.135640429,-0.358619000,-0.029687900,-0.362805159,1.360060000,,,,,
1749760115.858090,,,,,,,,,,,,,,,,,,1749760115.858089924,0.000000000,0.000000000,0.000000000,0.300000000
1749760115.867182,-0.078800100,0.028714100,0.116741000,0.007858710,0.007296200,0.071463400,-0.002912100,0.002219800,1749760115.867182016,-0.079617259,0.026363751,-0.147075000,-0.136379568,-0.358342000,-0.029670700,-0.362547456,1.361390000,,,,,
1749760115.877512,-0.078163900,0.028575600,0.117879000,0.008523070,0.006987720,0.064421100,-0.001238280,0.002394900,1749760115.877511978,-0.078971610,0.026261094,-0.147771000,-0.137160748,-0.358075000,-0.029456600,-0.362271864,1.362720000,,,,,
1749760115.878068,,,,,,,,,,,,,,,,,,1749760115.878067970,0.000000000,0.000000000,0.000000000,0.300000000
1749760115.887390,-0.077535900,0.028540600,0.119103000,0.006494210,0.006915100,0.059487100,-0.000484316,0.002185380,1749760115.887389898,-0.078340303,0.026252212,-0.148461000,-0.137893875,-0.357794000,-0.029359500,-0.361997920,1.364080000,,,,,
1749760115.897398,-0.076740600,0.028487800,0.120142000,0.005168570,0.006850500,0.054947800,0.001416050,0.002057730,1749760115.897397995,-0.077536678,0.026243818,-0.149121000,-0.138659887,-0.357516000,-0.029088200,-0.361701809,1.365420000,,,,,
1749760115.898066,,,,,,,,,,,,,,,,,,1749760115.898066044,0.000000000,0.000000000,0.000000000,0.300000000
1749760115.907429,-0.075971000,0.028454300,0.121107000,0.004496500,0.006769320,0.050606900,-0.000413788,0.002011780,1749760115.907428980,-0.076773030,0.026213392,-0.149777000,-0.139232774,-0.357236000,-0.029339900,-0.361476063,1.366760000,,,,,
1749760115.917387,-0.075200200,0.028312400,0.122235000,0.004409000,0.006325700,0.044070100,-0.003149930,0.002044030,1749760115.917387009,-0.076008875,0.026063634,-0.150424000,-0.139742122,-0.356972000,-0.029741600,-0.361287320,1.368140000,,,,,
1749760115.918068,,,,,,,,,,,,,,,,,,1749760115.918067932,0.000000000,0.000000000,0.000000000,0.300000000
1749760115.927467,-0.074186300,0.028182400,0.123397000,0.006235430,0.005762650,0.037161100,-0.001318450,0.002353470,1749760115.927467108,-0.074985464,0.025981435,-0.151029000,-0.140439401,-0.356708000,-0.029507000,-0.361008491,1.369530000,,,,,
1749760115.937466,-0.073358100,0.028179600,0.124395000,0.008011720,0.005489140,0.032720600,0.001297750,0.002673880,1749760115.937465906,-0.074147997,0.026030277,-0.151651000,-0.141201769,-0.356427000,-0.029140100,-0.360694181,1.370910000,,,,,
1749760115.938067,,,,,,,,,,,,,,,,,,1749760115.938066959,0.000000000,0.000000000,0.000000000,0.300000000
1749760115.947491,-0.072643700,0.028075300,0.125294000,0.008429550,0.005817860,0.032731000,0.001228080,0.002814700,1749760115.947490931,-0.073430786,0.025947049,-0.152280000,-0.141839327,-0.356160000,-0.029137200,-0.360445210,1.372280000,,,,,
1749760115.957482,-0.071979800,0.027891800,0.126198000,0.009351860,0.005772400,0.030165200,-0.001104770,0.003032990,1749760115.957482100,-0.072770241,0.025759195,-0.152910000,-0.142358771,-0.355906000,-0.029463900,-0.360256199,1.373670000,,,,,
1749760115.958085,,,,,,,,,,,,,,,,,,1749760115.958085060,0.000000000,0.000000000,0.000000000,0.300000000
1749760115.967600,-0.070903100,0.027827900,0.127338000,0.012124100,0.005452750,0.025888600,-0.000425275,0.003529260,1749760115.967600107,-0.071689869,0.025733330,-0.153474000,-0.142962052,-0.355636000,-0.029376200,-0.359990396,1.375090000,,,,,
1749760115.977503,-0.069721500,0.027712800,0.128286000,0.013493100,0.005823170,0.026656300,-0.000709876,0.003849390,1749760115.977503061,-0.070506568,0.025649770,-0.154011000,-0.143490082,-0.355375000,-0.029421800,-0.359751824,1.376510000,,,,,
1749760115.978071,,,,,,,,,,,,,,,,,,1749760115.978070974,0.000000000,0.000000000,0.000000000,0.300000000
1749760115.987437,-0.068653900,0.027468000,0.129119000,0.011650700,0.006154810,0.027104300,-0.001853940,0.003716670,1749760115.987437010,-0.069436636,0.025424449,-0.154553000,-0.143976658,-0.355133000,-0.029595100,-0.359550830,1.377910000,,,,,
1749760115.997548,-0.067767900,0.027222700,0.129902000,0.011651900,0.006710850,0.029065900,-0.001223930,0.003833350,1749760115.997548103,-0.068541925,0.025210478,-0.155111000,-0.144567717,-0.354894000,-0.029522100,-0.359317894,1.379310000,,,,,
1749760115.998069,,,,,,,,,,,,,,,,,,1749760115.998069048,0.000000000,0.000000000,0.000000000,0.300000000
1749760116.007477,-0.066834400,0.026927200,0.130716000,0.013541900,0.007170350,0.030228100,-0.002546200,0.004224440,1749760116.007477045,-0.067605206,0.024928843,-0.155653000,-0.145042836,-0.354665000,-0.029726500,-0.359134647,1.380730000,,,,,
1749760116.017166,-0.065714700,0.026498700,0.131577000,0.011947700,0.007942360,0.033461300,-0.004441570,0.004128250,1749760116.017165899,-0.066480642,0.024513816,-0.156159000,-0.145446788,-0.354458000,-0.030027300,-0.358986544,1.382160000,,,,,
1749760116.018055,,,,,,,,,,,,,,,,,,1749760116.018054962,0.000000000,0.000000000,0.000000000,0.300000000
1749760116.027474,-0.064308600,0.026157100,0.132412000,0.009846080,0.008512530,0.035082700,-0.004006190,0.003942410,1749760116.027473927,-0.065064464,0.024215809,-0.156612000,-0.145912814,-0.354242000,-0.030008500,-0.358781499,1.383600000,,,,,
1749760116.037457,-0.062774200,0.025901700,0.133186000,0.010957700,0.009034410,0.036260100,-0.003585720,0.004202370,1749760116.037456989,-0.063522586,0.024007902,-0.157032000,-0.146346912,-0.354018000,-0.029987400,-0.358567113,1.385040000,,,,,
1749760116.038065,,,,,,,,,,,,,,,,,,1749760116.038064957,0.000000000,0.000000000,0.000000000,0.300000000
1749760116.047504,-0.061494600,0.025668300,0.133892000,0.010495000,0.010044600,0.040717600,-0.004521180,0.004244720,1749760116.047503948,-0.062240653,0.023802280,-0.157474000,-0.146733892,-0.353793000,-0.030159200,-0.358380681,1.386470000,,,,,
1749760116.057488,-0.060016800,0.025250900,0.134777000,0.009379180,0.011022900,0.044648700,-0.004562270,0.004187560,1749760116.057487965,-0.060752138,0.023426522,-0.157874000,-0.147121280,-0.353597000,-0.030210400,-0.358204365,1.387940000,,,,,
1749760116.058055,,,,,,,,,,,,,,,,,,1749760116.058054924,0.000000000,0.000000000,0.000000000,0.300000000
1749760116.067307,-0.058561100,0.024936100,0.135717000,0.009582950,0.011665700,0.046000000,-0.003511800,0.004310960,1749760116.067306995,-0.059285116,0.023162180,-0.158263000,-0.147554661,-0.353390000,-0.030103400,-0.357993423,1.389420000,,,,,
1749760116.077569,-0.057144800,0.024606900,0.136678000,0.009636780,0.012520200,0.048715500,-0.004219820,0.004414610,1749760116.077569008,-0.057862705,0.022867773,-0.158642000,-0.147890191,-0.353188000,-0.030241400,-0.357823335,1.390920000,,,,,
1749760116.078088,,,,,,,,,,,,,,,,,,1749760116.078088045,0.000000000,0.000000000,0.000000000,0.300000000
1749760116.087527,-0.055675600,0.024187100,0.137636000,0.008417590,0.013108700,0.049412600,-0.003781890,0.004333850,1749760116.087527037,-0.056381000,0.022493802,-0.159000000,-0.148261311,-0.353003000,-0.030219900,-0.357646056,1.392430000,,,,,
1749760116.097610,-0.053984600,0.023744900,0.138696000,0.007465950,0.013309000,0.047390500,-0.001818630,0.004279770,1749760116.097609997,-0.054671941,0.022116424,-0.159311000,-0.148665953,-0.352826000,-0.029972500,-0.357441765,1.393960000,,,,,
1749760116.098064,,,,,,,,,,,,,,,,,,1749760116.098063946,0.000000000,0.000000000,0.000000000,0.300000000
1749760116.107399,-0.052310000,0.023375600,0.139650000,0.006954920,0.013775100,0.047336800,-0.000937605,0.004280190,1749760116.107398987,-0.052984632,0.021803292,-0.159608000,-0.149007560,-0.352642000,-0.029862700,-0.357250389,1.395480000,,,,,
1749760116.117125,-0.050856200,0.022969800,0.140798000,0.006225470,0.014357100,0.048084700,-0.000804588,0.004243760,1749760116.117125034,-0.051519151,0.021441591,-0.159920000,-0.149328182,-0.352467000,-0.029852800,-0.357083305,1.397050000,,,,,
1749760116.118054,,,,,,,,,,,,,,,,,,1749760116.118053913,0.000000000,0.000000000,0.000000000,0.300000000
1749760116.127477,-0.049054600,0.022572000,0.141927000,0.004243560,0.014631500,0.046663700,0.000547376,0.004018080,1749760116.127476931,-0.049702505,0.021107107,-0.160167000,-0.149647446,-0.352295000,-0.029664400,-0.356890567,1.398620000,,,,,
1749760116.137420,-0.047230800,0.022123600,0.142924000,0.002937140,0.014490400,0.042480200,0.002523110,0.003870710,1749760116.137419939,-0.047860147,0.020726999,-0.160392000,-0.149981432,-0.352135000,-0.029371900,-0.356693456,1.400180000,,,,,
1749760116.138065,,,,,,,,,,,,,,,,,,1749760116.138065100,0.000000000,0.000000000,0.000000000,0.300000000
1749760116.147422,-0.045659700,0.021699400,0.144165000,0.000649047,0.014487500,0.039536600,0.003473650,0.003567670,1749760116.147422075,-0.046273943,0.020356678,-0.160636000,-0.150288247,-0.351975000,-0.029208600,-0.356516154,1.401790000,,,,,
1749760116.157217,-0.043973500,0.021181500,0.145462000,-0.000549107,0.014403600,0.036237800,0.004027170,0.003400090,1749760116.157217026,-0.044571046,0.019893378,-0.160848000,-0.150545358,-0.351833000,-0.029093400,-0.356363065,1.403420000,,,,,
1749760116.158057,,,,,,,,,,,,,,,,,,1749760116.158056974,0.000000000,0.000000000,0.000000000,0.300000000
1749760116.167247,-0.042360100,0.020569400,0.146667000,0.002148740,0.013983600,0.030852100,0.003111860,0.003786540,1749760116.167247057,-0.042942315,0.019324489,-0.161053000,-0.150720824,-0.351710000,-0.029186100,-0.356260054,1.405050000,,,,,
1749760116.177520,-0.040658300,0.020058300,0.147845000,0.003013040,0.013333800,0.024256100,0.001882470,0.003933600,1749760116.177520037,-0.041229107,0.018857188,-0.161230000,-0.150849040,-0.351579000,-0.029333600,-0.356156529,1.406690000,,,,,
1749760116.178097,,,,,,,,,,,,,,,,,,1749760116.178097010,0.000000000,0.000000000,0.000000000,0.300000000
1749760116.187411,-0.039141500,0.019697300,0.149099000,0.003275710,0.013121600,0.021125700,0.002349320,0.004001890,1749760116.187411070,-0.039700765,0.018544268,-0.161416000,-0.151070131,-0.351431000,-0.029247000,-0.356000967,1.408350000,,,,,
1749760116.197393,-0.037453400,0.019170200,0.150172000,0.004335580,0.012681300,0.016640800,0.001892980,0.004188630,1749760116.197392941,-0.037998747,0.018065132,-0.161562000,-0.151204375,-0.351310000,-0.029289800,-0.355890760,1.410000000,,,,,
1749760116.198072,,,,,,,,,,,,,,,,,,1749760116.198071957,0.000000000,0.000000000,0.000000000,0.300000000
1749760116.207176,-0.035665400,0.018720100,0.151345000,0.005331510,0.012053800,0.011176400,0.000485978,0.004376670,1749760116.207175970,-0.036201607,0.017660876,-0.161677000,-0.151257054,-0.351184000,-0.029475200,-0.355796231,1.411670000,,,,,
1749760116.217580,-0.033934800,0.018403400,0.152484000,0.004905470,0.011562800,0.007027700,0.001906320,0.004368090,1749760116.217580080,-0.034458751,0.017402594,-0.161782000,-0.151441275,-0.351043000,-0.029264000,-0.355626410,1.413350000,,,,,
1749760116.218071,,,,,,,,,,,,,,,,,,1749760116.218070984,0.000000000,0.000000000,0.000000000,0.300000000
1749760116.227484,-0.032086400,0.018023800,0.153506000,0.005421450,0.011277300,0.004578490,0.001493400,0.004492110,1749760116.227483988,-0.032600735,0.017075904,-0.161853000,-0.151501444,-0.350914000,-0.029305000,-0.355505755,1.415020000,,,,,
1749760116.237500,-0.030254200,0.017653500,0.154628000,0.008065970,0.010773400,0.000795113,-0.000299843,0.004930530,1749760116.237499952,-0.030762585,0.016751896,-0.161908000,-0.151472861,-0.350788000,-0.029550500,-0.355418618,1.416720000,,,,,
1749760116.238071,,,,,,,,,,,,,,,,,,1749760116.238070965,0.000000000,0.000000000,0.000000000,0.300000000
1749760116.247845,-0.028420700,0.017371600,0.155721000,0.007744100,0.010191000,-0.003268530,-0.000318470,0.004964420,1749760116.247844934,-0.028921653,0.016524124,-0.161944000,-0.151510803,-0.350652000,-0.029556300,-0.355284619,1.418420000,,,,,
1749760116.257317,-0.026662000,0.017001400,0.156677000,0.008552270,0.010072400,-0.003859850,-0.000662552,0.005159280,1749760116.257317066,-0.027153641,0.016204617,-0.161972000,-0.151523478,-0.350532000,-0.029609400,-0.355173546,1.420120000,,,,,
1749760116.258076,,,,,,,,,,,,,,,,,,1749760116.258075953,0.000000000,0.000000000,0.000000000,0.300000000
1749760116.267439,-0.024668700,0.016664000,0.157609000,0.009667420,0.010046200,-0.003774780,-0.001032480,0.005406810,1749760116.267438889,-0.025152188,0.015924858,-0.161949000,-0.151482625,-0.350411000,-0.029669800,-0.355061068,1.421820000,,,,,
1749760116.277464,-0.022740000,0.016350300,0.158589000,0.009197820,0.009896130,-0.004547570,-0.000300324,0.005435260,1749760116.277463913,-0.023213526,0.015670740,-0.161916000,-0.151487302,-0.350290000,-0.029573800,-0.354924601,1.423540000,,,,,
1749760116.278071,,,,,,,,,,,,,,,,,,1749760116.278070927,0.000000000,0.000000000,0.000000000,0.300000000
1749760116.287144,-0.020967800,0.016019400,0.159405000,0.009034000,0.010134500,-0.002593800,0.000525051,0.005503440,1749760116.287143946,-0.021430516,0.015394895,-0.161886000,-0.151502227,-0.350175000,-0.029456800,-0.354791041,1.425250000,,,,,
1749760116.297223,-0.019097200,0.015693200,0.160281000,0.010250100,0.010380600,-0.000721362,0.000355498,0.005770460,1749760116.297223091,-0.019551413,0.015123552,-0.161824000,-0.151436702,-0.350062000,-0.029476200,-0.354679202,1.426970000,,,,,
1749760116.298077,,,,,,,,,,,,,,,,,,1749760116.298077106,0.000000000,0.000000000,0.000000000,0.300000000
1749760116.307443,-0.017139900,0.015237800,0.161095000,0.010382900,0.010665700,0.001290710,0.000062596,0.005892250,1749760116.307442904,-0.017582116,0.014725349,-0.161730000,-0.151331595,-0.349971000,-0.029515200,-0.354591373,1.428690000,,,,,
1749760116.317405,-0.015354100,0.014812900,0.161836000,0.009571890,0.011188400,0.004799430,-0.001051160,0.005878250,1749760116.317404985,-0.015786868,0.014350790,-0.161642000,-0.151189172,-0.349880000,-0.029676400,-0.354522192,1.430410000,,,,,
1749760116.318068,,,,,,,,,,,,,,,,,,1749760116.318068027,0.000000000,0.000000000,0.000000000,0.300000000
1749760116.327160,-0.013757800,0.014392000,0.162561000,0.010175100,0.011869900,0.009159980,-0.002051560,0.006061600,1749760116.327159882,-0.014180961,0.013975230,-0.161564000,-0.151058530,-0.349793000,-0.029832300,-0.354456470,1.432130000,,,,,
1749760116.337212,-0.011898300,0.013915700,0.163302000,0.010843600,0.012368300,0.011960500,-0.002781540,0.006260480,1749760116.337212086,-0.012309796,0.013553050,-0.161431000,-0.150882966,-0.349719000,-0.029958800,-0.354397626,1.433860000,,,,,
1749760116.338068,,,,,,,,,,,,,,,,,,1749760116.338068008,0.000000000,0.000000000,0.000000000,0.300000000
1749760116.347459,-0.010087900,0.013440200,0.163958000,0.009649150,0.012927800,0.014988000,-0.002936620,0.006195380,1749760116.347459078,-0.010486627,0.013131464,-0.161287000,-0.150723270,-0.349649000,-0.030009200,-0.354330941,1.435590000,,,,,
1749760116.357484,-0.008287780,0.012996200,0.164608000,0.010040300,0.013826700,0.020143700,-0.002960770,0.006348700,1749760116.357484102,-0.008674413,0.012741392,-0.161127000,-0.150553822,-0.349579000,-0.030042000,-0.354261110,1.437330000,,,,,
1749760116.358072,,,,,,,,,,,,,,,,,,1749760116.358072042,0.000000000,0.000000000,0.000000000,0.300000000
1749760116.367284,-0.006427490,0.012540600,0.165424000,0.010432100,0.014221100,0.021472200,-0.003074330,0.006506020,1749760116.367284060,-0.006801848,0.012341562,-0.160939000,-0.150351466,-0.349515000,-0.030088200,-0.354198438,1.439090000,,,,,
1749760116.377412,-0.004609110,0.012115100,0.166145000,0.007469350,0.014753400,0.023657600,-0.003641520,0.006179910,1749760116.377412081,-0.004972844,0.011970395,-0.160739000,-0.150113429,-0.349451000,-0.030201300,-0.354145431,1.440850000,,,,,
1749760116.378072,,,,,,,,,,,,,,,,,,1749760116.378072023,0.000000000,0.000000000,0.000000000,0.300000000
1749760116.387409,-0.002746050,0.011559800,0.166876000,0.006076680,0.015297400,0.025773700,-0.004320230,0.006052280,1749760116.387408972,-0.003095414,0.011471189,-0.160515000,-0.149842934,-0.349411000,-0.030336300,-0.354118917,1.442620000,,,,,
1749760116.397420,-0.000917000,0.011041700,0.167776000,0.004272860,0.015641900,0.026371000,-0.004347720,0.005850980,1749760116.397419930,-0.001252011,0.011008746,-0.160277000,-0.149589545,-0.349371000,-0.030383500,-0.354078777,1.444420000,,,,,
1749760116.398098,,,,,,,,,,,,,,,,,,1749760116.398097992,0.000000000,0.000000000,0.000000000,0.300000000
1749760116.407441,0.000858445,0.010549700,0.168629000,0.001044690,0.016178200,0.028247200,-0.004640630,0.005424720,1749760116.407440901,0.000536652,0.010570956,-0.160028000,-0.149311397,-0.349332000,-0.030469500,-0.354045073,1.446220000,,,,,
1749760116.417575,0.002622090,0.009867590,0.169305000,-0.001118650,0.016324700,0.027311200,-0.007033580,0.005120870,1749760116.417574883,0.002316340,0.009943805,-0.159763000,-0.148907198,-0.349325000,-0.030863600,-0.354088715,1.448000000,,,,,
1749760116.418068,,,,,,,,,,,,,,,,,,1749760116.418067932,0.000000000,0.000000000,0.000000000,0.300000000
1749760116.427443,0.004423820,0.009338420,0.170150000,-0.004851270,0.016225300,0.024747600,-0.007686310,0.004567400,1749760116.427443027,0.004131977,0.009471169,-0.159475000,-0.148561522,-0.349303000,-0.031028800,-0.354082385,1.449820000,,,,,
1749760116.437396,0.006151050,0.008793200,0.171084000,-0.008795120,0.016059900,0.021905800,-0.007817110,0.003945920,1749760116.437396049,0.005874430,0.008980359,-0.159180000,-0.148233179,-0.349289000,-0.031124600,-0.354073442,1.451660000,,,,,
1749760116.438066,,,,,,,,,,,,,,,,,,1749760116.438066006,0.000000000,0.000000000,0.000000000,0.300000000
1749760116.447471,0.008170740,0.008258450,0.171958000,-0.013627000,0.015538800,0.016810700,-0.007321630,0.003155980,1749760116.447470903,0.007909730,0.008508769,-0.158825000,-0.147876467,-0.349279000,-0.031130800,-0.354053317,1.453490000,,,,,
1749760116.457218,0.010123100,0.007763430,0.172646000,-0.017573900,0.014941600,0.011543400,-0.007874250,0.002446290,1749760116.457217932,0.009875313,0.008076274,-0.158460000,-0.147457641,-0.349268000,-0.031284300,-0.354053600,1.455310000,,,,,
1749760116.458060,,,,,,,,,,,,,,,,,,1749760116.458060026,0.000000000,0.000000000,0.000000000,0.300000000
1749760116.467509,0.011729300,0.007344610,0.173512000,-0.021069100,0.014340500,0.006610870,-0.008635860,0.001762770,1749760116.467509031,0.011492367,0.007710076,-0.158125000,-0.147056250,-0.349252000,-0.031473700,-0.354054988,1.457170000,,,,,
1749760116.477472,0.013306300,0.006854070,0.174350000,-0.025131600,0.013958400,0.003526350,-0.009632210,0.000961869,1749760116.477472067,0.013082342,0.007272428,-0.157779000,-0.146628693,-0.349249000,-0.031704800,-0.354074997,1.459020000,,,,,
1749760116.478069,,,,,,,,,,,,,,,,,,1749760116.478069067,0.000000000,0.000000000,0.000000000,0.300000000
1749760116.487410,0.015056800,0.006496760,0.175034000,-0.027599800,0.013096300,-0.002650490,-0.008712450,0.000351969,1749760116.487410069,0.014843549,0.006970234,-0.157391000,-0.146254601,-0.349233000,-0.031667500,-0.354041250,1.460860000,,,,,
1749760116.497428,0.016814900,0.006148760,0.175784000,-0.030162300,0.011775500,-0.011559300,-0.008641930,-0.000296316,1749760116.497427940,0.016611273,0.006679351,-0.156985000,-0.145822055,-0.349218000,-0.031744400,-0.354024618,1.462720000,,,,,
1749760116.498071,,,,,,,,,,,,,,,,,,1749760116.498070955,0.000000000,0.000000000,0.000000000,0.300000000
1749760116.507249,0.018565900,0.005865590,0.176662000,-0.031413200,0.010649000,-0.018518000,-0.007891290,-0.000779678,1749760116.507249117,0.018370524,0.006451484,-0.156563000,-0.145408903,-0.349198000,-0.031721800,-0.353987948,1.464610000,,,,,
1749760116.517512,0.020255900,0.005568520,0.177256000,-0.031500700,0.009536320,-0.024901800,-0.007804390,-0.001106520,1749760116.517512083,0.020068684,0.006209495,-0.156131000,-0.144954160,-0.349182000,-0.031788100,-0.353967866,1.466460000,,,,,
1749760116.518069,,,,,,,,,,,,,,,,,,1749760116.518069029,0.000000000,0.000000000,0.000000000,0.300000000
1749760116.527478,0.021779000,0.005223090,0.177833000,-0.031644600,0.008168710,-0.032601300,-0.009890640,-0.001442430,1749760116.527477980,0.021599738,0.005920880,-0.155708000,-0.144396632,-0.349177000,-0.032169200,-0.354004479,1.468320000,,,,,
1749760116.537383,0.023303600,0.004986410,0.178426000,-0.032875300,0.006676220,-0.040630400,-0.009585150,-0.001937680,1749760116.537383080,0.023130849,0.005734620,-0.155268000,-0.143938147,-0.349159000,-0.032223700,-0.353980182,1.470180000,,,,,
1749760116.538071,,,,,,,,,,,,,,,,,,1749760116.538070917,0.000000000,0.000000000,0.000000000,0.300000000
1749760116.547468,0.024813000,0.004834740,0.178876000,-0.032872500,0.005570220,-0.045446500,-0.008158900,-0.002266020,1749760116.547467947,0.024644979,0.005628915,-0.154816000,-0.143526676,-0.349131000,-0.032112400,-0.353921661,1.472030000,,,,,
1749760116.557388,0.026288600,0.004636790,0.179300000,-0.032760900,0.004332040,-0.050840900,-0.007375430,-0.002578530,1749760116.557388067,0.026126351,0.005477601,-0.154354000,-0.143076954,-0.349112000,-0.032080100,-0.353883217,1.473880000,,,,,
1749760116.558068,,,,,,,,,,,,,,,,,,1749760116.558068037,0.000000000,0.000000000,0.000000000,0.300000000
1749760116.567442,0.027766900,0.004418870,0.179633000,-0.033111200,0.003046490,-0.056190100,-0.008418400,-0.002957040,1749760116.567441940,0.027609683,0.005313429,-0.153876000,-0.142519955,-0.349097000,-0.032305400,-0.353885011,1.475720000,,,,,
1749760116.577515,0.029261900,0.004191930,0.179692000,-0.033437400,0.001871670,-0.060409000,-0.008523980,-0.003335540,1749760116.577514887,0.029110722,0.005137792,-0.153381000,-0.141990359,-0.349086000,-0.032404900,-0.353872158,1.477530000,,,,,
1749760116.578068,,,,,,,,,,,,,,,,,,1749760116.578068018,0.000000000,0.000000000,0.000000000,0.300000000
1749760116.587533,0.030574400,0.004122750,0.179784000,-0.031672600,0.000805393,-0.063590200,-0.007706280,-0.003413510,1749760116.587532997,0.030424946,0.005110153,-0.152898000,-0.141520502,-0.349054000,-0.032371400,-0.353819786,1.479340000,,,,,
1749760116.597255,0.031917900,0.004023780,0.179958000,-0.030121900,-0.000099286,-0.065440300,-0.007804870,-0.003504960,1749760116.597254992,0.031770483,0.005057622,-0.152397000,-0.140988303,-0.349027000,-0.032462800,-0.353789472,1.481160000,,,,,
1749760116.598055,,,,,,,,,,,,,,,,,,1749760116.598054886,0.000000000,0.000000000,0.000000000,0.300000000
1749760116.607297,0.033094700,0.004049940,0.179846000,-0.030500800,-0.000863781,-0.066198100,-0.006290950,-0.003861220,1749760116.607296944,0.032946541,0.005117289,-0.151907000,-0.140550182,-0.348983000,-0.032320900,-0.353709651,1.482950000,,,,,
1749760116.617141,0.033892300,0.004191100,0.179611000,-0.029883700,-0.001895010,-0.068739700,-0.004879770,-0.004076580,1749760116.617141008,0.033739913,0.005279352,-0.151460000,-0.140155672,-0.348922000,-0.032178700,-0.353614312,1.484710000,,,,,
1749760116.618057,,,,,,,,,,,,,,,,,,1749760116.618057013,0.000000000,0.000000000,0.000000000,0.300000000
1749760116.627277,0.034759600,0.004298170,0.179413000,-0.028416500,-0.002438580,-0.067749700,-0.004945060,-0.004162260,1749760116.627276897,0.034603004,0.005416288,-0.150995000,-0.139672135,-0.348865000,-0.032237000,-0.353550524,1.486480000,,,,,
1749760116.637281,0.035750900,0.004444440,0.179217000,-0.027741400,-0.002907000,-0.066310500,-0.004594200,-0.004348330,1749760116.637280941,0.035589083,0.005594380,-0.150503000,-0.139183016,-0.348800000,-0.032235500,-0.353469491,1.488240000,,,,,
1749760116.638062,,,,,,,,,,,,,,,,,,1749760116.638062000,0.000000000,0.000000000,0.000000000,0.300000000
1749760116.647681,0.036588000,0.004640680,0.178734000,-0.027606400,-0.003634420,-0.066753200,-0.003054890,-0.004606140,1749760116.647680998,0.036420456,0.005811025,-0.150024000,-0.138769411,-0.348727000,-0.032057800,-0.353356437,1.489970000,,,,,
1749760116.657297,0.037431000,0.004793220,0.178283000,-0.024917000,-0.004214900,-0.066154100,-0.000898660,-0.004491480,1749760116.657296896,0.037259826,0.005979974,-0.149536000,-0.138383706,-0.348659000,-0.031775100,-0.353233724,1.491690000,,,,,
1749760116.658065,,,,,,,,,,,,,,,,,,1749760116.658065081,0.000000000,0.000000000,0.000000000,0.300000000
1749760116.667503,0.038150600,0.004999840,0.177694000,-0.022085300,-0.004752810,-0.065303100,0.000412418,-0.004329260,1749760116.667503119,0.037973625,0.006202459,-0.149057000,-0.137971518,-0.348581000,-0.031593600,-0.353115509,1.493380000,,,,,
1749760116.677578,0.038926700,0.005171650,0.177010000,-0.021116400,-0.005198110,-0.063873300,0.000242700,-0.004409340,1749760116.677577972,0.038743779,0.006399493,-0.148563000,-0.137472897,-0.348506000,-0.031614100,-0.353027760,1.495060000,,,,,
1749760116.678069,,,,,,,,,,,,,,,,,,1749760116.678069115,0.000000000,0.000000000,0.000000000,0.300000000
1749760116.687504,0.039686900,0.005390650,0.176339000,-0.018812300,-0.006114080,-0.065781500,0.000596898,-0.004285770,1749760116.687504053,0.039497034,0.006640288,-0.148063000,-0.136994789,-0.348422000,-0.031560300,-0.352920628,1.496730000,,,,,
1749760116.697288,0.040485600,0.005657750,0.175526000,-0.015898800,-0.007140710,-0.068320100,0.001431750,-0.004050610,1749760116.697288036,0.040287790,0.006927330,-0.147550000,-0.136529860,-0.348330000,-0.031433000,-0.352795109,1.498380000,,,,,
1749760116.698073,,,,,,,,,,,,,,,,,,1749760116.698072910,0.000000000,0.000000000,0.000000000,0.300000000
1749760116.707432,0.040997300,0.005892730,0.174706000,-0.015612700,-0.007393880,-0.065360100,0.001064760,-0.004168040,1749760116.707432032,0.040791573,0.007179866,-0.147071000,-0.136040201,-0.348239000,-0.031472000,-0.352694406,1.500020000,,,,,
1749760116.717641,0.041379800,0.006120450,0.174029000,-0.014181200,-0.008119600,-0.065856500,0.000285092,-0.004116190,1749760116.717641115,0.041165956,0.007423733,-0.146605000,-0.135541151,-0.348147000,-0.031574600,-0.352601696,1.501660000,,,,,
1749760116.718073,,,,,,,,,,,,,,,,,,1749760116.718072891,0.000000000,0.000000000,0.000000000,0.300000000
1749760116.727471,0.041821000,0.006319220,0.173103000,-0.012954400,-0.008962830,-0.067127600,0.000297419,-0.004079780,1749760116.727471113,0.041600696,0.007636141,-0.146127000,-0.135067852,-0.348057000,-0.031570000,-0.352496029,1.503270000,,,,,
1749760116.737093,0.042197100,0.006490510,0.172027000,-0.012565100,-0.009562870,-0.066637300,-0.001027530,-0.004152760,1749760116.737092972,0.041969720,0.007827170,-0.145655000,-0.134532084,-0.347969000,-0.031759500,-0.352418675,1.504850000,,,,,
1749760116.738067,,,,,,,,,,,,,,,,,,1749760116.738066912,0.000000000,0.000000000,0.000000000,0.300000000
1749760116.747260,0.042463000,0.006684350,0.171130000,-0.012250200,-0.010012300,-0.065143900,-0.003204810,-0.004232660,1749760116.747260094,0.042226706,0.008043148,-0.145194000,-0.133959198,-0.347876000,-0.032086100,-0.352354853,1.506440000,,,,,
1749760116.757470,0.042622800,0.006908900,0.170322000,-0.010091900,-0.010632700,-0.064930200,-0.002784830,-0.004041600,1749760116.757469893,0.042379460,0.008271480,-0.144746000,-0.133524851,-0.347776000,-0.032057100,-0.352236660,1.508030000,,,,,
1749760116.758069,,,,,,,,,,,,,,,,,,1749760116.758069038,0.000000000,0.000000000,0.000000000,0.300000000
1749760116.767453,0.042597900,0.007225360,0.169201000,-0.008950470,-0.010615300,-0.060341500,-0.001681670,-0.003976690,1749760116.767452955,0.042345566,0.008581373,-0.144323000,-0.133152372,-0.347661000,-0.031924700,-0.352090535,1.509570000,,,,,
1749760116.777481,0.042395000,0.007635660,0.168000000,-0.006329260,-0.011047100,-0.059160100,-0.002480390,-0.003685380,1749760116.777481079,0.042128478,0.008990586,-0.143927000,-0.132714013,-0.347529000,-0.032057600,-0.351963603,1.511090000,,,,,
1749760116.778055,,,,,,,,,,,,,,,,,,1749760116.778054953,0.000000000,0.000000000,0.000000000,0.300000000
