__time,filtered_pose/dx,filtered_pose/dy,filtered_pose/dz,filtered_pose/p,filtered_pose/pitch,filtered_pose/q,filtered_pose/r,filtered_pose/roll,filtered_pose/timestamp,filtered_pose/vxb,filtered_pose/vyb,filtered_pose/x,filtered_pose/xb,filtered_pose/y,filtered_pose/yaw,filtered_pose/yb,filtered_pose/z,u_control/timestamp,u_control/ux,u_control/uy,u_control/uyaw,u_control/uz
1749759911.429386,,,,,,,,,,,,,,,,,,1749759911.429385900,0.000000000,0.000000000,0.000000000,0.000000000
1749759911.435185,0.020362100,0.000008508,-0.023144000,-0.001077650,0.010793200,0.014282000,0.003489240,-0.005737780,1749759911.435184956,0.020358973,0.000356934,0.120185000,0.128660934,-0.496362000,-0.017112400,-0.494232772,1.230490000,,,,,
1749759911.445530,0.020788700,-0.000038882,-0.023560000,-0.002020370,0.010667300,0.012432600,0.003741030,-0.005885510,1749759911.445529938,0.020786344,0.000315365,0.120450000,0.128890677,-0.496369000,-0.017040900,-0.494244454,1.230190000,,,,,
1749759911.449455,,,,,,,,,,,,,,,,,,1749759911.449455023,0.000000000,0.000000000,0.000000000,0.009491870
1749759911.455373,0.021102200,0.000034023,-0.024065400,-0.003758490,0.010297200,0.009029420,0.005035020,-0.006158230,1749759911.455373049,0.021098645,0.000388846,0.120704000,0.129033067,-0.496359000,-0.016815500,-0.494259224,1.229890000,,,,,
1749759911.465378,0.021341600,0.000144752,-0.024522600,-0.005415810,0.009845770,0.005300560,0.005052080,-0.006436600,1749759911.465378046,0.021336175,0.000502458,0.120949000,0.129251650,-0.496342000,-0.016762700,-0.494244932,1.229580000,,,,,
1749759911.469456,,,,,,,,,,,,,,,,,,1749759911.469455957,0.000000000,0.000000000,0.000000000,0.018967400
1749759911.475434,0.021561600,0.000146157,-0.024987800,-0.006125270,0.009344970,0.001488640,0.005534960,-0.006593830,1749759911.475434065,0.021556182,0.000504948,0.121195000,0.129437943,-0.496341000,-0.016642000,-0.494255435,1.229270000,,,,,
1749759911.485328,0.021936500,0.000101591,-0.025434800,-0.006932000,0.008573790,-0.003921990,0.005000070,-0.006772280,1749759911.485327959,0.021931761,0.000467116,0.121465000,0.129719011,-0.496346000,-0.016664300,-0.494253049,1.228950000,,,,,
1749759911.489456,,,,,,,,,,,,,,,,,,1749759911.489455938,0.000000000,0.000000000,0.000000000,0.028410500
1749759911.495576,0.022152900,0.000094558,-0.026013600,-0.006122430,0.007705800,-0.009626560,0.004075940,-0.006723990,1749759911.495575905,0.022148209,0.000465558,0.121716000,0.130011641,-0.496346000,-0.016748600,-0.494237908,1.228610000,,,,,
1749759911.505337,0.022447100,0.000090443,-0.026628900,-0.004620830,0.007137360,-0.012876600,0.002188500,-0.006567060,1749759911.505337000,0.022442328,0.000471608,0.121980000,0.130390937,-0.496345000,-0.016982000,-0.494202067,1.228260000,,,,,
1749759911.509455,,,,,,,,,,,,,,,,,,1749759911.509454966,0.000000000,0.000000000,0.000000000,0.037804800
1749759911.515407,0.022855100,0.000093605,-0.027257700,-0.002493220,0.006608530,-0.015630300,0.002609340,-0.006304160,1749759911.515407085,0.022850255,0.000479801,0.122264000,0.130633861,-0.496344000,-0.016899000,-0.494207089,1.227910000,,,,,
1749759911.525491,0.023360400,0.000034143,-0.027948000,-0.001330800,0.005979440,-0.018884600,0.002518580,-0.006160210,1749759911.525490999,0.023356493,0.000428586,0.122566000,0.130929577,-0.496352000,-0.016886100,-0.494211673,1.227530000,,,,,
1749759911.529447,,,,,,,,,,,,,,,,,,1749759911.529447079,0.000000000,0.000000000,0.000000000,0.047134300
1749759911.535194,0.023859100,-0.000049614,-0.028626200,0.000251735,0.005429320,-0.021371300,0.000025454,-0.005943610,1749759911.535193920,0.023856416,0.000361301,0.122872000,0.131402281,-0.496364000,-0.017223100,-0.494174250,1.227150000,,,,,
1749759911.545429,0.024279400,-0.000091093,-0.029298900,0.001563840,0.004944820,-0.023235100,-0.002174250,-0.005750470,1749759911.545428991,0.024277262,0.000334821,0.123171000,0.131859172,-0.496370000,-0.017542500,-0.494133009,1.226770000,,,,,
1749759911.549452,,,,,,,,,,,,,,,,,,1749759911.549452066,0.000000000,0.000000000,0.000000000,0.056383400
1749759911.555355,0.024659400,-0.000156753,-0.029929700,0.002917390,0.004562250,-0.024269100,-0.003789190,-0.005538180,1749759911.555355072,0.024658284,0.000282156,0.123469000,0.132283963,-0.496381000,-0.017798800,-0.494104892,1.226390000,,,,,
1749759911.565412,0.025041100,-0.000159820,-0.030536100,0.004243620,0.004268700,-0.024619200,-0.005403860,-0.005316330,1749759911.565412045,0.025039899,0.000292707,0.123771000,0.132720588,-0.496383000,-0.018071300,-0.494065369,1.226000000,,,,,
1749759911.569454,,,,,,,,,,,,,,,,,,1749759911.569453955,0.000000000,0.000000000,0.000000000,0.065536400
1749759911.575461,0.025343100,-0.000083037,-0.031117800,0.008047290,0.003893330,-0.025508400,-0.006173770,-0.004721290,1749759911.575460911,0.025340400,0.000379138,0.124066000,0.133097321,-0.496373000,-0.018237200,-0.494027966,1.225610000,,,,,
1749759911.585411,0.025653800,0.000029204,-0.031748200,0.011551200,0.003471130,-0.026658600,-0.007139310,-0.004131750,1749759911.585411072,0.025648900,0.000502208,0.124364000,0.133494766,-0.496357000,-0.018439200,-0.493979578,1.225210000,,,,,
1749759911.589455,,,,,,,,,,,,,,,,,,1749759911.589454889,0.000000000,0.000000000,0.000000000,0.074578100
1749759911.595406,0.025891200,0.000069820,-0.032381400,0.015300500,0.002993200,-0.028113400,-0.007095250,-0.003471540,1749759911.595406055,0.025885476,0.000548876,0.124655000,0.133817713,-0.496351000,-0.018504200,-0.493959516,1.224800000,,,,,
1749759911.605393,0.026101500,0.000049275,-0.033057900,0.018982600,0.002559940,-0.029160500,-0.006711850,-0.002783590,1749759911.605392933,0.026096112,0.000532623,0.124945000,0.134115227,-0.496354000,-0.018519400,-0.493955111,1.224370000,,,,,
1749759911.609483,,,,,,,,,,,,,,,,,,1749759911.609483004,0.000000000,0.000000000,0.000000000,0.083493500
1749759911.615427,0.026331400,0.000021541,-0.033738600,0.020473200,0.001942690,-0.031401900,-0.006800180,-0.002377210,1749759911.615427017,0.026326445,0.000511257,0.125239000,0.134448748,-0.496357000,-0.018599400,-0.493941912,1.223940000,,,,,
1749759911.625289,0.026433500,-0.000086688,-0.034427400,0.021606500,0.001414160,-0.032878400,-0.006656840,-0.002007840,1749759911.625288963,0.026430521,0.000406194,0.125517000,0.134750312,-0.496373000,-0.018646600,-0.493946379,1.223510000,,,,,
1749759911.629485,,,,,,,,,,,,,,,,,,1749759911.629484892,0.000000000,0.000000000,0.000000000,0.092268200
1749759911.635521,0.026341400,-0.000165287,-0.035099500,0.021011500,0.001102460,-0.032760900,-0.007410270,-0.001878220,1749759911.635520935,0.026339845,0.000330527,0.125768000,0.135088426,-0.496385000,-0.018822600,-0.493929929,1.223070000,,,,,
1749759911.645470,0.026163200,-0.000202435,-0.035799800,0.019367500,0.000677484,-0.033431000,-0.007136040,-0.001906930,1749759911.645469904,0.026162366,0.000290929,0.126006000,0.135343457,-0.496392000,-0.018856900,-0.493927807,1.222610000,,,,,
1749759911.649484,,,,,,,,,,,,,,,,,,1749759911.649483919,0.000000000,0.000000000,0.000000000,0.100888000
1749759911.655444,0.025854500,-0.000341428,-0.036498200,0.019522500,0.000252368,-0.034056100,-0.007659070,-0.001690750,1749759911.655443907,0.025856320,0.000149948,0.126223000,0.135633590,-0.496414000,-0.019004200,-0.493925738,1.222150000,,,,,
1749759911.665251,0.025531000,-0.000381607,-0.037131200,0.021709000,-0.000393874,-0.036160100,-0.007576090,-0.001177870,1749759911.665251017,0.025533635,0.000105276,0.126434000,0.135876582,-0.496423000,-0.019068700,-0.493921963,1.221700000,,,,,
1749759911.669487,,,,,,,,,,,,,,,,,,1749759911.669487000,0.000000000,0.000000000,0.000000000,0.109339000
1749759911.675399,0.025236600,-0.000353856,-0.037461200,0.023978900,-0.001144200,-0.038835800,-0.005754990,-0.000631000,1749759911.675399065,0.025238783,0.000122643,0.126647000,0.135996289,-0.496423000,-0.018879900,-0.493943587,1.221280000,,,,,
1749759911.685397,0.025025700,-0.000329129,-0.037583400,0.026695900,-0.001943830,-0.041666600,-0.003345400,0.000003524,1749759911.685396910,0.025027494,0.000136064,0.126868000,0.136072766,-0.496423000,-0.018587400,-0.493979237,1.220880000,,,,,
1749759911.689484,,,,,,,,,,,,,,,,,,1749759911.689483881,0.000000000,0.000000000,0.000000000,0.117609000
1749759911.695554,0.024889200,-0.000340402,-0.037621600,0.029350900,-0.002696700,-0.043980800,0.000011482,0.000656208,1749759911.695554018,0.024891280,0.000110950,0.127099000,0.136079440,-0.496428000,-0.018133200,-0.494041801,1.220500000,,,,,
1749759911.705273,0.024814600,-0.000446153,-0.037603600,0.032011700,-0.003249930,-0.044761500,0.001035280,0.001336280,1749759911.705272913,0.024818610,0.000000168,0.127337000,0.136244178,-0.496447000,-0.017984300,-0.494076775,1.220130000,,,,,
1749759911.709486,,,,,,,,,,,,,,,,,,1749759911.709486008,0.000000000,0.000000000,0.000000000,0.125684000
1749759911.715432,0.024659600,-0.000650154,-0.037566900,0.031276000,-0.003752750,-0.045141500,0.002027350,0.001549520,1749759911.715431929,0.024667272,-0.000210398,0.127562000,0.136393412,-0.496481000,-0.017829800,-0.494127802,1.219760000,,,,,
1749759911.725424,0.024483300,-0.000924709,-0.037500800,0.028530900,-0.004115910,-0.044534000,0.002776500,0.001463460,1749759911.725424051,0.024495832,-0.000491215,0.127783000,0.136551399,-0.496527000,-0.017700700,-0.494187487,1.219390000,,,,,
1749759911.729485,,,,,,,,,,,,,,,,,,1749759911.729485035,0.000000000,0.000000000,0.000000000,0.133554000
1749759911.735461,0.024307800,-0.001146410,-0.037293100,0.025475200,-0.004520910,-0.044256300,0.001954850,0.001304830,1749759911.735460997,0.024324349,-0.000713760,0.128003000,0.136817378,-0.496569000,-0.017792300,-0.494213056,1.219050000,,,,,
1749759911.745373,0.024212900,-0.001415240,-0.037048500,0.022878400,-0.004662080,-0.042181800,0.001894830,0.001182310,1749759911.745373011,0.024234236,-0.000984497,0.128232000,0.137041894,-0.496619000,-0.017781500,-0.494260454,1.218710000,,,,,
1749759911.749488,,,,,,,,,,,,,,,,,,1749759911.749488115,0.000000000,0.000000000,0.000000000,0.141206000
1749759911.755409,0.024175500,-0.001693900,-0.036756600,0.019876200,-0.004611290,-0.038928800,0.001309900,0.000974933,1749759911.755409002,0.024201880,-0.001262181,0.128469000,0.137312458,-0.496674000,-0.017847500,-0.494302170,1.218380000,,,,,
1749759911.765386,0.024107800,-0.001963300,-0.036433000,0.017194400,-0.004287760,-0.034022300,0.001746840,0.000784076,1749759911.765386105,0.024138881,-0.001534593,0.128701000,0.137507602,-0.496730000,-0.017771000,-0.494364541,1.218060000,,,,,
1749759911.769485,,,,,,,,,,,,,,,,,,1749759911.769484997,0.000000000,0.000000000,0.000000000,0.148629000
1749759911.775395,0.024103800,-0.002175900,-0.035981300,0.014858900,-0.003828650,-0.028520400,0.001643950,0.000616722,1749759911.775394917,0.024138655,-0.001747293,0.128941000,0.137747185,-0.496781000,-0.017768400,-0.494411626,1.217760000,,,,,
1749759911.785287,0.024065700,-0.002487090,-0.035491300,0.012816000,-0.003224850,-0.022401200,-0.000567468,0.000468508,1749759911.785286903,0.024106717,-0.002051761,0.129177000,0.138135097,-0.496848000,-0.018073300,-0.494432328,1.217470000,,,,,
1749759911.789457,,,,,,,,,,,,,,,,,,1749759911.789457083,0.000000000,0.000000000,0.000000000,0.155815000
1749759911.795438,0.023903000,-0.002715450,-0.034884400,0.011481700,-0.002674000,-0.017067700,-0.002712510,0.000402824,1749759911.795438051,0.023948894,-0.002275425,0.129394000,0.138510004,-0.496906000,-0.018390600,-0.494442473,1.217210000,,,,,
1749759911.805341,0.023609400,-0.002892840,-0.034249800,0.010048800,-0.002147640,-0.012269900,-0.004427210,0.000309460,1749759911.805341005,0.023659284,-0.002451650,0.129590000,0.138843518,-0.496959000,-0.018666800,-0.494453530,1.216950000,,,,,
1749759911.809457,,,,,,,,,,,,,,,,,,1749759911.809457064,0.000000000,0.000000000,0.000000000,0.162753000
1749759911.815484,0.023146500,-0.002924480,-0.033585800,0.009214200,-0.001902020,-0.009734670,-0.004443830,0.000288698,1749759911.815484047,0.023197171,-0.002490841,0.129759000,0.139036197,-0.496992000,-0.018713500,-0.494476877,1.216710000,,,,,
1749759911.825482,0.022719100,-0.002981810,-0.032832200,0.009425630,-0.001941840,-0.009338690,-0.002991390,0.000411557,1749759911.825481892,0.022770493,-0.002559952,0.129928000,0.139123491,-0.497030000,-0.018546900,-0.494534893,1.216480000,,,,,
1749759911.829450,,,,,,,,,,,,,,,,,,1749759911.829449892,0.000000000,0.000000000,0.000000000,0.169435000
1749759911.835312,0.022226400,-0.003126420,-0.031978200,0.008701610,-0.001928470,-0.008603880,-0.002090540,0.000400626,1749759911.835311890,0.022280285,-0.002715923,0.130084000,0.139230487,-0.497080000,-0.018446000,-0.494596042,1.216270000,,,,,
1749759911.845366,0.021818900,-0.003298270,-0.031118700,0.006322940,-0.001820330,-0.007267310,-0.002012730,0.000142064,1749759911.845366001,0.021876052,-0.002895050,0.130247000,0.139399260,-0.497137000,-0.018455600,-0.494648688,1.216080000,,,,,
1749759911.849467,,,,,,,,,,,,,,,,,,1749759911.849467039,0.000000000,0.000000000,0.000000000,0.175853000
1749759911.855485,0.021417700,-0.003474960,-0.030201600,0.004474090,-0.001668840,-0.005724350,-0.002136030,-0.000063310,1749759911.855484962,0.021478298,-0.003078298,0.130407000,0.139579102,-0.497195000,-0.018493600,-0.494698421,1.215900000,,,,,
1749759911.865370,0.021041800,-0.003700830,-0.029234500,0.002325100,-0.001587970,-0.004773730,-0.002217630,-0.000330780,1749759911.865370035,0.021106750,-0.003310380,0.130566000,0.139755758,-0.497263000,-0.018526800,-0.494758830,1.215740000,,,,,
1749759911.869488,,,,,,,,,,,,,,,,,,1749759911.869488001,0.000000000,0.000000000,0.000000000,0.182001000
1749759911.875401,0.020637700,-0.003926660,-0.028199500,0.000761615,-0.001537960,-0.004100880,-0.002211290,-0.000534674,1749759911.875401020,0.020706978,-0.003543216,0.130718000,0.139919568,-0.497333000,-0.018548100,-0.494823022,1.215600000,,,,,
1749759911.885413,0.020170100,-0.004147190,-0.027178900,-0.001141290,-0.001499250,-0.003552190,-0.001582460,-0.000803517,1749759911.885412931,0.020243287,-0.003773784,0.130857000,0.140025565,-0.497404000,-0.018478800,-0.494901136,1.215460000,,,,,
1749759911.889486,,,,,,,,,,,,,,,,,,1749759911.889486074,0.000000000,0.000000000,0.000000000,0.187872000
1749759911.895466,0.019584100,-0.004302630,-0.026049000,-0.002789280,-0.001460740,-0.003042630,-0.001020520,-0.001054350,1749759911.895466089,0.019660000,-0.003941319,0.130973000,0.140110159,-0.497468000,-0.018413000,-0.494972202,1.215360000,,,,,
1749759911.905384,0.019083400,-0.004625300,-0.024930400,-0.004878630,-0.001316380,-0.001839560,-0.001115650,-0.001385790,1749759911.905384064,0.019165429,-0.004272691,0.131096000,0.140246726,-0.497558000,-0.018437100,-0.495056543,1.215260000,,,,,
1749759911.909476,,,,,,,,,,,,,,,,,,1749759911.909476042,0.000000000,0.000000000,0.000000000,0.193460000
1749759911.915386,0.018542200,-0.004898480,-0.023727600,-0.007665010,-0.001305680,-0.001639240,-0.001040510,-0.001839390,1749759911.915385962,0.018629358,-0.004555799,0.131208000,0.140360392,-0.497644000,-0.018437300,-0.495140435,1.215180000,,,,,
1749759911.925379,0.018022600,-0.005131410,-0.022469600,-0.009726330,-0.001225870,-0.000977100,-0.001580830,-0.002215510,1749759911.925379038,0.018114567,-0.004796658,0.131318000,0.140515928,-0.497727000,-0.018526200,-0.495208903,1.215130000,,,,,
1749759911.929460,,,,,,,,,,,,,,,,,,1749759911.929460049,0.000000000,0.000000000,0.000000000,0.198762000
1749759911.935368,0.017487400,-0.005350970,-0.021179400,-0.011083100,-0.001023480,0.000483251,-0.002355960,-0.002509890,1749759911.935368061,0.017584172,-0.005023837,0.131421000,0.140684042,-0.497810000,-0.018654600,-0.495271921,1.215090000,,,,,
1749759911.945125,0.016974000,-0.005523010,-0.019875000,-0.011820900,-0.000519350,0.003920000,-0.002248750,-0.002727900,1749759911.945125103,0.017074112,-0.005205288,0.131521000,0.140789442,-0.497888000,-0.018662600,-0.495346916,1.215070000,,,,,
1749759911.949464,,,,,,,,,,,,,,,,,,1749759911.949464083,0.000000000,0.000000000,0.000000000,0.203772000
1749759911.955537,0.016641800,-0.005662250,-0.018510000,-0.013593700,-0.000172639,0.006036650,-0.001626920,-0.003103670,1749759911.955537081,0.016744205,-0.005351840,0.131643000,0.140879200,-0.497964000,-0.018594700,-0.495430193,1.215070000,,,,,
1749759911.965361,0.016318700,-0.005814060,-0.017046000,-0.016509300,0.000148937,0.007834600,0.000182177,-0.003663190,1749759911.965361118,0.016422625,-0.005513679,0.131762000,0.140877501,-0.498043000,-0.018348200,-0.495541708,1.215100000,,,,,
1749759911.969486,,,,,,,,,,,,,,,,,,1749759911.969485998,0.000000000,0.000000000,0.000000000,0.208490000
1749759911.975373,0.016012300,-0.005900630,-0.015488000,-0.019618000,0.000547398,0.010038000,0.001033570,-0.004279930,1749759911.975373030,0.016117161,-0.005607879,0.131881000,0.140935565,-0.498113000,-0.018222700,-0.495627204,1.215150000,,,,,
1749759911.985387,0.015648000,-0.006011240,-0.013882800,-0.022317100,0.000942056,0.012063600,0.002072500,-0.004868230,1749759911.985387087,0.015754013,-0.005727650,0.131988000,0.140963956,-0.498188000,-0.018061400,-0.495722986,1.215230000,,,,,
1749759911.989484,,,,,,,,,,,,,,,,,,1749759911.989484072,0.000000000,0.000000000,0.000000000,0.212912000
1749759911.995414,0.015425400,-0.006100230,-0.012195800,-0.023971400,0.001219160,0.013140600,0.002655560,-0.005331740,1749759911.995414019,0.015532443,-0.005822283,0.132112000,0.141036997,-0.498261000,-0.017956000,-0.495808602,1.215340000,,,,,
1749759912.005100,0.015125200,-0.006117310,-0.010511100,-0.025094000,0.001386430,0.013387400,0.002826380,-0.005734550,1749759912.005100012,0.015232298,-0.005845533,0.132223000,0.141123640,-0.498325000,-0.017904600,-0.495877854,1.215460000,,,,,
1749759912.009464,,,,,,,,,,,,,,,,,,1749759912.009464025,0.000000000,0.000000000,0.000000000,0.217037000
1749759912.015590,0.014766700,-0.006070850,-0.008796250,-0.025499900,0.001607370,0.013986700,0.002891280,-0.006044460,1749759912.015589952,0.014872805,-0.005806060,0.132322000,0.141204894,-0.498379000,-0.017866900,-0.495935396,1.215600000,,,,,
1749759912.025461,0.014387100,-0.006004630,-0.007094410,-0.026292900,0.001756700,0.014051800,0.003169670,-0.006414670,1749759912.025460958,0.014491683,-0.005747638,0.132414000,0.141263369,-0.498430000,-0.017797500,-0.495994549,1.215760000,,,,,
1749759912.029483,,,,,,,,,,,,,,,,,,1749759912.029483080,0.000000000,0.000000000,0.000000000,0.220865000
1749759912.035444,0.013903700,-0.005967620,-0.005424540,-0.026307000,0.001884210,0.013962300,0.003448450,-0.006679650,1749759912.035444021,0.014007288,-0.005720248,0.132488000,0.141302521,-0.498485000,-0.017725300,-0.496058427,1.215940000,,,,,
1749759912.045484,0.013300300,-0.005930590,-0.003707920,-0.025495100,0.001771220,0.012223600,0.003518620,-0.006824760,1749759912.045484066,0.013403073,-0.005694517,0.132539000,0.141332343,-0.498539000,-0.017680700,-0.496117818,1.216130000,,,,,
1749759912.049480,,,,,,,,,,,,,,,,,,1749759912.049479961,0.000000000,0.000000000,0.000000000,0.224396000
1749759912.055377,0.012725200,-0.005874600,-0.001919930,-0.022909400,0.001794670,0.011543600,0.002567380,-0.006704060,1749759912.055377007,0.012827654,-0.005647382,0.132589000,0.141434360,-0.498591000,-0.017783700,-0.496154361,1.216350000,,,,,
1749759912.065386,0.012189000,-0.005787240,-0.000024478,-0.022407000,0.002168610,0.013322900,0.002556530,-0.006860170,1749759912.065386057,0.012289851,-0.005569867,0.132638000,0.141472211,-0.498637000,-0.017759600,-0.496202892,1.216610000,,,,,
1749759912.069477,,,,,,,,,,,,,,,,,,1749759912.069477081,0.000000000,0.000000000,0.000000000,0.227632000
1749759912.075600,0.011757100,-0.005691290,0.001915630,-0.023539700,0.002759630,0.016473900,0.004658470,-0.007248790,1749759912.075599909,0.011854501,-0.005485526,0.132697000,0.141367718,-0.498681000,-0.017428600,-0.496292657,1.216890000,,,,,
1749759912.085379,0.011488700,-0.005578490,0.003787010,-0.024499400,0.003473410,0.020253100,0.007368250,-0.007623610,1749759912.085378885,0.011581807,-0.005382520,0.132776000,0.141228905,-0.498721000,-0.016988400,-0.496393492,1.217180000,,,,,
1749759912.089483,,,,,,,,,,,,,,,,,,1749759912.089483023,0.000000000,0.000000000,0.000000000,0.230575000
1749759912.095389,0.011285300,-0.005364200,0.005634700,-0.025446600,0.004048310,0.022816200,0.008834540,-0.008006220,1749759912.095388889,0.011373313,-0.005174977,0.132861000,0.141171989,-0.498746000,-0.016701700,-0.496457538,1.217490000,,,,,
1749759912.105210,0.011235100,-0.005096110,0.007596560,-0.024055600,0.004777410,0.026264200,0.010134200,-0.008058600,1749759912.105210066,0.011317282,-0.004910900,0.132967000,0.141140581,-0.498760000,-0.016424500,-0.496508909,1.217830000,,,,,
1749759912.109452,,,,,,,,,,,,,,,,,,1749759912.109452009,0.000000000,0.000000000,0.000000000,0.233228000
1749759912.115365,0.011154700,-0.004901580,0.009557030,-0.020871300,0.005648630,0.030453200,0.009300510,-0.007836530,1749759912.115365028,0.011233791,-0.004717494,0.133068000,0.141251776,-0.498783000,-0.016444300,-0.496527451,1.218190000,,,,,
1749759912.125386,0.011386100,-0.004769900,0.011519900,-0.018298400,0.006600780,0.034910800,0.007708300,-0.007671450,1749759912.125386000,0.011463628,-0.004580442,0.133213000,0.141465922,-0.498813000,-0.016582600,-0.496535502,1.218570000,,,,,
1749759912.129458,,,,,,,,,,,,,,,,,,1749759912.129457951,0.000000000,0.000000000,0.000000000,0.235594000
1749759912.135433,0.011875200,-0.004640390,0.013599500,-0.015860500,0.007178790,0.036486400,0.007354260,-0.007500260,1749759912.135432959,0.011950399,-0.004443146,0.133398000,0.141638616,-0.498842000,-0.016556900,-0.496565071,1.218990000,,,,,
1749759912.145406,0.012294300,-0.004523450,0.015681400,-0.012712300,0.007694710,0.037526100,0.007986340,-0.007201480,1749759912.145406008,0.012366792,-0.004321328,0.133577000,0.141735983,-0.498871000,-0.016391600,-0.496614539,1.219430000,,,,,
1749759912.149457,,,,,,,,,,,,,,,,,,1749759912.149456978,0.000000000,0.000000000,0.000000000,0.237678000
1749759912.155196,0.012556000,-0.004252470,0.017850600,-0.010631300,0.007842120,0.035957800,0.008235030,-0.007026270,1749759912.155195951,0.012623545,-0.004047559,0.133738000,0.141839451,-0.498877000,-0.016275600,-0.496634356,1.219900000,,,,,
1749759912.165373,0.012665300,-0.003954290,0.019931100,-0.007168580,0.008004440,0.034600000,0.008241160,-0.006629510,1749759912.165373087,0.012727666,-0.003748700,0.133880000,0.141940046,-0.498876000,-0.016192300,-0.496642871,1.220380000,,,,,
1749759912.169459,,,,,,,,,,,,,,,,,,1749759912.169459105,0.000000000,0.000000000,0.000000000,0.239484000
1749759912.175418,0.012553000,-0.003651850,0.022000100,-0.005785870,0.008062320,0.032616900,0.006547250,-0.006500320,1749759912.175417900,0.012611048,-0.003446054,0.133990000,0.142131265,-0.498872000,-0.016356000,-0.496613830,1.220880000,,,,,
1749759912.185454,0.012380500,-0.003347220,0.024319300,-0.003830230,0.007753610,0.028246900,0.005495400,-0.006274060,1749759912.185453892,0.012433863,-0.003143199,0.134091000,0.142275523,-0.498864000,-0.016443400,-0.496591746,1.221440000,,,,,
1749759912.189476,,,,,,,,,,,,,,,,,,1749759912.189476013,0.000000000,0.000000000,0.000000000,0.241020000
1749759912.195366,0.012208400,-0.003029940,0.026718300,-0.000236577,0.007593240,0.025198800,0.005035410,-0.005790270,1749759912.195365906,0.012256603,-0.002828647,0.134189000,0.142379172,-0.498852000,-0.016455200,-0.496576456,1.222030000,,,,,
1749759912.205185,0.012051000,-0.002546260,0.029224600,0.003054260,0.007504550,0.022853800,0.004156340,-0.005314530,1749759912.205184937,0.012091447,-0.002346687,0.134289000,0.142516932,-0.498812000,-0.016532600,-0.496523787,1.222660000,,,,,
1749759912.209447,,,,,,,,,,,,,,,,,,1749759912.209446907,0.000000000,0.000000000,0.000000000,0.242291000
1749759912.215440,0.012137600,-0.002082320,0.031705500,0.008275540,0.007657840,0.022335900,0.003985260,-0.004525430,1749759912.215440035,0.012170334,-0.001881582,0.134422000,0.142640928,-0.498770000,-0.016515900,-0.496481976,1.223310000,,,,,
1749759912.225521,0.012527600,-0.001686540,0.034141800,0.012818500,0.007775140,0.021605800,0.003360520,-0.003782660,1749759912.225521088,0.012553820,-0.001478776,0.134600000,0.142843561,-0.498733000,-0.016566800,-0.496434771,1.223980000,,,,,
1749759912.229454,,,,,,,,,,,,,,,,,,1749759912.229454041,0.000000000,0.000000000,0.000000000,0.243305000
1749759912.235383,0.012764700,-0.001336510,0.036652000,0.018609800,0.007655050,0.019292100,0.003743390,-0.002813110,1749759912.235383034,0.012784989,-0.001126006,0.134759000,0.142957697,-0.498699000,-0.016477600,-0.496410896,1.224690000,,,,,
1749759912.245358,0.012915600,-0.001099880,0.039194200,0.023062300,0.007439270,0.016478900,0.003267090,-0.001980150,1749759912.245357990,0.012931997,-0.000886512,0.134909000,0.143123066,-0.498678000,-0.016509300,-0.496382890,1.225430000,,,,,
1749759912.249484,,,,,,,,,,,,,,,,,,1749759912.249484062,0.000000000,0.000000000,0.000000000,0.244069000
1749759912.255353,0.013091600,-0.000884770,0.041703200,0.026535500,0.007030760,0.012532800,0.003545200,-0.001244930,1749759912.255352974,0.013104373,-0.000669483,0.135064000,0.143241480,-0.498658000,-0.016436300,-0.496370792,1.226180000,,,,,
1749759912.265354,0.013190300,-0.000471929,0.044379400,0.029574400,0.006539640,0.008289720,0.002233840,-0.000538079,1749759912.265353918,0.013196314,-0.000253030,0.135209000,0.143462550,-0.498607000,-0.016591300,-0.496295185,1.226990000,,,,,
1749759912.269505,,,,,,,,,,,,,,,,,,1749759912.269505024,0.000000000,0.000000000,0.000000000,0.244593000
1749759912.275361,0.013286000,-0.000005968,0.047078800,0.034062700,0.006353550,0.006438200,0.000900283,0.000409734,1749759912.275361061,0.013284233,0.000216732,0.135355000,0.143692536,-0.498544000,-0.016762700,-0.496205150,1.227820000,,,,,
1749759912.285488,0.013521300,0.000369352,0.049842700,0.036950000,0.006449600,0.006656160,0.000298486,0.001169840,1749759912.285487890,0.013513163,0.000597004,0.135522000,0.143897538,-0.498489000,-0.016841200,-0.496136064,1.228700000,,,,,
1749759912.289486,,,,,,,,,,,,,,,,,,1749759912.289485931,0.000000000,0.000000000,0.000000000,0.244884000
1749759912.295383,0.013893400,0.000752443,0.052521600,0.037833300,0.006531950,0.006764850,0.000791962,0.001667660,1749759912.295382977,0.013878832,0.000985270,0.135711000,0.144048460,-0.498430000,-0.016766500,-0.496084652,1.229580000,,,,,
1749759912.305365,0.014147000,0.001070820,0.055147300,0.038483800,0.006527880,0.006271220,0.000793788,0.002140510,1749759912.305365086,0.014127069,0.001307738,0.135887000,0.144219463,-0.498376000,-0.016758300,-0.496028891,1.230490000,,,,,
1749759912.309485,,,,,,,,,,,,,,,,,,1749759912.309484959,0.000000000,0.000000000,0.000000000,0.244953000
1749759912.315346,0.014299400,0.001408670,0.057749600,0.037031300,0.006611890,0.006417780,0.000426131,0.002314320,1749759912.315346003,0.014273711,0.001648744,0.136050000,0.144404001,-0.498316000,-0.016803800,-0.495959598,1.231420000,,,,,
1749759912.325665,0.014265900,0.001753910,0.060323100,0.036080600,0.006810310,0.007341850,-0.000756485,0.002546510,1749759912.325664997,0.014234081,0.001995757,0.136189000,0.144624966,-0.498252000,-0.016971300,-0.495869054,1.232370000,,,,,
1749759912.329455,,,,,,,,,,,,,,,,,,1749759912.329454899,0.000000000,0.000000000,0.000000000,0.244809000
1749759912.335095,0.014473400,0.002080380,0.063052300,0.034619300,0.006897010,0.007433260,-0.001547100,0.002695010,1749759912.335094929,0.014435726,0.002327468,0.136361000,0.144856523,-0.498187000,-0.017093700,-0.495783417,1.233370000,,,,,
1749759912.345149,0.014662400,0.002347350,0.065712300,0.034478400,0.007307040,0.009743910,0.000721262,0.003020740,1749759912.345149040,0.014620950,0.002593039,0.136534000,0.144872809,-0.498127000,-0.016779700,-0.495765984,1.234390000,,,,,
1749759912.349455,,,,,,,,,,,,,,,,,,1749759912.349455118,0.000000000,0.000000000,0.000000000,0.244463000
1749759912.355474,0.014937500,0.002623390,0.068288000,0.034042600,0.008035210,0.014085300,0.001148200,0.003302210,1749759912.355473995,0.014891579,0.002872624,0.136720000,0.145023373,-0.498064000,-0.016710400,-0.495709923,1.235420000,,,,,
1749759912.365413,0.015075200,0.002924670,0.070746400,0.032163600,0.008664780,0.017449200,0.002497710,0.003369650,1749759912.365412951,0.015024884,0.003173045,0.136890000,0.145089332,-0.497994000,-0.016502900,-0.495667209,1.236460000,,,,,
1749759912.369468,,,,,,,,,,,,,,,,,,1749759912.369467974,0.000000000,0.000000000,0.000000000,0.243926000
1749759912.375565,0.015126800,0.003108390,0.073211500,0.031018000,0.009118610,0.019372000,0.001555550,0.003524850,1749759912.375565052,0.015073069,0.003359278,0.137048000,0.145301844,-0.497938000,-0.016614800,-0.495592353,1.237530000,,,,,
1749759912.385505,0.015465200,0.003236940,0.075775400,0.027353100,0.009498390,0.020652600,0.002702230,0.003302580,1749759912.385504961,0.015409923,0.003490625,0.137248000,0.145410696,-0.497888000,-0.016432600,-0.495565539,1.238630000,,,,,
1749759912.389475,,,,,,,,,,,,,,,,,,1749759912.389475107,0.000000000,0.000000000,0.000000000,0.243209000
1749759912.395359,0.015755500,0.003350350,0.078245800,0.023599600,0.009882030,0.021871800,0.003501010,0.003030800,1749759912.395359039,0.015698836,0.003606545,0.137445000,0.145536004,-0.497839000,-0.016289600,-0.495534125,1.239750000,,,,,
1749759912.405350,0.016399000,0.003363780,0.080661000,0.021126000,0.010427700,0.024122200,0.002698400,0.002907430,1749759912.405349970,0.016341736,0.003631789,0.137696000,0.145826833,-0.497804000,-0.016371200,-0.495483144,1.240880000,,,,,
1749759912.409476,,,,,,,,,,,,,,,,,,1749759912.409476042,0.000000000,0.000000000,0.000000000,0.242324000
1749759912.415392,0.016661000,0.003366900,0.082933200,0.017521300,0.011127000,0.027275200,0.002551190,0.002595000,1749759912.415391922,0.016603670,0.003639104,0.137898000,0.146025475,-0.497770000,-0.016365600,-0.495446659,1.242020000,,,,,
1749759912.425330,0.016884500,0.003348080,0.085072300,0.014716500,0.011537200,0.028221000,0.002023850,0.002362710,1749759912.425329924,0.016827263,0.003624804,0.138097000,0.146249256,-0.497739000,-0.016416700,-0.495404934,1.243160000,,,,,
1749759912.429449,,,,,,,,,,,,,,,,,,1749759912.429449081,0.000000000,0.000000000,0.000000000,0.241281000
1749759912.435182,0.016919700,0.003243120,0.087272700,0.012290200,0.011650700,0.027060200,0.000586103,0.002157390,1749759912.435182095,0.016863517,0.003523617,0.138271000,0.146516364,-0.497721000,-0.016605300,-0.495356456,1.244330000,,,,,
1749759912.445222,0.017235800,0.003184180,0.089457500,0.008779710,0.011869300,0.026702200,0.000320216,0.001770280,1749759912.445221901,0.017180438,0.003470497,0.138486000,0.146747183,-0.497697000,-0.016638100,-0.495324076,1.245520000,,,,,
1749759912.449455,,,,,,,,,,,,,,,,,,1749759912.449455023,0.000000000,0.000000000,0.000000000,0.240094000
1749759912.455390,0.017983200,0.003042790,0.091415000,0.004812590,0.012232600,0.027364900,-0.000346059,0.001281720,1749759912.455389977,0.017929774,0.003343240,0.138767000,0.147074304,-0.497685000,-0.016731700,-0.495293639,1.246700000,,,,,
1749759912.465363,0.018456000,0.002918350,0.093222700,0.002152360,0.012691500,0.028640100,0.001662650,0.000943364,1749759912.465363026,0.018405520,0.003221419,0.139016000,0.147180224,-0.497673000,-0.016443300,-0.495319942,1.247870000,,,,,
1749759912.469453,,,,,,,,,,,,,,,,,,1749759912.469453096,0.000000000,0.000000000,0.000000000,0.238773000
1749759912.475468,0.018850200,0.002806930,0.094908500,0.000066282,0.012808300,0.027472700,0.002680100,0.000661819,1749759912.475467920,0.018802011,0.003113405,0.139258000,0.147340548,-0.497660000,-0.016278900,-0.495327194,1.249050000,,,,,
1749759912.485204,0.018969300,0.002654670,0.096670200,-0.002363710,0.012843400,0.025823200,0.001702920,0.000309447,1749759912.485203981,0.018923232,0.002965282,0.139463000,0.147602433,-0.497654000,-0.016394000,-0.495300872,1.250260000,,,,,
1749759912.489480,,,,,,,,,,,,,,,,,,1749759912.489480019,0.000000000,0.000000000,0.000000000,0.237333000
1749759912.495540,0.019459800,0.002480720,0.098306800,-0.005050760,0.013078700,0.025665100,0.001419590,-0.000104569,1749759912.495539904,0.019416450,0.002799866,0.139724000,0.147875368,-0.497653000,-0.016418200,-0.495292015,1.251460000,,,,,
1749759912.505357,0.020140400,0.002302510,0.099846100,-0.007749470,0.013396600,0.026086900,0.000080813,-0.000547151,1749759912.505357027,0.020099409,0.002636478,0.140018000,0.148258643,-0.497654000,-0.016598500,-0.495261465,1.252670000,,,,,
1749759912.509467,,,,,,,,,,,,,,,,,,1749759912.509466887,0.000000000,0.000000000,0.000000000,0.235784000
1749759912.515426,0.020658800,0.002196550,0.101174000,-0.010708000,0.013782800,0.026949400,0.000411851,-0.001054470,1749759912.515425920,0.020619621,0.002538128,0.140295000,0.148511254,-0.497646000,-0.016549600,-0.495256131,1.253860000,,,,,
1749759912.525213,0.021145100,0.002077790,0.102396000,-0.010594500,0.014028900,0.026788700,0.001509610,-0.001145050,1749759912.525213003,0.021108216,0.002423979,0.140572000,0.148707125,-0.497642000,-0.016386000,-0.495271883,1.255050000,,,,,
1749759912.529450,,,,,,,,,,,,,,,,,,1749759912.529449940,0.000000000,0.000000000,0.000000000,0.234140000
1749759912.535231,0.021258200,0.002029020,0.103595000,-0.008900710,0.014367600,0.027276200,0.001647770,-0.001004920,1749759912.535231113,0.021222184,0.002376322,0.140800000,0.148917432,-0.497628000,-0.016350800,-0.495259391,1.256250000,,,,,
1749759912.545391,0.021580100,0.002028890,0.104917000,-0.009496120,0.014646100,0.027315400,-0.000003537,-0.001180430,1749759912.545391083,0.021543510,0.002386268,0.141059000,0.149286703,-0.497608000,-0.016574200,-0.495201821,1.257470000,,,,,
1749759912.549477,,,,,,,,,,,,,,,,,,1749759912.549477100,0.000000000,0.000000000,0.000000000,0.232412000
1749759912.555440,0.022304100,0.001843380,0.105992000,-0.011556600,0.014687000,0.025716500,-0.001030440,-0.001574750,1749759912.555439949,0.022270155,0.002216105,0.141380000,0.149681641,-0.497614000,-0.016723400,-0.495180173,1.258680000,,,,,
1749759912.565454,0.022747900,0.001716660,0.106807000,-0.012283900,0.014895600,0.025382800,-0.000754288,-0.001795980,1749759912.565454006,0.022716075,0.002096148,0.141668000,0.149954844,-0.497614000,-0.016693600,-0.495179826,1.259860000,,,,,
1749759912.569473,,,,,,,,,,,,,,,,,,1749759912.569473028,0.000000000,0.000000000,0.000000000,0.230613000
1749759912.575212,0.023157500,0.001598860,0.107597000,-0.011822700,0.014726000,0.022468300,-0.000376659,-0.001851810,1749759912.575212002,0.023127678,0.001984107,0.141955000,0.150218382,-0.497614000,-0.016646300,-0.495182141,1.261040000,,,,,
1749759912.585415,0.023572000,0.001505910,0.108559000,-0.009338510,0.014473200,0.019181300,0.000997102,-0.001609130,1749759912.585414886,0.023544039,0.001893460,0.142246000,0.150412350,-0.497612000,-0.016450500,-0.495204758,1.262260000,,,,,
1749759912.589453,,,,,,,,,,,,,,,,,,1749759912.589452982,0.000000000,0.000000000,0.000000000,0.228755000
1749759912.595395,0.023839100,0.001473790,0.109561000,-0.005166210,0.014270300,0.016464300,0.000088207,-0.001096360,1749759912.595395088,0.023811403,0.001868645,0.142521000,0.150747594,-0.497601000,-0.016572600,-0.495170833,1.263490000,,,,,
1749759912.605418,0.024268300,0.001386460,0.110325000,-0.004907130,0.014101600,0.014170200,-0.000064898,-0.001110380,1749759912.605417967,0.024241953,0.001788956,0.142822000,0.151059066,-0.497599000,-0.016593900,-0.495160628,1.264690000,,,,,
1749759912.609454,,,,,,,,,,,,,,,,,,1749759912.609453917,0.000000000,0.000000000,0.000000000,0.226851000
1749759912.615457,0.024641900,0.001329700,0.111066000,-0.004372550,0.013999200,0.012490100,-0.000044601,-0.001081780,1749759912.615457058,0.024616448,0.001738347,0.143119000,0.151354803,-0.497594000,-0.016591600,-0.495151048,1.265900000,,,,,
1749759912.625407,0.025014200,0.001405660,0.111770000,-0.001945810,0.013430900,0.007718330,0.001325400,-0.000772947,1749759912.625406981,0.024987797,0.001815511,0.143419000,0.151556013,-0.497569000,-0.016393000,-0.495151183,1.267120000,,,,,
1749759912.629506,,,,,,,,,,,,,,,,,,1749759912.629506111,0.000000000,0.000000000,0.000000000,0.224912000
1749759912.635441,0.025386300,0.001371960,0.112567000,0.003252340,0.012601100,0.001475790,0.001480440,-0.000037209,1749759912.635441065,0.025360463,0.001787009,0.143723000,0.151842148,-0.497560000,-0.016357300,-0.495142622,1.268350000,,,,,
1749759912.645454,0.025955600,0.001256620,0.113398000,0.006527160,0.011924700,-0.003281920,0.004627860,0.000471088,1749759912.645453930,0.025932364,0.001668754,0.144060000,0.151945380,-0.497563000,-0.015885200,-0.495211898,1.269600000,,,,,
1749759912.649486,,,,,,,,,,,,,,,,,,1749759912.649486065,0.000000000,0.000000000,0.000000000,0.222950000
1749759912.655462,0.026374100,0.001127800,0.113993000,0.007839190,0.011788100,-0.003996190,0.005370050,0.000726973,1749759912.655462027,0.026353096,0.001542537,0.144380000,0.152189121,-0.497569000,-0.015731100,-0.495236273,1.270820000,,,,,
1749759912.665293,0.026687700,0.000990748,0.114558000,0.009267190,0.011412100,-0.006309100,0.006575670,0.001012830,1749759912.665292978,0.026669135,0.001404330,0.144689000,0.152384859,-0.497578000,-0.015502200,-0.495275305,1.272040000,,,,,
1749759912.669486,,,,,,,,,,,,,,,,,,1749759912.669486046,0.000000000,0.000000000,0.000000000,0.220976000
1749759912.675530,0.026933000,0.000894994,0.115171000,0.011725500,0.010672600,-0.010964700,0.005322230,0.001462650,1749759912.675529957,0.026915737,0.001315523,0.144992000,0.152745534,-0.497582000,-0.015618600,-0.495256831,1.273270000,,,,,
1749759912.685430,0.027295200,0.000750745,0.115640000,0.015782000,0.009835050,-0.015975300,0.005474690,0.002169240,1749759912.685430050,0.027280234,0.001174892,0.145314000,0.153030339,-0.497594000,-0.015543200,-0.495275340,1.274490000,,,,,
1749759912.689485,,,,,,,,,,,,,,,,,,1749759912.689485073,0.000000000,0.000000000,0.000000000,0.219002000
1749759912.695472,0.027917600,0.000572907,0.116249000,0.019851000,0.009229490,-0.019043800,0.006687460,0.002918210,1749759912.695472002,0.027905555,0.001000306,0.145677000,0.153279209,-0.497612000,-0.015312300,-0.495323102,1.275740000,,,,,
1749759912.705246,0.028249600,0.000459140,0.116847000,0.020226300,0.008829090,-0.020489000,0.007815720,0.003171240,1749759912.705245972,0.028239463,0.000885118,0.146005000,0.153493013,-0.497623000,-0.015081500,-0.495364518,1.276990000,,,,,
1749759912.709445,,,,,,,,,,,,,,,,,,1749759912.709445000,0.000000000,0.000000000,0.000000000,0.217038000
1749759912.715497,0.028594600,0.000387587,0.117350000,0.019238800,0.008222670,-0.023252800,0.007295130,0.003230040,1749759912.715497017,0.028585505,0.000818702,0.146337000,0.153823777,-0.497629000,-0.015078900,-0.495365910,1.278230000,,,,,
1749759912.725461,0.028964000,0.000202227,0.117892000,0.020913300,0.007146800,-0.029057700,0.008318640,0.003665700,1749759912.725461006,0.028957799,0.000632516,0.146677000,0.154054305,-0.497652000,-0.014857300,-0.495417931,1.279480000,,,,,
1749759912.729458,,,,,,,,,,,,,,,,,,1749759912.729458094,0.000000000,0.000000000,0.000000000,0.215095000
1749759912.735408,0.029284000,0.000160959,0.118464000,0.023384500,0.006300030,-0.032886100,0.010516900,0.004233850,1749759912.735408068,0.029278614,0.000584219,0.147013000,0.154190860,-0.497656000,-0.014454700,-0.495479056,1.280740000,,,,,
1749759912.745441,0.029747100,-0.000192043,0.118770000,0.024252700,0.005764390,-0.034309400,0.011049400,0.004593830,1749759912.745440960,0.029746811,0.000232519,0.147373000,0.154461109,-0.497706000,-0.014272200,-0.495552045,1.281970000,,,,,
1749759912.749466,,,,,,,,,,,,,,,,,,1749759912.749465942,0.000000000,0.000000000,0.000000000,0.213183000
1749759912.755389,0.030004200,-0.000427516,0.119086000,0.021464400,0.005334030,-0.034910100,0.010534800,0.004431280,1749759912.755388975,0.030007246,-0.000000332,0.147708000,0.154778896,-0.497742000,-0.014236500,-0.495588786,1.283210000,,,,,
1749759912.765346,0.030185500,-0.000683222,0.119455000,0.019837300,0.004799490,-0.036186400,0.010136500,0.004409540,1749759912.765346050,0.030192155,-0.000254866,0.148034000,0.155081905,-0.497783000,-0.014189000,-0.495632508,1.284450000,,,,,
1749759912.769463,,,,,,,,,,,,,,,,,,1749759912.769463062,0.000000000,0.000000000,0.000000000,0.211310000
1749759912.775497,0.030233000,-0.000964481,0.119794000,0.022464500,0.004621570,-0.034920300,0.008939900,0.004989590,1749759912.775496960,0.030243680,-0.000533230,0.148343000,0.155427491,-0.497831000,-0.014261500,-0.495664852,1.285690000,,,,,
1749759912.785218,0.030403600,-0.001187530,0.119959000,0.025027400,0.004323610,-0.034567600,0.008096950,0.005586580,1749759912.785218000,0.030417468,-0.000752819,0.148670000,0.155771414,-0.497873000,-0.014294500,-0.495697044,1.286920000,,,,,
1749759912.789455,,,,,,,,,,,,,,,,,,1749759912.789454937,0.000000000,0.000000000,0.000000000,0.209488000
1749759912.795385,0.030374300,-0.001520580,0.119957000,0.023492400,0.004109010,-0.033665400,0.008786390,0.005613840,1749759912.795384884,0.030392735,-0.001091758,0.148970000,0.155982458,-0.497933000,-0.014113400,-0.495781006,1.288120000,,,,,
1749759912.805418,0.030416000,-0.001824050,0.120023000,0.020818500,0.004116790,-0.031294600,0.008078330,0.005460300,1749759912.805418015,0.030438734,-0.001394153,0.149280000,0.156300711,-0.497993000,-0.014128400,-0.495834281,1.289330000,,,,,
1749759912.809453,,,,,,,,,,,,,,,,,,1749759912.809453011,0.000000000,0.000000000,0.000000000,0.207723000
1749759912.815568,0.030603500,-0.002065280,0.120264000,0.020377200,0.004286690,-0.027971000,0.007367940,0.005604380,1749759912.815567970,0.030629660,-0.001632024,0.149611000,0.156643535,-0.498046000,-0.014150800,-0.495879091,1.290560000,,,,,
1749759912.825200,0.030699600,-0.002286400,0.120544000,0.021885100,0.004185030,-0.026745500,0.006439950,0.006027220,1749759912.825200081,0.030728993,-0.001849881,0.149931000,0.156994603,-0.498099000,-0.014212000,-0.495917950,1.291800000,,,,,
1749759912.829447,,,,,,,,,,,,,,,,,,1749759912.829447031,0.000000000,0.000000000,0.000000000,0.206024000
1749759912.835385,0.030698500,-0.002461570,0.120629000,0.022451000,0.003825200,-0.027381300,0.008714650,0.006328280,1749759912.835385084,0.030729580,-0.002037184,0.150238000,0.157106387,-0.498147000,-0.013817100,-0.496023662,1.293020000,,,,,
1749759912.845495,0.030721200,-0.002692030,0.120552000,0.018762300,0.003510880,-0.027660100,0.008894510,0.006016880,1749759912.845494986,0.030755205,-0.002270793,0.150548000,0.157360952,-0.498205000,-0.013703800,-0.496095206,1.294220000,,,,,
1749759912.849458,,,,,,,,,,,,,,,,,,1749759912.849457979,0.000000000,0.000000000,0.000000000,0.204398000
1749759912.855453,0.030736500,-0.002973120,0.120669000,0.017422900,0.003471110,-0.026030100,0.007667860,0.006009920,1749759912.855453014,0.030774583,-0.002548899,0.150858000,0.157716161,-0.498273000,-0.013793100,-0.496144869,1.295440000,,,,,
1749759912.865464,0.030507700,-0.003408230,0.120829000,0.017809600,0.003523980,-0.023874400,0.005542500,0.006240340,1749759912.865463972,0.030552499,-0.002980032,0.151132000,0.158106590,-0.498366000,-0.014025200,-0.496197398,1.296670000,,,,,
1749759912.869484,,,,,,,,,,,,,,,,,,1749759912.869483948,0.000000000,0.000000000,0.000000000,0.202853000
1749759912.875482,0.030375000,-0.003684530,0.120950000,0.018531100,0.003471700,-0.022591000,0.005917640,0.006523240,1749759912.875482082,0.030423329,-0.003261510,0.151418000,0.158339059,-0.498440000,-0.013915300,-0.496284784,1.297900000,,,,,
1749759912.885402,0.030106600,-0.004146510,0.120863000,0.016441600,0.003394730,-0.021565800,0.007652710,0.006404990,1749759912.885401964,0.030160222,-0.003736569,0.151682000,0.158449948,-0.498544000,-0.013604000,-0.496434450,1.299090000,,,,,
1749759912.889500,,,,,,,,,,,,,,,,,,1749759912.889499903,0.000000000,0.000000000,0.000000000,0.201395000
1749759912.895418,0.029960700,-0.004596760,0.120835000,0.014472800,0.003444800,-0.019736700,0.005969220,0.006283380,1749759912.895417929,0.030021164,-0.004183715,0.151962000,0.158814843,-0.498651000,-0.013772100,-0.496510941,1.300300000,,,,,
1749759912.905327,0.029956000,-0.005076620,0.120854000,0.013081700,0.003473300,-0.018182000,0.003655020,0.006226000,1749759912.905327082,0.030024361,-0.004655293,0.152261000,0.159252708,-0.498766000,-0.014048600,-0.496577798,1.301510000,,,,,
1749759912.909469,,,,,,,,,,,,,,,,,,1749759912.909468889,0.000000000,0.000000000,0.000000000,0.200029000
1749759912.915455,0.029900300,-0.005583030,0.120959000,0.011334000,0.003534330,-0.016510500,0.002913880,0.006102910,1749759912.915455103,0.029976148,-0.005160304,0.152553000,0.159581751,-0.498891000,-0.014119700,-0.496687339,1.302730000,,,,,
1749759912.925528,0.029867600,-0.006137080,0.121042000,0.009520390,0.003468820,-0.015824900,0.003388680,0.005952770,1749759912.925528049,0.029950713,-0.005717699,0.152847000,0.159828903,-0.499027000,-0.014021600,-0.496834856,1.303950000,,,,,
1749759912.929486,,,,,,,,,,,,,,,,,,1749759912.929486036,0.000000000,0.000000000,0.000000000,0.198762000
1749759912.935378,0.029629900,-0.006658980,0.120799000,0.006852390,0.003379450,-0.015350800,0.003697820,0.005660360,1749759912.935378075,0.029719862,-0.006245222,0.153111000,0.160055636,-0.499164000,-0.013942800,-0.496980755,1.305130000,,,,,
1749759912.945201,0.029657500,-0.007228630,0.120870000,0.002179350,0.003522120,-0.013312200,0.001684610,0.005049970,1749759912.945200920,0.029757142,-0.006806829,0.153411000,0.160484709,-0.499314000,-0.014198300,-0.497085570,1.306350000,,,,,
1749759912.949476,,,,,,,,,,,,,,,,,,1749759912.949476004,0.000000000,0.000000000,0.000000000,0.197596000
1749759912.955458,0.029677700,-0.007850580,0.120869000,-0.001367020,0.003944670,-0.009487430,0.000238578,0.004556540,1749759912.955457926,0.029787604,-0.007422675,0.153711000,0.160883043,-0.499476000,-0.014391500,-0.497212221,1.307560000,,,,,
1749759912.965472,0.029684200,-0.008388020,0.120985000,-0.003529160,0.004373430,-0.005883170,0.000387284,0.004228750,1749759912.965471983,0.029801647,-0.007960681,0.154009000,0.161171335,-0.499633000,-0.014367500,-0.497368784,1.308780000,,,,,
1749759912.969493,,,,,,,,,,,,,,,,,,1749759912.969492912,0.000000000,0.000000000,0.000000000,0.196537000
1749759912.975489,0.029541700,-0.008795810,0.120935000,-0.006279790,0.004635450,-0.003674660,0.001073660,0.003793840,1749759912.975488901,0.029664154,-0.008373547,0.154285000,0.161397868,-0.499776000,-0.014264000,-0.497524512,1.309980000,,,,,
1749759912.985143,0.029208400,-0.009128620,0.120765000,-0.012093900,0.004947230,-0.001275730,0.002053260,0.002886360,1749759912.985142946,0.029334301,-0.008715568,0.154532000,0.161570589,-0.499912000,-0.014110900,-0.497681717,1.311170000,,,,,
1749759912.989453,,,,,,,,,,,,,,,,,,1749759912.989453077,0.000000000,0.000000000,0.000000000,0.195587000
1749759912.995420,0.028915500,-0.009480540,0.120857000,-0.016140200,0.005514330,0.002715530,0.000966248,0.002177570,1749759912.995419979,0.029047642,-0.009067595,0.154781000,0.161889981,-0.500055000,-0.014248300,-0.497798950,1.312390000,,,,,
1749759913.005456,0.028687900,-0.009895790,0.120887000,-0.019009600,0.006269260,0.007724940,0.001835010,0.001599290,1749759913.005455971,0.028824692,-0.009489963,0.155037000,0.162080491,-0.500210000,-0.014112400,-0.497972318,1.313600000,,,,,
1749759913.009453,,,,,,,,,,,,,,,,,,1749759913.009453058,0.000000000,0.000000000,0.000000000,0.194749000
1749759913.015394,0.028464000,-0.010224400,0.120864000,-0.020424900,0.006815670,0.010954300,0.002183340,0.001203570,1749759913.015393972,0.028604775,-0.009823671,0.155292000,0.162303219,-0.500357000,-0.014043500,-0.498126889,1.314810000,,,,,
1749759913.025459,0.028009100,-0.010407500,0.120627000,-0.023052500,0.007259070,0.013252300,0.002782450,0.000617592,1749759913.025459051,0.028151400,-0.010016207,0.155510000,0.162468735,-0.500485000,-0.013934600,-0.498269511,1.315980000,,,,,
1749759913.029454,,,,,,,,,,,,,,,,,,1749759913.029453993,0.000000000,0.000000000,0.000000000,0.194026000
1749759913.035453,0.027635400,-0.010750300,0.120474000,-0.026578000,0.007907320,0.016802100,0.001197160,-0.000125134,1749759913.035453081,0.027784611,-0.010358554,0.155736000,0.162797786,-0.500639000,-0.014137100,-0.498387391,1.317170000,,,,,
1749759913.045348,0.027717200,-0.011161000,0.120505000,-0.028636500,0.008486310,0.019630800,0.001158960,-0.000689977,1749759913.045347929,0.027872140,-0.010768235,0.156024000,0.163084927,-0.500806000,-0.014130700,-0.498551346,1.318370000,,,,,
1749759913.049453,,,,,,,,,,,,,,,,,,1749759913.049453020,0.000000000,0.000000000,0.000000000,0.193417000
1749759913.055380,0.027836500,-0.011544100,0.120435000,-0.030215300,0.008890880,0.021064400,0.001344160,-0.001205710,1749759913.055380106,0.027996412,-0.011150689,0.156319000,0.163363071,-0.500974000,-0.014092200,-0.498721451,1.319570000,,,,,
1749759913.065351,0.027873800,-0.011901000,0.120406000,-0.031482500,0.009253570,0.022110900,0.000860251,-0.001691960,1749759913.065351009,0.028039392,-0.011505436,0.156603000,0.163677732,-0.501141000,-0.014149000,-0.498875136,1.320770000,,,,,
1749759913.069463,,,,,,,,,,,,,,,,,,1749759913.069463015,0.000000000,0.000000000,0.000000000,0.192925000
1749759913.075362,0.027600900,-0.012177200,0.120225000,-0.035083700,0.009440170,0.021873400,0.001523270,-0.002529980,1749759913.075361967,0.027769190,-0.011788382,0.156842000,0.163866609,-0.501300000,-0.014044100,-0.499047931,1.321950000,,,,,
1749759913.085375,0.027242500,-0.012415400,0.120153000,-0.038794300,0.009576170,0.021303900,0.000196052,-0.003419900,1749759913.085375071,0.027416307,-0.012026723,0.157066000,0.164181447,-0.501457000,-0.014221700,-0.499172619,1.323140000,,,,,
1749759913.089484,,,,,,,,,,,,,,,,,,1749759913.089483976,0.000000000,0.000000000,0.000000000,0.192550000
1749759913.095593,0.027277800,-0.012588100,0.120148000,-0.038280800,0.010026300,0.022935700,-0.000630303,-0.003733230,1749759913.095592976,0.027455500,-0.012195661,0.157343000,0.164519506,-0.501606000,-0.014339800,-0.499298238,1.324340000,,,,,
1749759913.105362,0.027389900,-0.012825900,0.120133000,-0.036498500,0.010290800,0.023178000,-0.000542750,-0.003857100,1749759913.105361938,0.027570919,-0.012432006,0.157632000,0.164807574,-0.501766000,-0.014333400,-0.499455133,1.325540000,,,,,
1749759913.109456,,,,,,,,,,,,,,,,,,1749759913.109456062,0.000000000,0.000000000,0.000000000,0.192290000
1749759913.115453,0.027415500,-0.012983500,0.120057000,-0.038179600,0.010334300,0.021881600,0.001379160,-0.004466330,1749759913.115453005,0.027595327,-0.012596779,0.157910000,0.164950913,-0.501917000,-0.014059600,-0.499647315,1.326730000,,,,,
1749759913.125433,0.027103200,-0.013076800,0.119848000,-0.040707500,0.010300000,0.020139200,0.001249780,-0.005215380,1749759913.125432968,0.027284433,-0.012694324,0.158139000,0.165184414,-0.502061000,-0.014064600,-0.499787255,1.327900000,,,,,
1749759913.129454,,,,,,,,,,,,,,,,,,1749759913.129453897,0.000000000,0.000000000,0.000000000,0.192144000
1749759913.135425,0.026853300,-0.013201200,0.119833000,-0.039820400,0.010489400,0.020057300,0.001240720,-0.005493580,1749759913.135425091,0.027036164,-0.012822529,0.158373000,0.165414887,-0.502210000,-0.014053400,-0.499934802,1.329100000,,,,,
1749759913.145201,0.026970000,-0.013162200,0.119727000,-0.037787100,0.010771800,0.020620300,0.001170430,-0.005596380,1749759913.145200968,0.027152276,-0.012781952,0.158659000,0.165701529,-0.502336000,-0.014051200,-0.500057135,1.330280000,,,,,
1749759913.149467,,,,,,,,,,,,,,,,,,1749759913.149466991,0.000000000,0.000000000,0.000000000,0.192112000
1749759913.155371,0.026998400,-0.013221300,0.119699000,-0.035119600,0.010712800,0.018795000,0.001730300,-0.005586710,1749759913.155370951,0.027180310,-0.012843175,0.158933000,0.165930950,-0.502476000,-0.013958200,-0.500208705,1.331470000,,,,,
1749759913.165368,0.026836400,-0.013129200,0.119581000,-0.036480200,0.010359300,0.015067700,0.002306330,-0.006135570,1749759913.165368080,0.027015752,-0.012756074,0.159179000,0.166128054,-0.502595000,-0.013857200,-0.500341041,1.332650000,,,,,
1749759913.169452,,,,,,,,,,,,,,,,,,1749759913.169451952,0.000000000,0.000000000,0.000000000,0.192190000
1749759913.175454,0.026457700,-0.012932700,0.118420000,-0.037342600,0.010018700,0.011686600,0.002787830,-0.006625670,1749759913.175453901,0.026633195,-0.012567320,0.159393000,0.166296869,-0.502698000,-0.013764100,-0.500456551,1.333680000,,,,,
1749759913.185351,0.026455900,-0.012790900,0.118667000,-0.034057700,0.010174200,0.011952600,0.000244626,-0.006521870,1749759913.185350895,0.026633687,-0.012416461,0.159657000,0.166733312,-0.502806000,-0.014105700,-0.500503980,1.334900000,,,,,
1749759913.189455,,,,,,,,,,,,,,,,,,1749759913.189455032,0.000000000,0.000000000,0.000000000,0.192376000
1749759913.195653,0.026622000,-0.012601300,0.118808000,-0.030527600,0.010294100,0.011954700,0.000484870,-0.006349580,1749759913.195652962,0.026796640,-0.012225536,0.159946000,0.167005035,-0.502907000,-0.014068400,-0.500607123,1.336110000,,,,,
1749759913.205347,0.026586200,-0.012316600,0.118853000,-0.028526700,0.010196800,0.010462300,0.000861027,-0.006364160,1749759913.205347061,0.026756128,-0.011942960,0.160207000,0.167237400,-0.502991000,-0.014008900,-0.500697395,1.337300000,,,,,
1749759913.209455,,,,,,,,,,,,,,,,,,1749759913.209455013,0.000000000,0.000000000,0.000000000,0.192666000
1749759913.215553,0.026450200,-0.012019800,0.118913000,-0.027505800,0.009886730,0.007607890,0.000469859,-0.006501110,1749759913.215553045,0.026616545,-0.011646812,0.160453000,0.167508648,-0.503072000,-0.014057100,-0.500766867,1.338500000,,,,,
1749759913.225212,0.026401100,-0.011835800,0.118917000,-0.025342400,0.009867940,0.006954880,-0.002512200,-0.006461860,1749759913.225212097,0.026569774,-0.011452133,0.160710000,0.167981581,-0.503165000,-0.014485700,-0.500784295,1.339690000,,,,,
1749759913.229443,,,,,,,,,,,,,,,,,,1749759913.229443073,0.000000000,0.000000000,0.000000000,0.193058000
1749759913.235441,0.026644300,-0.011524200,0.118919000,-0.022350500,0.010090400,0.008007610,-0.004020550,-0.006280610,1749759913.235440969,0.026811154,-0.011130496,0.161009000,0.168403911,-0.503238000,-0.014729900,-0.500811847,1.340880000,,,,,
1749759913.245334,0.026927600,-0.011170600,0.119054000,-0.018894600,0.010185100,0.008107820,-0.004033340,-0.006002040,1749759913.245333910,0.027089668,-0.010771621,0.161317000,0.168733906,-0.503302000,-0.014772000,-0.500864200,1.342090000,,,,,
1749759913.249451,,,,,,,,,,,,,,,,,,1749759913.249450922,0.000000000,0.000000000,0.000000000,0.193545000
1749759913.255406,0.027048100,-0.010763900,0.119018000,-0.018319800,0.010004700,0.006308210,-0.003014160,-0.006107480,1749759913.255405903,0.027203030,-0.010366118,0.161604000,0.168967659,-0.503355000,-0.014664200,-0.500931172,1.343270000,,,,,
1749759913.265100,0.027076400,-0.010450700,0.119035000,-0.017129000,0.009847810,0.004794130,-0.002693130,-0.006117680,1749759913.265100002,0.027226570,-0.010052983,0.161878000,0.169234322,-0.503417000,-0.014647800,-0.500991923,1.344460000,,,,,
1749759913.269447,,,,,,,,,,,,,,,,,,1749759913.269447088,0.000000000,0.000000000,0.000000000,0.194125000
1749759913.275512,0.027254000,-0.010116000,0.119068000,-0.015950900,0.009874600,0.004648530,-0.003564970,-0.006117810,1749759913.275511980,0.027400739,-0.009711512,0.162175000,0.169609019,-0.503473000,-0.014801300,-0.501017538,1.345660000,,,,,
1749759913.285396,0.027485600,-0.009804940,0.118927000,-0.014885500,0.009919440,0.004637200,-0.004110740,-0.006122530,1749759913.285396099,0.027628790,-0.009393881,0.162481000,0.169973436,-0.503529000,-0.014916300,-0.501049459,1.346830000,,,,,
1749759913.289477,,,,,,,,,,,,,,,,,,1749759913.289477110,0.000000000,0.000000000,0.000000000,0.194791000
1749759913.295385,0.027576600,-0.009445630,0.118865000,-0.012371700,0.009801250,0.003504520,-0.003359100,-0.005906170,1749759913.295384884,0.027713806,-0.009035141,0.162769000,0.170227950,-0.503574000,-0.014848200,-0.501101752,1.348010000,,,,,
1749759913.305377,0.027603400,-0.009072760,0.118760000,-0.011481200,0.009585630,0.001779130,-0.002268550,-0.005900520,1749759913.305377007,0.027733984,-0.008665378,0.163049000,0.170445935,-0.503615000,-0.014723300,-0.501159883,1.349180000,,,,,
1749759913.309477,,,,,,,,,,,,,,,,,,1749759913.309477091,0.000000000,0.000000000,0.000000000,0.195537000
1749759913.315589,0.027438800,-0.008586870,0.118512000,-0.009553510,0.009555080,0.001446400,-0.002731010,-0.005735280,1749759913.315588951,0.027562984,-0.008179486,0.163301000,0.170743257,-0.503635000,-0.014813200,-0.501160823,1.350340000,,,,,
1749759913.325453,0.027397100,-0.008021300,0.118204000,-0.006913430,0.009539390,0.001238860,-0.003549210,-0.005447260,1749759913.325453043,0.027514024,-0.007610574,0.163569000,0.171084555,-0.503639000,-0.014959400,-0.501135845,1.351480000,,,,,
1749759913.329486,,,,,,,,,,,,,,,,,,1749759913.329485893,0.000000000,0.000000000,0.000000000,0.196359000
1749759913.335377,0.027507100,-0.007539650,0.117782000,-0.006469730,0.009526700,0.001066230,-0.003530300,-0.005451930,1749759913.335376978,0.027617040,-0.007126429,0.163859000,0.171391059,-0.503649000,-0.014992100,-0.501135902,1.352600000,,,,,
1749759913.345397,0.027587700,-0.007076270,0.117530000,-0.005317920,0.009492200,0.000755377,-0.001731520,-0.005349290,1749759913.345396996,0.027689178,-0.006668151,0.164146000,0.171564885,-0.503657000,-0.014766100,-0.501178385,1.353740000,,,,,
1749759913.349454,,,,,,,,,,,,,,,,,,1749759913.349453926,0.000000000,0.000000000,0.000000000,0.197250000
1749759913.355392,0.027461500,-0.006519210,0.117205000,-0.004460460,0.009144190,-0.001692030,-0.000491479,-0.005277890,1749759913.355391979,0.027553770,-0.006117501,0.164404000,0.171741117,-0.503647000,-0.014603300,-0.501192542,1.354870000,,,,,
1749759913.365198,0.027338900,-0.006009290,0.116804000,-0.003268000,0.008879130,-0.003400030,-0.000748750,-0.005149260,1749759913.365197897,0.027423975,-0.005608265,0.164660000,0.172018158,-0.503638000,-0.014645600,-0.501172529,1.355980000,,,,,
1749759913.369447,,,,,,,,,,,,,,,,,,1749759913.369446993,0.000000000,0.000000000,0.000000000,0.198203000
1749759913.375637,0.027441100,-0.005543260,0.116444000,-0.001409400,0.008770160,-0.003916020,-0.000762827,-0.004911920,1749759913.375637054,0.027519387,-0.005140527,0.164949000,0.172311771,-0.503630000,-0.014655100,-0.501158661,1.357090000,,,,,
1749759913.385373,0.027464800,-0.005044670,0.115897000,0.001084340,0.008865580,-0.002989710,-0.000150891,-0.004563710,1749759913.385373116,0.027535401,-0.004643882,0.165226000,0.172547749,-0.503613000,-0.014573800,-0.501151633,1.358180000,,,,,
1749759913.389455,,,,,,,,,,,,,,,,,,1749759913.389455080,0.000000000,0.000000000,0.000000000,0.199212000
1749759913.395410,0.027463900,-0.004520790,0.115241000,0.000708561,0.008936670,-0.002294610,0.001049840,-0.004607460,1749759913.395410061,0.027526153,-0.004124830,0.165501000,0.172735694,-0.503587000,-0.014400900,-0.501151502,1.359240000,,,,,
1749759913.405458,0.027221700,-0.004008600,0.114637000,0.001555340,0.008645510,-0.004140730,0.001575030,-0.004477360,1749759913.405457973,0.027276289,-0.003618549,0.165740000,0.172930754,-0.503558000,-0.014314100,-0.501134075,1.360310000,,,,,
1749759913.409480,,,,,,,,,,,,,,,,,,1749759913.409480095,0.000000000,0.000000000,0.000000000,0.200269000
1749759913.415444,0.027036700,-0.003518990,0.114081000,0.002863650,0.008327820,-0.006042440,0.001092290,-0.004271730,1749759913.415443897,0.027084470,-0.003130163,0.165986000,0.173203545,-0.503527000,-0.014368500,-0.501090136,1.361370000,,,,,
1749759913.425427,0.027048100,-0.003049600,0.113503000,0.006947920,0.007895520,-0.008602150,-0.000013807,-0.003649720,1749759913.425426960,0.027089523,-0.002656603,0.166258000,0.173550048,-0.503494000,-0.014518200,-0.501027256,1.362430000,,,,,
1749759913.429458,,,,,,,,,,,,,,,,,,1749759913.429457903,0.000000000,0.000000000,0.000000000,0.201367000
1749759913.435371,0.027198500,-0.002453600,0.112940000,0.009281000,0.007479010,-0.010877000,0.001603980,-0.003241290,1749759913.435370922,0.027230770,-0.002064879,0.166550000,0.173723523,-0.503438000,-0.014283300,-0.501007844,1.363480000,,,,,
1749759913.445453,0.027252400,-0.001835290,0.112301000,0.008477360,0.007017260,-0.013306600,0.003459720,-0.003265230,1749759913.445452929,0.027275419,-0.001453652,0.166830000,0.173859490,-0.503373000,-0.013997700,-0.500988526,1.364520000,,,,,
